planning_area,subzone,poi_dimension,place_query_type,search_query,place_id,place_name,formatted_address,rating,user_ratings_total,types,lat,lng,need_reviews
Straits View,Straits View,education,education facilities schools childcare libraries,"education facilities schools childcare libraries near Straits View, Straits View, Singapore",ChIJLc768A4Z2jERemFom0buOCQ,Changemakers Explorer One Marina Boulevard | Preschool,"1 Marina Blvd, #B1-01, Singapore 018989",5.0,5,"[""establishment"", ""point_of_interest"", ""school""]",1.2822004,103.8526513,True
Straits View,Straits View,education,education facilities schools childcare libraries,"education facilities schools childcare libraries near Straits View, Straits View, Singapore",ChIJ2Uuf5swQ2jERUJ8XjfSTNDU,Little Skool-House OCBC Centre,"65 Chulia Street, West Wing, #02-02 OCBC Centre, Singapore 049513",5.0,7,"[""establishment"", ""point_of_interest"", ""school""]",1.285184,103.8488954,True
Straits View,Straits View,education,education facilities schools childcare libraries,"education facilities schools childcare libraries near Straits View, Straits View, Singapore",ChIJo-E5RxIZ2jERb28ybXebVTI,Mulberry Learning @ Shenton Way,"6A Shenton Wy, #03-01/04/04A/05 Downtown Gallery, Singapore 068809",4.4,45,"[""establishment"", ""point_of_interest""]",1.2771468,103.8485274,True
Straits View,Straits View,education,education facilities schools childcare libraries,"education facilities schools childcare libraries near Straits View, Straits View, Singapore",ChIJTXdxQk4b2jER4HdHnRNjvLY,HV Little Library,"2 Holland Ave, Block 2, Singapore 271002",4.9,64,"[""establishment"", ""library"", ""point_of_interest""]",1.3095115,103.7956789,True
Straits View,Straits View,education,education facilities schools childcare libraries,"education facilities schools childcare libraries near Straits View, Straits View, Singapore",ChIJJfVEO6UZ2jERq7ZasSTiEgg,Central Library,"100 Victoria St, #B1-01 National Library / Lee Kong Chian Reference Library, Singapore 188064",4.5,299,"[""establishment"", ""library"", ""point_of_interest""]",1.2977181,103.8543361,True
Straits View,Straits View,education,education facilities schools childcare libraries,"education facilities schools childcare libraries near Straits View, Straits View, Singapore",ChIJKaGsJKUZ2jERxa8yhKrdPfI,National Library / Lee Kong Chian Reference Library,"100 Victoria St, Singapore 188064",4.6,1765,"[""establishment"", ""library"", ""point_of_interest""]",1.2975884,103.8543081,True
Straits View,Straits View,education,education facilities schools childcare libraries,"education facilities schools childcare libraries near Straits View, Straits View, Singapore",ChIJ7TX0kGwZ2jERwoNvLj0ADek,Mulberry Learning Centre @ Tanjong Pagar,"5 Tanjong Pagar Plz, #02-01, Singapore 081005",4.9,38,"[""establishment"", ""point_of_interest"", ""school""]",1.2763368,103.8429097,True
Straits View,Straits View,education,education facilities schools childcare libraries,"education facilities schools childcare libraries near Straits View, Straits View, Singapore",ChIJAQDQQ38Z2jER_EqJkHCuyLw,Canopy Student Care (Tiong Bahru),"46 Jln. Bukit Ho Swee, #01-874, Singapore 160046",4.4,27,"[""establishment"", ""point_of_interest""]",1.2883461,103.8261998,True
Straits View,Straits View,education,education facilities schools childcare libraries,"education facilities schools childcare libraries near Straits View, Straits View, Singapore",ChIJj8lwOGwZ2jERCKcuHsVr4Z0,T.E.A.M. Student Care @ Tanjong Pagar (Cantonment),"101 Cantonment Rd, #01-04 Community Club, Singapore 089774",4.9,32,"[""establishment"", ""point_of_interest""]",1.2765467,103.8416837,True
Straits View,Straits View,education,education facilities schools childcare libraries,"education facilities schools childcare libraries near Straits View, Straits View, Singapore",ChIJI8r3ofMb2jERIjPaEQhAVuA,"Agora Colearning (Preschool, Play School, Enrichment, Student Care)","HarbourFront Centre, 1 Maritime Square, #04-01 Lobby C, Singapore 099253",4.9,138,"[""establishment"", ""point_of_interest"", ""school""]",1.2632359,103.8201359,True
Straits View,Straits View,education,education facilities schools childcare libraries,"education facilities schools childcare libraries near Straits View, Straits View, Singapore",ChIJqXLTAHEZ2jERacRM1phkzLk,"Thrive After-school, New Bahru","46 Kim Yam Rd, #04-10 New Bahru, Singapore 239351",5.0,3,"[""establishment"", ""point_of_interest""]",1.2928106,103.8386992,True
Straits View,Straits View,education,education facilities schools childcare libraries,"education facilities schools childcare libraries near Straits View, Straits View, Singapore",ChIJm9mlNAEZ2jERNpQ0A5lYt90,Changemakers Explorer Delta House | Preschool,"2 Alexandra Rd, #01-03A Delta House, Singapore 159919",4.0,21,"[""establishment"", ""point_of_interest"", ""school""]",1.2910893,103.8254356,True
Straits View,Straits View,education,education facilities schools childcare libraries,"education facilities schools childcare libraries near Straits View, Straits View, Singapore",ChIJDcJs9UEZ2jER4dKm3CUVyMk,Harbourfront Library,"1 HarbourFront Walk, #03-05 VivoCity, Singapore 098585",4.5,484,"[""establishment"", ""library"", ""point_of_interest""]",1.2636837,103.8233985,True
Straits View,Straits View,education,education facilities schools childcare libraries,"education facilities schools childcare libraries near Straits View, Straits View, Singapore",ChIJJ_UnE94Z2jERUIXUWo4WNxk,Learning Vision Tan Tock Seng Hospital,"11 Jln Tan Tock Seng, level 4, Singapore 308433",4.9,13,"[""establishment"", ""point_of_interest""]",1.3208729,103.8455559,True
Straits View,Straits View,education,education facilities schools childcare libraries,"education facilities schools childcare libraries near Straits View, Straits View, Singapore",ChIJw8IVMqk92jERhPm5ecCjtU8,Brave Feats Student Care (Bedok),"21 Bedok North Street 1, #02-02 Common Ground Civics Centre, Singapore 469659",5.0,33,"[""establishment"", ""point_of_interest""]",1.3269455,103.9308431,True
Straits View,Straits View,education,education facilities schools childcare libraries,"education facilities schools childcare libraries near Straits View, Straits View, Singapore",ChIJHWfoBcEj2jERVZ7WsZLGx7M,Seedlings World Student Care,"396 Joo Chiat Pl, #02-05 The Yards, Singapore 428079",4.8,17,"[""establishment"", ""point_of_interest""]",1.3149208,103.9101826,True
Straits View,Straits View,education,education facilities schools childcare libraries,"education facilities schools childcare libraries near Straits View, Straits View, Singapore",ChIJL2b6iToa2jERLPjNN7hKfIE,Children's Cove Preschool,"58 Jln Penjara, Singapore 149382",4.7,103,"[""establishment"", ""point_of_interest"", ""school""]",1.2993345,103.8071035,True
Straits View,Straits View,education,education facilities schools childcare libraries,"education facilities schools childcare libraries near Straits View, Straits View, Singapore",ChIJ1fYfwGAa2jERy7f1JLymou0,SP - Library & FabLab,"500 Dover Rd, Singapore 139651",4.2,34,"[""establishment"", ""library"", ""point_of_interest""]",1.3087569,103.7799417,True
Straits View,Straits View,education,education facilities schools childcare libraries,"education facilities schools childcare libraries near Straits View, Straits View, Singapore",ChIJZ1dF-wcZ2jERFQwOj6Y3DlQ,KIT КИТ. Russian Language. School in Singapore. Школа на русском языке в Сингапуре,"91 Bencoolen St, #08-05 Sunshine Plaza (Office Tower, Singapore 189652",5.0,19,"[""book_store"", ""establishment"", ""library"", ""point_of_interest"", ""school"", ""store""]",1.3005314,103.8508826,True
Straits View,Straits View,education,education facilities schools childcare libraries,"education facilities schools childcare libraries near Straits View, Straits View, Singapore",ChIJJ3-dmf4Z2jER8NcCtX-MYuM,The Learning Cornerstone,"60 Stevens Rd, The Metropolitan YMCA, Singapore 257854",5.0,5,"[""establishment"", ""point_of_interest""]",1.3164696,103.8266074,True
Straits View,Straits View,transport,public transport MRT LRT bus stops,"public transport MRT LRT bus stops near Straits View, Straits View, Singapore",ChIJUYNV1xEZ2jERRiJON8BNHU4,Downtown,Singapore,4.0,9,"[""establishment"", ""point_of_interest"", ""transit_station""]",1.279375,103.8527466,True
Straits View,Straits View,transport,public transport MRT LRT bus stops,"public transport MRT LRT bus stops near Straits View, Straits View, Singapore",ChIJOzU5YxAZ2jERcqNDuqwPSBQ,Marina Bay Stn,Singapore,4.5,2,"[""establishment"", ""point_of_interest"", ""transit_station""]",1.2775057,103.8556404,True
Straits View,Straits View,transport,public transport MRT LRT bus stops,"public transport MRT LRT bus stops near Straits View, Straits View, Singapore",ChIJ1RxtUQ4Z2jERzvF_IId6r50,The Sail,Singapore,3.8,10,"[""establishment"", ""point_of_interest"", ""transit_station""]",1.2816618,103.8530344,True
Straits View,Straits View,transport,public transport MRT LRT bus stops,"public transport MRT LRT bus stops near Straits View, Straits View, Singapore",ChIJ3ckQgxMZ2jER4iZjp5ytcc8,"Aft Straits Blvd, Shenton Way",Singapore,4.8,5,"[""establishment"", ""point_of_interest"", ""transit_station""]",1.2754359,103.8478901,True
Straits View,Straits View,transport,public transport MRT LRT bus stops,"public transport MRT LRT bus stops near Straits View, Straits View, Singapore",ChIJhdUvzxEZ2jERpazgmCiZA9M,Opp Downtown Stn,Singapore,5.0,1,"[""establishment"", ""point_of_interest"", ""transit_station""]",1.278794,103.852959,True
Straits View,Straits View,transport,public transport MRT LRT bus stops,"public transport MRT LRT bus stops near Straits View, Straits View, Singapore",ChIJ4cIMGwUZ2jER6hrXYMlWymM,Bayfront Stn Exit A,Singapore,4.6,7,"[""establishment"", ""point_of_interest"", ""transit_station""]",1.28125,103.85885,True
Straits View,Straits View,transport,public transport MRT LRT bus stops,"public transport MRT LRT bus stops near Straits View, Straits View, Singapore",ChIJg-mxAAUZ2jERBms7-8cN0KA,Aft Bayfront Stn Exit E,Singapore,3.9,15,"[""establishment"", ""point_of_interest"", ""transit_station""]",1.28195,103.85897,True
Straits View,Straits View,transport,public transport MRT LRT bus stops,"public transport MRT LRT bus stops near Straits View, Straits View, Singapore",ChIJjzEFOAQZ2jERsuro5WUJYdE,Bayfront Stn Exit B/MBS,Singapore,4.6,144,"[""establishment"", ""point_of_interest"", ""transit_station""]",1.2832122,103.8601026,True
Straits View,Straits View,transport,public transport MRT LRT bus stops,"public transport MRT LRT bus stops near Straits View, Straits View, Singapore",ChIJq0GQRB8Z2jERfz0GTv95OQg,Marina South Pier,Singapore,4.3,205,"[""establishment"", ""point_of_interest"", ""subway_station"", ""transit_station""]",1.2713874,103.8636056,True
Straits View,Straits View,transport,public transport MRT LRT bus stops,"public transport MRT LRT bus stops near Straits View, Straits View, Singapore",ChIJJQapQYoZ2jERuQGIErsO-0Q,Shenton Way MRT Station (TE19),"2 Park St, Singapore 018928",4.6,173,"[""establishment"", ""point_of_interest""]",1.2776948,103.8506814,True
Straits View,Straits View,transport,public transport MRT LRT bus stops,"public transport MRT LRT bus stops near Straits View, Straits View, Singapore",ChIJZYR8bQ4Z2jERyEEPvx8UU3U,One Raffles Quay,Singapore,4.5,27,"[""establishment"", ""point_of_interest"", ""transit_station""]",1.2811623,103.8514539,True
Straits View,Straits View,transport,public transport MRT LRT bus stops,"public transport MRT LRT bus stops near Straits View, Straits View, Singapore",ChIJYxQaT1IZ2jERLnIZbZPDh3Q,Marina Bay MRT Station (TE20),"25 Park St, Singapore 018929",4.6,121,"[""establishment"", ""point_of_interest""]",1.2752319,103.8544814,True
Straits View,Straits View,transport,public transport MRT LRT bus stops,"public transport MRT LRT bus stops near Straits View, Straits View, Singapore",ChIJr7Q1Gx8Z2jERZHstA5WZZA8,Marina Sth Pier Stn,Singapore,3.8,4,"[""establishment"", ""point_of_interest"", ""transit_station""]",1.2712642,103.8629855,True
Straits View,Straits View,transport,public transport MRT LRT bus stops,"public transport MRT LRT bus stops near Straits View, Straits View, Singapore",ChIJZ7g9aBMZ2jERAUxU5V-LxHc,Tanjong Pagar Stn Exit C,Singapore,4.4,13,"[""bus_station"", ""establishment"", ""point_of_interest"", ""transit_station""]",1.2758151,103.8463773,True
Straits View,Straits View,transport,public transport MRT LRT bus stops,"public transport MRT LRT bus stops near Straits View, Straits View, Singapore",ChIJXcB60w4Z2jERuvPJ6OrUR9M,OUE Bayfront,Singapore,4.2,24,"[""establishment"", ""point_of_interest"", ""transit_station""]",1.2833231,103.8528415,True
Straits View,Straits View,transport,public transport MRT LRT bus stops,"public transport MRT LRT bus stops near Straits View, Straits View, Singapore",ChIJ-zP9QKkZ2jERTf73RuVhlNg,Aft Promenade Stn Exit C,Singapore,4.3,6,"[""establishment"", ""point_of_interest"", ""transit_station""]",1.2928389,103.8609264,True
Straits View,Straits View,transport,public transport MRT LRT bus stops,"public transport MRT LRT bus stops near Straits View, Straits View, Singapore",ChIJG8EyZHMZ2jER9b122AhLjwA,Chinatown Stn Exit C,Singapore,4.1,16,"[""bus_station"", ""establishment"", ""point_of_interest"", ""transit_station""]",1.284143,103.843059,True
Straits View,Straits View,transport,public transport MRT LRT bus stops,"public transport MRT LRT bus stops near Straits View, Straits View, Singapore",ChIJPYxKUwQZ2jER7KUuPbBTsUQ,Bayfront,Singapore,4.6,1039,"[""establishment"", ""point_of_interest"", ""subway_station"", ""transit_station""]",1.2813386,103.8589551,True
Straits View,Straits View,transport,public transport MRT LRT bus stops,"public transport MRT LRT bus stops near Straits View, Straits View, Singapore",ChIJazeuVI0Z2jERKCPoqpySt7Y,Bugis MRT Station (DT14),"191 Rochor Rd, Singapore 188476",4.3,128,"[""establishment"", ""point_of_interest"", ""transit_station""]",1.2993293,103.8570591,True
Straits View,Straits View,transport,public transport MRT LRT bus stops,"public transport MRT LRT bus stops near Straits View, Straits View, Singapore",ChIJP0vqggoZ2jERzaXpph_uGqY,Clarke Quay Stn Exit E,Singapore,4.4,32,"[""establishment"", ""point_of_interest"", ""transit_station""]",1.2889766,103.8471055,True
Straits View,Straits View,food,food dining hawker centres restaurants cafes,"food dining hawker centres restaurants cafes near Straits View, Straits View, Singapore",ChIJ5Y6l4Q0Z2jERYL0KDIjT6v0,Lau Pa Sat,"18 Raffles Quay, Singapore 048582",4.4,38467,"[""establishment"", ""food"", ""point_of_interest"", ""restaurant"", ""tourist_attraction""]",1.2805121,103.8503809,True
Straits View,Straits View,food,food dining hawker centres restaurants cafes,"food dining hawker centres restaurants cafes near Straits View, Straits View, Singapore",ChIJJ4ldDwwZ2jER36nRVAyIXc8,Market Street Hawker Centre,"86 Market St, Singapore 048947",4.3,606,"[""establishment"", ""food"", ""point_of_interest"", ""restaurant""]",1.2849619,103.8502058,True
Straits View,Straits View,food,food dining hawker centres restaurants cafes,"food dining hawker centres restaurants cafes near Straits View, Straits View, Singapore",ChIJseQsTQ0Z2jERqpBTWF0Zf84,Maxwell Food Centre,"1 Kadayanallur St, Singapore 069184",4.4,23480,"[""establishment"", ""food"", ""point_of_interest"", ""restaurant"", ""tourist_attraction""]",1.2803361,103.844767,True
Straits View,Straits View,food,food dining hawker centres restaurants cafes,"food dining hawker centres restaurants cafes near Straits View, Straits View, Singapore",ChIJe4wL_OsZ2jERySoDk6jlhNQ,Newton Food Centre,"500 Clemenceau Ave N, Singapore 229495",4.2,14987,"[""establishment"", ""food"", ""point_of_interest"", ""restaurant""]",1.3119888,103.8395742,True
Straits View,Straits View,food,food dining hawker centres restaurants cafes,"food dining hawker centres restaurants cafes near Straits View, Straits View, Singapore",ChIJhQJ9sVQZ2jERrBQT0dPy6W4,Rogue | North Canal & Boat Quay,"18 N Canal Rd, Singapore 048830",4.4,540,"[""establishment"", ""food"", ""point_of_interest"", ""restaurant""]",1.2864519,103.8483506,True
Straits View,Straits View,food,food dining hawker centres restaurants cafes,"food dining hawker centres restaurants cafes near Straits View, Straits View, Singapore",ChIJzyyRZWUb2jERYQW51dRsmjc,Margaret Drive Hawker Centre,"38A Margaret Dr, Singapore 142038",3.9,763,"[""establishment"", ""food"", ""point_of_interest"", ""restaurant""]",1.2974238,103.8047286,True
Straits View,Straits View,food,food dining hawker centres restaurants cafes,"food dining hawker centres restaurants cafes near Straits View, Straits View, Singapore",ChIJRwKzawsZ2jERKxpszLl54EU,Hong Lim Market & Food Centre,"531A Upper Cross St, Singapore 051531",4.3,6616,"[""establishment"", ""food"", ""point_of_interest"", ""restaurant"", ""tourist_attraction""]",1.2853948,103.8458272,True
Straits View,Straits View,food,food dining hawker centres restaurants cafes,"food dining hawker centres restaurants cafes near Straits View, Straits View, Singapore",ChIJ83SVew0Z2jERsfl0iOB4Pco,My Awesome Cafe,"202 Telok Ayer St, Singapore 068639",4.7,7852,"[""bar"", ""cafe"", ""establishment"", ""food"", ""liquor_store"", ""point_of_interest"", ""restaurant"", ""store""]",1.2801094,103.8472056,True
Straits View,Straits View,food,food dining hawker centres restaurants cafes,"food dining hawker centres restaurants cafes near Straits View, Straits View, Singapore",ChIJ04DTdbQZ2jERFt4kBQi-E60,Golden Mile Food Centre,"505 Beach Rd, Singapore 199583",4.3,7464,"[""establishment"", ""food"", ""point_of_interest"", ""restaurant""]",1.3030908,103.8639299,True
Straits View,Straits View,food,food dining hawker centres restaurants cafes,"food dining hawker centres restaurants cafes near Straits View, Straits View, Singapore",ChIJdZupgcsb2jERP1Byeb2I-24,Alexandra Village Food Centre,"120 Bukit Merah Lane 1, Singapore 150120",4.2,6383,"[""establishment"", ""food"", ""point_of_interest"", ""restaurant""]",1.2863397,103.8045184,True
Straits View,Straits View,food,food dining hawker centres restaurants cafes,"food dining hawker centres restaurants cafes near Straits View, Straits View, Singapore",ChIJkalS-tQb2jERyBBUWbQg3eg,Redhill Food Centre,"85 Redhill Ln, Singapore 150085",4.2,2651,"[""establishment"", ""food"", ""point_of_interest"", ""restaurant""]",1.287294,103.8181829,True
Straits View,Straits View,food,food dining hawker centres restaurants cafes,"food dining hawker centres restaurants cafes near Straits View, Straits View, Singapore",ChIJOU6y-HkZ2jERchOICIgjl0E,Tiong Bahru Market,"30 Seng Poh Rd, Singapore 168898",4.3,10883,"[""establishment"", ""food"", ""point_of_interest"", ""restaurant""]",1.2850771,103.8328072,True
Straits View,Straits View,food,food dining hawker centres restaurants cafes,"food dining hawker centres restaurants cafes near Straits View, Straits View, Singapore",ChIJTy6ZPEwX2jERBrP9sQMhFVY,Circuit Road Hawker Centre,"Block 79/79A Circuit Rd, Singapore 370079",4.3,426,"[""establishment"", ""food"", ""point_of_interest"", ""restaurant""]",1.3261575,103.8850978,True
Straits View,Straits View,food,food dining hawker centres restaurants cafes,"food dining hawker centres restaurants cafes near Straits View, Straits View, Singapore",ChIJ7f__L20Z2jERt9btVig_DGw,Makansutra Gluttons Bay,"8 Raffles Ave., #01-15 Esplanade Mall, Singapore 039802",4.1,4165,"[""establishment"", ""food"", ""point_of_interest"", ""restaurant""]",1.2894024,103.8568698,True
Straits View,Straits View,food,food dining hawker centres restaurants cafes,"food dining hawker centres restaurants cafes near Straits View, Straits View, Singapore",ChIJ1ZbzmxIZ2jERLxbskKJNx8Q,Amoy Street Food Centre,"7 Maxwell Rd, Singapore 069111",4.3,3558,"[""establishment"", ""food"", ""point_of_interest"", ""restaurant""]",1.2794274,103.8467957,True
Straits View,Straits View,food,food dining hawker centres restaurants cafes,"food dining hawker centres restaurants cafes near Straits View, Straits View, Singapore",ChIJZYVWBn4Z2jER-Wvcz8eQOnM,Bukit Merah View Market & Hawker Centre,"115 Bukit Merah Vw, Singapore 151115",4.2,3655,"[""establishment"", ""food"", ""point_of_interest"", ""restaurant""]",1.2854726,103.822269,True
Straits View,Straits View,food,food dining hawker centres restaurants cafes,"food dining hawker centres restaurants cafes near Straits View, Straits View, Singapore",ChIJ72xdjXgZ2jERQkQHEiK2QJw,Havelock Road Cooked Food Centre,"22A Havelock Rd, Singapore 161022",4.0,1499,"[""establishment"", ""food"", ""point_of_interest"", ""restaurant""]",1.2877706,103.8295334,True
Straits View,Straits View,food,food dining hawker centres restaurants cafes,"food dining hawker centres restaurants cafes near Straits View, Straits View, Singapore",ChIJI-gKldYb2jERNcM2c5yLxNc,Bukit Merah Central Food Centre,"163 Bukit Merah Central, Singapore 150163",4.0,1388,"[""establishment"", ""food"", ""point_of_interest"", ""restaurant""]",1.2834536,103.8174057,True
Straits View,Straits View,food,food dining hawker centres restaurants cafes,"food dining hawker centres restaurants cafes near Straits View, Straits View, Singapore",ChIJcait2t8Z2jER6lDCe0HA9GU,Shenton Food Hall,"3 Shenton Wy, #01-04 Shenton House, Singapore 068805",3.9,131,"[""establishment"", ""food"", ""point_of_interest""]",1.2784546,103.8499767,True
Straits View,Straits View,food,food dining hawker centres restaurants cafes,"food dining hawker centres restaurants cafes near Straits View, Straits View, Singapore",ChIJWzTvXEcY2jERvSzB8XNKKCk,Old Airport Road Food Centre,"51 Old Airport Rd, Singapore 390051",4.3,12661,"[""bakery"", ""establishment"", ""food"", ""point_of_interest"", ""restaurant"", ""store""]",1.3082405,103.8858445,True
Straits View,Straits View,shopping,shopping groceries malls supermarkets markets,"shopping groceries malls supermarkets markets near Straits View, Straits View, Singapore",ChIJjZniPwAZ2jERx4qx_7dlNy0,FairPrice Finest Clarke Quay,"3 River Valley Rd, Block B, #01-04 to 05, Singapore 179019",4.5,857,"[""bar"", ""establishment"", ""food"", ""grocery_or_supermarket"", ""point_of_interest"", ""store"", ""supermarket""]",1.290771,103.8455041,True
Straits View,Straits View,shopping,shopping groceries malls supermarkets markets,"shopping groceries malls supermarkets markets near Straits View, Straits View, Singapore",ChIJuzb5KOYZ2jERLUHxHfP7ApY,The Shoppes at Marina Bay Sands,"10 Bayfront Ave, Singapore 018956",4.5,1028,"[""establishment"", ""point_of_interest"", ""shopping_mall""]",1.2836889,103.8591846,True
Straits View,Straits View,shopping,shopping groceries malls supermarkets markets,"shopping groceries malls supermarkets markets near Straits View, Straits View, Singapore",ChIJAY0ANgsZ2jERaYY81OR8CFc,FairPrice Chinatown Point,"133 New Bridge Rd, #B1-01, Singapore 059413",4.2,1892,"[""establishment"", ""food"", ""grocery_or_supermarket"", ""point_of_interest"", ""store"", ""supermarket""]",1.2857395,103.845281,True
Straits View,Straits View,shopping,shopping groceries malls supermarkets markets,"shopping groceries malls supermarkets markets near Straits View, Straits View, Singapore",ChIJn-gIK6QZ2jERdYjUlDWvNNc,CS Fresh,"252 N Bridge Rd, #B1-01, Singapore 179103",4.3,1753,"[""establishment"", ""food"", ""grocery_or_supermarket"", ""point_of_interest"", ""restaurant"", ""storage"", ""store"", ""supermarket""]",1.2938879,103.853569,True
Straits View,Straits View,shopping,shopping groceries malls supermarkets markets,"shopping groceries malls supermarkets markets near Straits View, Straits View, Singapore",ChIJ9UKUtjsZ2jER-VszUURb3LI,Marina Square,"6 Raffles Blvd, Singapore 039594",4.4,17563,"[""establishment"", ""point_of_interest"", ""shopping_mall""]",1.2911534,103.8576778,True
Straits View,Straits View,shopping,shopping groceries malls supermarkets markets,"shopping groceries malls supermarkets markets near Straits View, Straits View, Singapore",ChIJo7SpNMYZ2jER15JNmTE6Ne0,Mustafa Centre,"145 Syed Alwi Rd, Singapore 207704",4.4,13512,"[""department_store"", ""establishment"", ""food"", ""grocery_or_supermarket"", ""point_of_interest"", ""store""]",1.3099676,103.8554251,True
Straits View,Straits View,shopping,shopping groceries malls supermarkets markets,"shopping groceries malls supermarkets markets near Straits View, Straits View, Singapore",ChIJZ1omp8gZ2jERgDUAb_hBKLY,City Square Mall,"180 Kitchener Rd, Singapore 208539",4.3,22861,"[""establishment"", ""point_of_interest"", ""shopping_mall""]",1.3114516,103.8561608,True
Straits View,Straits View,shopping,shopping groceries malls supermarkets markets,"shopping groceries malls supermarkets markets near Straits View, Straits View, Singapore",ChIJ44PnOnMZ2jERDhzYwdX5qI4,Chinatown Street Market,"29 Smith St, Singapore 058943",4.4,2624,"[""establishment"", ""point_of_interest""]",1.2821932,103.8442544,True
Straits View,Straits View,shopping,shopping groceries malls supermarkets markets,"shopping groceries malls supermarkets markets near Straits View, Straits View, Singapore",ChIJJ6SpJdwZ2jER3cMcWGFXnTc,"Little Farms Market, Tanglin Mall (Grocery store)","163 Tanglin Rd, #02-136, Singapore 247933",4.6,273,"[""cafe"", ""establishment"", ""food"", ""grocery_or_supermarket"", ""point_of_interest"", ""restaurant"", ""store""]",1.3050246,103.8235685,True
Straits View,Straits View,shopping,shopping groceries malls supermarkets markets,"shopping groceries malls supermarkets markets near Straits View, Straits View, Singapore",ChIJj7TW9LoZ2jERQgNlXkKhASQ,Bugis Street,"261 Victoria St, Singapore 189876",4.4,21915,"[""establishment"", ""point_of_interest"", ""shopping_mall""]",1.3001991,103.8552015,True
Straits View,Straits View,shopping,shopping groceries malls supermarkets markets,"shopping groceries malls supermarkets markets near Straits View, Straits View, Singapore",ChIJjQcl90sY2jER0d9ui1pFp9s,Kallang Wave Mall,"1 Stadium Pl, Singapore 397628",4.3,9265,"[""establishment"", ""point_of_interest"", ""shopping_mall""]",1.3026669,103.8737641,True
Straits View,Straits View,shopping,shopping groceries malls supermarkets markets,"shopping groceries malls supermarkets markets near Straits View, Straits View, Singapore",ChIJn1iEdKQb2jERjI5fTMJ7CSQ,Margaret Market,"38 Margaret Dr, Singapore 141038",4.0,222,"[""establishment"", ""point_of_interest""]",1.2977375,103.8043387,True
Straits View,Straits View,shopping,shopping groceries malls supermarkets markets,"shopping groceries malls supermarkets markets near Straits View, Straits View, Singapore",ChIJu3mTX4MZ2jERLCptOU3zEXQ,CS Fresh Great World,"1 Kim Seng Promenade, #B1 - 139, Singapore 237994",4.2,1115,"[""establishment"", ""food"", ""grocery_or_supermarket"", ""point_of_interest"", ""store"", ""supermarket""]",1.2942052,103.8319203,True
Straits View,Straits View,shopping,shopping groceries malls supermarkets markets,"shopping groceries malls supermarkets markets near Straits View, Straits View, Singapore",ChIJ07kCGPwZ2jERGl-Ek5HhQVY,Scarlett Supermarket Flagship Store,"1 Park Rd, #02-70 People's Park Complex, Singapore 059108",4.2,606,"[""establishment"", ""food"", ""grocery_or_supermarket"", ""point_of_interest"", ""store""]",1.2841159,103.8424418,True
Straits View,Straits View,shopping,shopping groceries malls supermarkets markets,"shopping groceries malls supermarkets markets near Straits View, Straits View, Singapore",ChIJB14IQoMZ2jERyjiLXouuJe0,Great World,"1 Kim Seng Promenade, Singapore 237994",4.3,7814,"[""establishment"", ""point_of_interest"", ""shopping_mall""]",1.2936417,103.8319293,True
Straits View,Straits View,shopping,shopping groceries malls supermarkets markets,"shopping groceries malls supermarkets markets near Straits View, Straits View, Singapore",ChIJl_sOMpIZ2jERxxBnQVJpECQ,CS Fresh Gold Paragon,"290 Orchard Rd, B1-21/22 Paragon, Singapore 238859",4.3,926,"[""establishment"", ""food"", ""grocery_or_supermarket"", ""point_of_interest"", ""store"", ""supermarket""]",1.3036312,103.835694,True
Straits View,Straits View,shopping,shopping groceries malls supermarkets markets,"shopping groceries malls supermarkets markets near Straits View, Straits View, Singapore",ChIJTyWXW4EZ2jERvzrznx6-XSc,"Little Farms Market, Valley Point (Grocery store)","491 River Valley Rd, #01-20, Singapore 248371",4.5,862,"[""establishment"", ""food"", ""grocery_or_supermarket"", ""point_of_interest"", ""store""]",1.2931219,103.8269124,True
Straits View,Straits View,shopping,shopping groceries malls supermarkets markets,"shopping groceries malls supermarkets markets near Straits View, Straits View, Singapore",ChIJ__EU0QUZ2jERw_GMiCOQLKA,Jasons Deli Marina Bay Sands,"2 Bayfront Ave, B2-48, Singapore 018972",3.9,259,"[""establishment"", ""food"", ""grocery_or_supermarket"", ""point_of_interest"", ""store"", ""supermarket""]",1.285969,103.859775,True
Straits View,Straits View,shopping,shopping groceries malls supermarkets markets,"shopping groceries malls supermarkets markets near Straits View, Straits View, Singapore",ChIJAZMHsGEZ2jER7s6LpUzWxIE,Jasons Deli Marina Bay Link Mall,"8A Marina Blvd, #B2-44/45/48/50, Singapore 018984",4.1,112,"[""establishment"", ""food"", ""grocery_or_supermarket"", ""point_of_interest"", ""store""]",1.2803908,103.854229,True
Straits View,Straits View,shopping,shopping groceries malls supermarkets markets,"shopping groceries malls supermarkets markets near Straits View, Straits View, Singapore",ChIJHbKxhboZ2jEROFG6e1zb8Hc,CS Fresh Bugis Junction,"200 Victoria Street, #B1-17/18, Bugis Junction, Singapore 188024",4.2,1281,"[""establishment"", ""food"", ""grocery_or_supermarket"", ""point_of_interest"", ""store"", ""supermarket""]",1.2999362,103.8560058,True
Straits View,Straits View,recreation,recreation sports gyms swimming community clubs,"recreation sports gyms swimming community clubs near Straits View, Straits View, Singapore",ChIJVU5MpBEZ2jER7y4maf3pKX4,Virgin Active Marina One,"7 Straits View, #02-01 Marina One East Tower, Singapore 018936",4.3,517,"[""establishment"", ""gym"", ""health"", ""point_of_interest""]",1.2779539,103.8527623,True
Straits View,Straits View,recreation,recreation sports gyms swimming community clubs,"recreation sports gyms swimming community clubs near Straits View, Straits View, Singapore",ChIJG54AV6YZ2jEREJaczuWecw8,Singapore Recreation Club,"Connaught Dr, B, Singapore 179682",4.3,1133,"[""establishment"", ""point_of_interest""]",1.2921094,103.8537784,True
Straits View,Straits View,recreation,recreation sports gyms swimming community clubs,"recreation sports gyms swimming community clubs near Straits View, Straits View, Singapore",ChIJT6VbTyIZ2jER9figFV12I8g,MSFIT 24HR Women's Gym,"139 Cecil St, #07-01, Singapore 069539",4.6,208,"[""establishment"", ""gym"", ""health"", ""point_of_interest""]",1.2795422,103.8484516,True
Straits View,Straits View,recreation,recreation sports gyms swimming community clubs,"recreation sports gyms swimming community clubs near Straits View, Straits View, Singapore",ChIJ-54NwdgZ2jER1WVfom2H11A,Because - Sport,"8A Marina Blvd, Singapore 018984",5.0,23,"[""establishment"", ""gym"", ""health"", ""point_of_interest""]",1.2806443,103.8538947,True
Straits View,Straits View,recreation,recreation sports gyms swimming community clubs,"recreation sports gyms swimming community clubs near Straits View, Straits View, Singapore",ChIJdWwsPwsZ2jER-gYQt8fb4DY,The Ripple Club City Hall,"30 Beach Rd, JW Marriott Hotel Singapore South Beach, Singapore 189763",4.8,38,"[""establishment"", ""health"", ""point_of_interest""]",1.2947185,103.8555117,True
Straits View,Straits View,recreation,recreation sports gyms swimming community clubs,"recreation sports gyms swimming community clubs near Straits View, Straits View, Singapore",ChIJ_e6j_hIZ2jER5bhQD8cxDT8,Fitness First - Capital Tower,"168 Robinson Rd, #09-01 Capital Tower, Singapore 068912",4.7,558,"[""establishment"", ""gym"", ""health"", ""point_of_interest""]",1.2777366,103.8476215,True
Straits View,Straits View,recreation,recreation sports gyms swimming community clubs,"recreation sports gyms swimming community clubs near Straits View, Straits View, Singapore",ChIJRQBn6loY2jERjqNd6Z0qL1k,Singapore Swimming Club,"45 Tanjong Rhu Rd, Singapore Swimming Club, Singapore 436899",4.4,1202,"[""establishment"", ""point_of_interest""]",1.2972808,103.8818315,True
Straits View,Straits View,recreation,recreation sports gyms swimming community clubs,"recreation sports gyms swimming community clubs near Straits View, Straits View, Singapore",ChIJy5EXsyoa2jERNfQ1b93bPI4,Delta ActiveSG Gym,"900 Tiong Bahru Rd, Singapore 158790",3.9,575,"[""establishment"", ""gym"", ""health"", ""point_of_interest""]",1.2891624,103.820035,True
Straits View,Straits View,recreation,recreation sports gyms swimming community clubs,"recreation sports gyms swimming community clubs near Straits View, Straits View, Singapore",ChIJ6Zgp8REZ2jER4siEfDg88rs,PURE Fitness Asia Square,"8 Marina Vw, Level 6 Asia Square Tower 1, Singapore 018960",4.4,535,"[""establishment"", ""gym"", ""health"", ""point_of_interest""]",1.2784217,103.8514742,True
Straits View,Straits View,recreation,recreation sports gyms swimming community clubs,"recreation sports gyms swimming community clubs near Straits View, Straits View, Singapore",ChIJOZIFa34Z2jERL9_IhYLjUH4,Henderson Community Club,"500 Bukit Merah Vw, Singapore 159682",4.1,352,"[""establishment"", ""point_of_interest""]",1.2858271,103.823121,True
Straits View,Straits View,recreation,recreation sports gyms swimming community clubs,"recreation sports gyms swimming community clubs near Straits View, Straits View, Singapore",ChIJwf_PAVkZ2jER_0WI-Nc8QyU,REVOLT,"2 Marina Blvd, #02-01, Singapore 018987",4.9,941,"[""establishment"", ""gym"", ""health"", ""point_of_interest""]",1.2812828,103.8528639,True
Straits View,Straits View,recreation,recreation sports gyms swimming community clubs,"recreation sports gyms swimming community clubs near Straits View, Straits View, Singapore",ChIJywqE63IZ2jER4NBNaHlGSv0,Kreta Ayer Community Club,"28 Kreta Ayer Rd, Singapore 088995",4.2,241,"[""establishment"", ""point_of_interest""]",1.2809149,103.8427863,True
Straits View,Straits View,recreation,recreation sports gyms swimming community clubs,"recreation sports gyms swimming community clubs near Straits View, Straits View, Singapore",ChIJoSghZGwZ2jERh4q9jEcnnXM,Tanjong Pagar Community Club,"101 Cantonment Rd, Singapore 089774",4.3,774,"[""establishment"", ""point_of_interest""]",1.2761083,103.8416067,True
Straits View,Straits View,recreation,recreation sports gyms swimming community clubs,"recreation sports gyms swimming community clubs near Straits View, Straits View, Singapore",ChIJkeX4YFsa2jERDRq9DzW0FHI,ACJC Sports Complex,"25 Dover Cl E, Singapore 139745",4.1,51,"[""establishment"", ""point_of_interest""]",1.301924,103.7863617,True
Straits View,Straits View,recreation,recreation sports gyms swimming community clubs,"recreation sports gyms swimming community clubs near Straits View, Straits View, Singapore",ChIJ6wSMeewZ2jERnRkQnVf_7-c,Cairnhill Community Club,"1 Anthony Rd, #02-06/07, Singapore 229944",4.3,387,"[""establishment"", ""point_of_interest""]",1.3103626,103.8391521,True
Straits View,Straits View,recreation,recreation sports gyms swimming community clubs,"recreation sports gyms swimming community clubs near Straits View, Straits View, Singapore",ChIJ44exaL0b2jERbSxwV6gNBdw,Telok Blangah Community Club,"450 Telok Blangah Street 31, Singapore 108943",4.3,218,"[""establishment"", ""point_of_interest""]",1.274783,103.8078165,True
Straits View,Straits View,recreation,recreation sports gyms swimming community clubs,"recreation sports gyms swimming community clubs near Straits View, Straits View, Singapore",ChIJd4Ja-ckZ2jERhr2arEOISJg,Jalan Besar Community Club,"69 Jellicoe Rd, Singapore 208737",4.4,808,"[""establishment"", ""point_of_interest""]",1.3078946,103.8617082,True
Straits View,Straits View,recreation,recreation sports gyms swimming community clubs,"recreation sports gyms swimming community clubs near Straits View, Straits View, Singapore",ChIJVQ8bzSoa2jERbYemdYtj8kM,Delta Swimming Complex,"900 Tiong Bahru Rd, Singapore 158790",4.0,450,"[""establishment"", ""point_of_interest""]",1.2897143,103.8202466,True
Straits View,Straits View,recreation,recreation sports gyms swimming community clubs,"recreation sports gyms swimming community clubs near Straits View, Straits View, Singapore",ChIJq6qqcrEZ2jERtJYskj9TJiA,Kampong Glam Community Club,"385 Beach Rd, Singapore 199581",4.1,375,"[""establishment"", ""point_of_interest""]",1.3029472,103.8635062,True
Straits View,Straits View,recreation,recreation sports gyms swimming community clubs,"recreation sports gyms swimming community clubs near Straits View, Straits View, Singapore",ChIJmcUnag4Z2jERW51bPSTihd0,Fitness First @ One Raffles Quay,"1 Raffles Quay, #08-01 One Raffles Quay, Singapore 048583",4.7,834,"[""establishment"", ""gym"", ""health"", ""point_of_interest""]",1.2811658,103.8516453,True
Straits View,Straits View,nature,parks gardens nature waterfront park connectors,"parks gardens nature waterfront park connectors near Straits View, Straits View, Singapore",ChIJqVlRtnwZ2jERy7lySNFrmVw,Green Heart,"Marina One, Singapore 018935",4.8,71,"[""establishment"", ""park"", ""point_of_interest""]",1.2772171,103.8530426,True
Straits View,Straits View,nature,parks gardens nature waterfront park connectors,"parks gardens nature waterfront park connectors near Straits View, Straits View, Singapore",ChIJ42oYzrMZ2jERBvQPkuvE8DA,Gardens by the Bay East (Panoramic view),Singapore,4.8,275,"[""establishment"", ""point_of_interest"", ""tourist_attraction""]",1.2881069,103.8690209,True
Straits View,Straits View,nature,parks gardens nature waterfront park connectors,"parks gardens nature waterfront park connectors near Straits View, Straits View, Singapore",ChIJVSYjJKIZ2jERpRFinATD52s,Fort Canning Park,Singapore,4.6,11944,"[""establishment"", ""park"", ""point_of_interest"", ""tourist_attraction""]",1.2943876,103.8458033,True
Straits View,Straits View,nature,parks gardens nature waterfront park connectors,"parks gardens nature waterfront park connectors near Straits View, Straits View, Singapore",ChIJMxZ-kwQZ2jERdsqftXeWCWI,Gardens by the Bay,"18 Marina Gardens Dr, Singapore 018953",4.7,158103,"[""establishment"", ""park"", ""point_of_interest"", ""tourist_attraction""]",1.2815683,103.8636132,True
Straits View,Straits View,nature,parks gardens nature waterfront park connectors,"parks gardens nature waterfront park connectors near Straits View, Straits View, Singapore",ChIJxZwgg1kZ2jERfsCcuEg0JC4,Kallang Park Connector,"998 Bendemeer Rd, Singapore 339945",4.4,119,"[""establishment"", ""park"", ""point_of_interest""]",1.3221012,103.8676558,True
Straits View,Straits View,nature,parks gardens nature waterfront park connectors,"parks gardens nature waterfront park connectors near Straits View, Straits View, Singapore",ChIJ0S36n7YZ2jERpOluPcfozFk,North Bridge Garden,"N Bridge Rd, Singapore",4.3,30,"[""establishment"", ""park"", ""point_of_interest""]",1.3042183,103.8621712,True
Straits View,Straits View,nature,parks gardens nature waterfront park connectors,"parks gardens nature waterfront park connectors near Straits View, Straits View, Singapore",ChIJe8PARAAZ2jERkci9rv_z4ck,Marina Coastal Park,"Marina S Dr, Singapore",4.7,7,"[""establishment"", ""park"", ""point_of_interest""]",1.2762482,103.8697751,True
Straits View,Straits View,nature,parks gardens nature waterfront park connectors,"parks gardens nature waterfront park connectors near Straits View, Straits View, Singapore",ChIJ0ZnzsXUW2jER9IrUeleR7To,Sengkang Riverside Park,"Anchorvale Street, Singapore 544834",4.4,2243,"[""establishment"", ""park"", ""point_of_interest"", ""tourist_attraction""]",1.3993143,103.8848743,True
Straits View,Straits View,nature,parks gardens nature waterfront park connectors,"parks gardens nature waterfront park connectors near Straits View, Straits View, Singapore",ChIJEVEBpPsY2jERqOguxAl6nZk,Marina East Park,Singapore,4.6,375,"[""establishment"", ""park"", ""point_of_interest"", ""tourist_attraction""]",1.2822041,103.8756359,True
Straits View,Straits View,nature,parks gardens nature waterfront park connectors,"parks gardens nature waterfront park connectors near Straits View, Straits View, Singapore",ChIJ__8_JqUb2jERpXwPzz-poks,Pasir Panjang Park,"121 Pasir Panjang Rd, Singapore 118543",3.9,16,"[""establishment"", ""park"", ""point_of_interest""]",1.2777905,103.7861067,True
Straits View,Straits View,nature,parks gardens nature waterfront park connectors,"parks gardens nature waterfront park connectors near Straits View, Straits View, Singapore",ChIJLWy-d6cZ2jERxRto3g-f8vI,Esplanade Park,"Along Connaught Drive, Singapore 179682",4.6,599,"[""establishment"", ""park"", ""point_of_interest"", ""tourist_attraction""]",1.289901,103.8538653,True
Straits View,Straits View,nature,parks gardens nature waterfront park connectors,"parks gardens nature waterfront park connectors near Straits View, Straits View, Singapore",ChIJJeg_k0oY2jER3tyt8xkYb9M,Kallang Riverside Park,"Cnr Kallang Road and, Crawford St, Singapore 397732",4.5,1505,"[""establishment"", ""park"", ""point_of_interest"", ""tourist_attraction""]",1.3070353,103.8682849,True
Straits View,Straits View,nature,parks gardens nature waterfront park connectors,"parks gardens nature waterfront park connectors near Straits View, Straits View, Singapore",ChIJxe3T7SsX2jERAGu8EXnVlsU,Whampoa Park Connector,"Blk 102, Singapore",4.3,11,"[""establishment"", ""point_of_interest""]",1.3281757,103.8509331,True
Straits View,Straits View,nature,parks gardens nature waterfront park connectors,"parks gardens nature waterfront park connectors near Straits View, Straits View, Singapore",ChIJi090zPwS2jERiJCqFWoP8Z4,Woodlands Waterfront Park,"Admiralty Rd W, Singapore 759956",4.5,3993,"[""establishment"", ""park"", ""point_of_interest"", ""tourist_attraction""]",1.4530529,103.7804801,True
Straits View,Straits View,nature,parks gardens nature waterfront park connectors,"parks gardens nature waterfront park connectors near Straits View, Straits View, Singapore",ChIJJR6WlZwZ2jERrqozupYl9tg,Kim Seng Park,"River Vly Grn, Singapore 237993",4.5,108,"[""establishment"", ""park"", ""point_of_interest""]",1.2928315,103.8351896,True
Straits View,Straits View,nature,parks gardens nature waterfront park connectors,"parks gardens nature waterfront park connectors near Straits View, Straits View, Singapore",ChIJ4QhPDSMT2jER-K6cnYYSNZw,Ulu Sembawang Park Connector,"403R Jln Ulu Sembawang, Singapore 779563",4.4,108,"[""establishment"", ""park"", ""point_of_interest""]",1.422046,103.7928186,True
Straits View,Straits View,nature,parks gardens nature waterfront park connectors,"parks gardens nature waterfront park connectors near Straits View, Straits View, Singapore",ChIJ_6g8kisX2jERaGrSixd_xbM,Windsor Nature Park,"30 Venus Dr, Singapore 573858",4.6,1759,"[""establishment"", ""park"", ""point_of_interest"", ""tourist_attraction""]",1.3566265,103.8214319,True
Straits View,Straits View,nature,parks gardens nature waterfront park connectors,"parks gardens nature waterfront park connectors near Straits View, Straits View, Singapore",ChIJied_ZdIT2jERfFB2io7NbV0,Central Catchment Park Connector,"Mandai Rd, Singapore",4.5,547,"[""establishment"", ""point_of_interest""]",1.4105867,103.7783568,True
Straits View,Straits View,nature,parks gardens nature waterfront park connectors,"parks gardens nature waterfront park connectors near Straits View, Straits View, Singapore",ChIJ-71pnJ092jERTlqtddnAs-0,Changi Bay Park Connector,"2a Changi Ferry Rd, Singapore",4.5,53,"[""establishment"", ""park"", ""point_of_interest""]",1.3708445,104.0048402,True
Straits View,Straits View,nature,parks gardens nature waterfront park connectors,"parks gardens nature waterfront park connectors near Straits View, Straits View, Singapore",ChIJUc0YwKIZ2jERnCfsCKnOamE,Fort Canning Tree Tunnel,"51 Canning Rise, Singapore 179872",4.3,2800,"[""establishment"", ""park"", ""point_of_interest"", ""tourist_attraction""]",1.297284,103.846345,True
