planning_area,subzone,poi_dimension,place_query_type,search_query,place_id,place_name,formatted_address,rating,user_ratings_total,types,lat,lng,need_reviews
Bukit Panjang,Bangkit,education,kindergarten,"kindergarten in Bangkit, Bukit Panjang, Singapore",ChIJBRGwXAAR2jERTs9vXojL5DY,Artemis Preskool @Bukit Panjang,"256 Bangkit Rd, #02-73, Singapore 670256",5.0,7,"[""establishment"", ""point_of_interest"", ""school""]",1.3790458,103.773002,True
Bukit Panjang,Bangkit,education,kindergarten,"kindergarten in Bangkit, Bukit Panjang, Singapore",ChIJ45x4iIgR2jERQfg5yAOn1ZU,Little Seeds Preschool (TSA - Bukit Panjang),"402 Fajar Rd, #01-217, Singapore 670402",4.9,38,"[""establishment"", ""point_of_interest"", ""school""]",1.3803488,103.7680693,True
Bukit Panjang,Bangkit,education,childcare centre,"childcare centre in Bangkit, Bukit Panjang, Singapore",ChIJQ7lGiAER2jERufyY2n31G64,in:genius by NASCANS Student Care @ Bukit Panjang,"260 Bangkit Rd, #01-15 Upper Floor, Singapore 670260",5.0,3,"[""establishment"", ""point_of_interest""]",1.3779482,103.7733395,True
Bukit Panjang,Bangkit,education,childcare centre,"childcare centre in Bangkit, Bukit Panjang, Singapore",ChIJPYvMLtER2jERBwgbdFjT2eg,Infant care,"#02-02/02-03 Cashew Park, Singapore 679637",5.0,23,"[""establishment"", ""point_of_interest"", ""school""]",1.370652,103.767527,True
Bukit Panjang,Bangkit,education,primary school,"primary school in Bangkit, Bukit Panjang, Singapore",ChIJLYS9rqgR2jERu6jj_I969Gw,Bukit Panjang Primary School,"109 Cashew Rd, Singapore 679676",,0,"[""establishment"", ""point_of_interest"", ""primary_school"", ""school"", ""secondary_school""]",1.3730121,103.7690821,True
Bukit Panjang,Bangkit,education,primary school,"primary school in Bangkit, Bukit Panjang, Singapore",ChIJJR5v3qMR2jER9QZ49ia1PWE,Zhenghua Primary School,"9 Fajar Rd, Singapore 679002",,0,"[""establishment"", ""point_of_interest"", ""primary_school"", ""school"", ""secondary_school""]",1.3796697,103.7692818,True
Bukit Panjang,Bangkit,education,secondary school,"secondary school in Bangkit, Bukit Panjang, Singapore",ChIJbUEQbd0R2jERyMl2YGs8yHE,Bukit Panjang Government High School,"7 Choa Chu Kang Ave 4, Singapore 689809",,0,"[""establishment"", ""point_of_interest"", ""school"", ""secondary_school""]",1.3815132,103.7388106,True
Bukit Panjang,Bangkit,education,secondary school,"secondary school in Bangkit, Bukit Panjang, Singapore",ChIJS4GFPqAR2jERQGJOjeXgYz8,Greenridge Secondary School,"31 Gangsa Rd, Singapore 678972",,0,"[""establishment"", ""point_of_interest"", ""school""]",1.3754112,103.7644315,True
Bukit Panjang,Bangkit,education,junior college,"junior college in Bangkit, Bukit Panjang, Singapore",ChIJz_-CGpUR2jERsxAVVh_vnoY,Jurong Pioneer Junior College,"21 Teck Whye Walk, Singapore 688258",3.8,86,"[""establishment"", ""point_of_interest"", ""university""]",1.3847446,103.753857,True
Bukit Panjang,Bangkit,education,junior college,"junior college in Bangkit, Bukit Panjang, Singapore",ChIJ61lTU6EQ2jERiBDECMxHYFY,National Junior College,"37 Hillcrest Rd, Singapore 288913",4.4,182,"[""establishment"", ""point_of_interest"", ""school"", ""university""]",1.330476,103.8045,True
Bukit Panjang,Bangkit,education,polytechnic,"polytechnic in Bangkit, Bukit Panjang, Singapore",ChIJFXzxL2Aa2jERnoWTOdJdVKk,Singapore Polytechnic,"500 Dover Rd, Singapore 139651",4.3,647,"[""establishment"", ""point_of_interest""]",1.3097757,103.7775495,True
Bukit Panjang,Bangkit,education,polytechnic,"polytechnic in Bangkit, Bukit Panjang, Singapore",ChIJWeO0jn0Q2jERQwzr3v_n0nU,Ngee Ann Polytechnic,"535 Clementi Rd, Singapore 599489",4.3,500,"[""establishment"", ""point_of_interest""]",1.3315798,103.7747134,True
Bukit Panjang,Bangkit,education,university,"university in Bangkit, Bukit Panjang, Singapore",ChIJ2QJCeFYa2jERa434wdYIjUg,National University of Singapore,"21 Lower Kent Ridge Rd, University Hall, Singapore 119077",4.5,2389,"[""establishment"", ""point_of_interest"", ""university""]",1.2976493,103.7766916,True
Bukit Panjang,Bangkit,education,university,"university in Bangkit, Bukit Panjang, Singapore",ChIJvQQziYAQ2jERCOP-JKA4N9k,Singapore University of Social Sciences,"463 Clementi Rd, Singapore 599494",3.8,235,"[""establishment"", ""point_of_interest"", ""university""]",1.3286895,103.7759499,True
Bukit Panjang,Bangkit,education,tuition centre,"tuition centre in Bangkit, Bukit Panjang, Singapore",ChIJcVqc0KAR2jERqvndwuYWY9E,Nanyang Educational Consultancy (Bukit Panjang Tuition Centre),"Bangkit Rd, #03-71 Blk 256, Singapore 670256",4.7,51,"[""establishment"", ""point_of_interest""]",1.3789783,103.7729844,True
Bukit Panjang,Bangkit,education,tuition centre,"tuition centre in Bangkit, Bukit Panjang, Singapore",ChIJZS3SpWAR2jER6yf3ZmS0DuY,Stepping Stones Learning Centre (Bukit Panjang),"Blk 258 Bukit Panjang Ring Rd, #01-52, Singapore 670258",4.8,85,"[""establishment"", ""point_of_interest"", ""school""]",1.3780272,103.7731523,True
Bukit Panjang,Bangkit,education,library,"library in Bangkit, Bukit Panjang, Singapore",ChIJAQAASKMR2jER1rsyt_ipOM0,Bukit Panjang Library,"1 Jelebu Road #04-04 & 16/17 Bukit Panjang Plaza, Singapore 677743",4.3,263,"[""establishment"", ""library"", ""point_of_interest""]",1.3799627,103.7643391,True
Bukit Panjang,Bangkit,education,library,"library in Bangkit, Bukit Panjang, Singapore",ChIJxzbY1z4Q2jERJ6mezML68e8,Bukit Batok Library,"1 Bt Batok Central, #03-01 West Mall, Singapore 658713",4.2,278,"[""establishment"", ""library"", ""point_of_interest""]",1.3500111,103.7492852,True
Bukit Panjang,Bangkit,transport,MRT station,"MRT station in Bangkit, Bukit Panjang, Singapore",ChIJgZqT46AR2jER6yBW1RejuKo,Bangkit LRT Station (BP9),"20 Bukit Panjang Ring Rd, Singapore 679939",4.4,18,"[""establishment"", ""point_of_interest""]",1.3800468,103.7726239,True
Bukit Panjang,Bangkit,transport,MRT station,"MRT station in Bangkit, Bukit Panjang, Singapore",ChIJARt1T4kR2jERTyE-4kybHC4,Bukit Panjang MRT Station (DT1),"950 Upper Bukit Timah Rd, B2-02, Singapore 678213",4.5,895,"[""establishment"", ""point_of_interest""]",1.3790912,103.7617432,True
Bukit Panjang,Bangkit,transport,bus stop,"bus stop in Bangkit, Bukit Panjang, Singapore",ChIJtUsi46AR2jERwfFNB--Hvpg,Bangkit Stn,Singapore,4.5,14,"[""establishment"", ""point_of_interest"", ""transit_station""]",1.380215,103.772575,True
Bukit Panjang,Bangkit,transport,bus stop,"bus stop in Bangkit, Bukit Panjang, Singapore",ChIJ4a4QHqER2jER1tPrTyGeSMM,Opp Bangkit Stn,Singapore,3.7,3,"[""establishment"", ""point_of_interest"", ""transit_station""]",1.379888,103.772331,True
Bukit Panjang,Bangkit,transport,bus interchange,"bus interchange in Bangkit, Bukit Panjang, Singapore",ChIJR58QIQAR2jER4V6UweGq9BQ,Bukit Panjang Bus Interchange,"15 Petir Rd, #01-63, Singapore 678270",2.8,16,"[""establishment"", ""point_of_interest""]",1.3784347,103.7627763,True
Bukit Panjang,Bangkit,transport,bus interchange,"bus interchange in Bangkit, Bukit Panjang, Singapore",ChIJgVMsWLsR2jERmO09ZfrDfUI,Bt Panjang Interchange,Singapore,3.5,37,"[""establishment"", ""point_of_interest"", ""transit_station""]",1.378126,103.76329,True
Bukit Panjang,Bangkit,transport,LRT station,"LRT station in Bangkit, Bukit Panjang, Singapore",ChIJGdWU46AR2jERw9C4Aybv3lE,Bangkit,Singapore,4.2,13,"[""establishment"", ""point_of_interest"", ""transit_station""]",1.3800221,103.7726098,True
Bukit Panjang,Bangkit,food,hawker centre,"hawker centre in Bangkit, Bukit Panjang, Singapore",ChIJc0LVIKcR2jERFB8jEvb4t7g,Bukit Panjang Hawker Centre & Market,"2 Bukit Panjang Ring Rd, Singapore 679947",3.9,2933,"[""establishment"", ""food"", ""point_of_interest"", ""restaurant""]",1.3774093,103.7724275,True
Bukit Panjang,Bangkit,food,hawker centre,"hawker centre in Bangkit, Bukit Panjang, Singapore",ChIJkXRszaAR2jEROQL4rhmhElg,Bangkit Market,"257 Bangkit Rd, Singapore 670257",4.2,1152,"[""establishment"", ""point_of_interest""]",1.3778953,103.7732915,True
Bukit Panjang,Bangkit,food,food court,"food court in Bangkit, Bukit Panjang, Singapore",ChIJfQZezKAR2jER4rR7V_83Ejk,Food Hub Bangkit 257 Coffee House,"257 Bangkit Rd, Singapore 670257",3.9,838,"[""cafe"", ""establishment"", ""food"", ""point_of_interest"", ""store""]",1.378759,103.7734974,True
Bukit Panjang,Bangkit,food,coffee shop,"coffee shop in Bangkit, Bukit Panjang, Singapore",ChIJByKUI6cR2jER4lOR_DjfH1g,Kim San Leng Food Centre Bukit Panjang,"259 Bukit Panjang Ring Rd, #01-36, Singapore 670259",3.8,1712,"[""cafe"", ""establishment"", ""food"", ""point_of_interest"", ""restaurant"", ""store""]",1.3770278,103.773481,True
Bukit Panjang,Bangkit,food,restaurant,"restaurant in Bangkit, Bukit Panjang, Singapore",ChIJsdW5choR2jERtYwZ71Vi2E8,Jinjja Kitchen @ Bukit Panjang Plaza,"1 Jelebu Rd, #02-10, Singapore 677743",4.8,235,"[""establishment"", ""food"", ""point_of_interest"", ""restaurant""]",1.3799653,103.7643089,True
Bukit Panjang,Bangkit,shopping,shopping mall,"shopping mall in Bangkit, Bukit Panjang, Singapore",ChIJe3kTN6MR2jERr5FbmFCuxPI,Bukit Panjang Plaza,"1 Jelebu Rd, Singapore 677743",4.2,5897,"[""establishment"", ""point_of_interest"", ""shopping_mall""]",1.3800396,103.7642339,True
Bukit Panjang,Bangkit,shopping,shopping mall,"shopping mall in Bangkit, Bukit Panjang, Singapore",ChIJ_8HAraQR2jERaLrfjzD5k7Y,Hillion Mall,"17 Petir Rd, #01-07, Singapore 678278",4.2,8930,"[""establishment"", ""point_of_interest"", ""shopping_mall""]",1.3785171,103.7632971,True
Bukit Panjang,Bangkit,shopping,supermarket,"supermarket in Bangkit, Bukit Panjang, Singapore",ChIJcVqc0KAR2jERgbkigaoyY3E,Giant Express - Bangkit Blk 256,"256 Bangkit Rd, #01-69, Singapore 670256",3.6,193,"[""establishment"", ""food"", ""grocery_or_supermarket"", ""point_of_interest"", ""store"", ""supermarket""]",1.3787569,103.7728751,True
Bukit Panjang,Bangkit,shopping,supermarket,"supermarket in Bangkit, Bukit Panjang, Singapore",ChIJUXhrN6MR2jER7xtwryUocpY,FairPrice Finest,"1 Jelebu Rd, #01-15 & #02-20 Bukit Panjang Plaza, Singapore 677743",4.3,1180,"[""establishment"", ""food"", ""grocery_or_supermarket"", ""point_of_interest"", ""store"", ""supermarket""]",1.3800079,103.7642894,True
Bukit Panjang,Bangkit,shopping,grocery store,"grocery store in Bangkit, Bukit Panjang, Singapore",ChIJkXRszaAR2jEROQL4rhmhElg,Bangkit Market,"257 Bangkit Rd, Singapore 670257",4.2,1152,"[""establishment"", ""point_of_interest""]",1.3778953,103.7732915,True
Bukit Panjang,Bangkit,shopping,convenience store,"convenience store in Bangkit, Bukit Panjang, Singapore",ChIJ08z-ThQR2jERSoTcHrvMOFM,Convenience Plus,"Singapore, Bangkit Rd, #01-41",1.8,13,"[""convenience_store"", ""establishment"", ""food"", ""point_of_interest"", ""store""]",1.3779482,103.7733395,True
Bukit Panjang,Bangkit,recreation,gym,"gym in Bangkit, Bukit Panjang, Singapore",ChIJT4ngSQAR2jERYEldwDSeuw0,BFT Bangkit,"20a Segar Rd, Singapore 679350",4.6,9,"[""establishment"", ""gym"", ""health"", ""point_of_interest""]",1.3899886,103.7717241,True
Bukit Panjang,Bangkit,recreation,gym,"gym in Bangkit, Bukit Panjang, Singapore",ChIJOVKixaIR2jERRlP-Omkol_M,Anytime Fitness Bukit Panjang,"8 Pending Rd, #03-01, Singapore 678295",4.4,212,"[""establishment"", ""gym"", ""health"", ""point_of_interest""]",1.3763082,103.7707994,True
Bukit Panjang,Bangkit,recreation,sports centre,"sports centre in Bangkit, Bukit Panjang, Singapore",ChIJgx4YWagR2jERCasQYF6YSKI,ARK Sports Village,"20A Segar Rd, ARK SPORTS VILLAGE, Singapore 679350",4.7,40,"[""establishment"", ""point_of_interest""]",1.3900865,103.7717033,True
Bukit Panjang,Bangkit,recreation,swimming complex,"swimming complex in Bangkit, Bukit Panjang, Singapore",ChIJs45bbr0R2jERwByR91EdWqw,Senja-Cashew Community Club,"101 Bukit Panjang Rd, Singapore 679910",4.3,1262,"[""establishment"", ""point_of_interest""]",1.381403,103.764651,True
Bukit Panjang,Bangkit,recreation,swimming complex,"swimming complex in Bangkit, Bukit Panjang, Singapore",ChIJJWt786YR2jERcIgIkdUxv_0,Bukit Panjang Community Club,"8 Pending Rd, Singapore 678295",4.1,957,"[""establishment"", ""point_of_interest""]",1.376001,103.770687,True
Bukit Panjang,Bangkit,recreation,cinema,"cinema in Bangkit, Bukit Panjang, Singapore",ChIJFx7cQgAR2jERum7NN5FvIOk,Shaw Theatres JEM,"50 Jurong Gateway Rd, #05 04, Singapore 608549",4.0,84,"[""establishment"", ""movie_theater"", ""point_of_interest""]",1.33312,103.7432173,True
Bukit Panjang,Bangkit,recreation,cinema,"cinema in Bangkit, Bukit Panjang, Singapore",ChIJ3dSCfKMR2jERsBpC6UoFuaQ,EagleWings Cinematics,"9 King Albert Prk, #01-58, Singapore 598332",4.4,503,"[""establishment"", ""movie_theater"", ""point_of_interest""]",1.3369213,103.7790282,True
Bukit Panjang,Bangkit,recreation,playground,"playground in Bangkit, Bukit Panjang, Singapore",ChIJYYGkfwoR2jERA18hEAHSmUk,Zhenghua Park Children's Playground,"276 Bangkit Rd, Singapore 670276",4.3,21,"[""establishment"", ""point_of_interest""]",1.3806711,103.7754029,True
Bukit Panjang,Bangkit,recreation,playground,"playground in Bangkit, Bukit Panjang, Singapore",ChIJW0wCIAcR2jERAEOR0GhMljA,Zhenghua Park,"273 Bangkit Rd, Singapore 670276",4.3,566,"[""establishment"", ""park"", ""point_of_interest"", ""tourist_attraction""]",1.3771337,103.7763826,True
Bukit Panjang,Bangkit,nature,park,"park in Bangkit, Bukit Panjang, Singapore",ChIJW0wCIAcR2jERAEOR0GhMljA,Zhenghua Park,"273 Bangkit Rd, Singapore 670276",4.3,566,"[""establishment"", ""park"", ""point_of_interest"", ""tourist_attraction""]",1.3771337,103.7763826,True
Bukit Panjang,Bangkit,nature,park,"park in Bangkit, Bukit Panjang, Singapore",ChIJYYGkfwoR2jERA18hEAHSmUk,Zhenghua Park Children's Playground,"276 Bangkit Rd, Singapore 670276",4.3,21,"[""establishment"", ""point_of_interest""]",1.3806711,103.7754029,True
Bukit Panjang,Bangkit,nature,nature reserve,"nature reserve in Bangkit, Bukit Panjang, Singapore",ChIJ-f__r6oR2jER5UiO6z8HpQM,Dairy Farm Nature Park,"100 Dairy Farm Rd, Singapore 679057",4.5,1247,"[""establishment"", ""park"", ""point_of_interest"", ""tourist_attraction""]",1.3640182,103.7763968,True
Bukit Panjang,Bangkit,nature,garden,"garden in Bangkit, Bukit Panjang, Singapore",ChIJFRoWIwgR2jER2v5DQcoF4pE,Bukit Panjang Butterfly Garden,"213 Petir Rd, Singapore 670213",3.5,29,"[""establishment"", ""park"", ""point_of_interest""]",1.3751813,103.7758946,True
Bukit Panjang,Bangkit,nature,beach,"beach in Bangkit, Bukit Panjang, Singapore",ChIJaaC07KIR2jERl3-DgSWf4aE,Pang Sua Pond,"101 Bukit Panjang Ring Road, Saujana Rd, Singapore 679910",4.5,901,"[""establishment"", ""park"", ""point_of_interest"", ""tourist_attraction""]",1.3819061,103.7655122,True
Bukit Panjang,Bangkit,nature,beach,"beach in Bangkit, Bukit Panjang, Singapore",ChIJkXRszaAR2jEROQL4rhmhElg,Bangkit Market,"257 Bangkit Rd, Singapore 670257",4.2,1152,"[""establishment"", ""point_of_interest""]",1.3778953,103.7732915,True
Bukit Panjang,Bangkit,nature,park connector,"park connector in Bangkit, Bukit Panjang, Singapore",ChIJZ2n78R0R2jERv4IZBDswYrc,Bukit Panjang Park Connector,"501 Jelapang Rd, Singapore 670501",4.7,3,"[""establishment"", ""point_of_interest""]",1.3835404,103.767104,True
Bukit Panjang,Bangkit,nature,park connector,"park connector in Bangkit, Bukit Panjang, Singapore",ChIJAfY-aQAR2jERJU4PExbtgb0,BUKIT PANJANG NORTH PARK CONNECTOR,"Segar Cl, Singapore",5.0,1,"[""establishment"", ""point_of_interest""]",1.3891486,103.7603213,True
Bukit Panjang,Dairy Farm,education,kindergarten,"kindergarten in Dairy Farm, Bukit Panjang, Singapore",ChIJ65PzLjER2jERCvxBPn1Hom8,Willow Nursery and Preschool,"17 Dairy Farm Rd, Singapore 679043",5.0,11,"[""establishment"", ""point_of_interest"", ""school""]",1.3653094,103.769605,True
Bukit Panjang,Dairy Farm,education,kindergarten,"kindergarten in Dairy Farm, Bukit Panjang, Singapore",ChIJM_QpOpsR2jERHTYzfoGuqHg,MindChamps Chinese PreSchool @ Dairy Farm,"4 Dairy Farm Ln, B1-08 to 11, Singapore 677622",4.9,37,"[""establishment"", ""point_of_interest"", ""school""]",1.365836,103.7748644,True
Bukit Panjang,Dairy Farm,education,primary school,"primary school in Dairy Farm, Bukit Panjang, Singapore",ChIJLYS9rqgR2jERu6jj_I969Gw,Bukit Panjang Primary School,"109 Cashew Rd, Singapore 679676",,0,"[""establishment"", ""point_of_interest"", ""primary_school"", ""school"", ""secondary_school""]",1.3730121,103.7690821,True
Bukit Panjang,Dairy Farm,education,primary school,"primary school in Dairy Farm, Bukit Panjang, Singapore",ChIJJXbrIZkR2jERQOapX1-lQWY,Greenridge Primary School,"11 Jelapang Rd, Singapore 677744",,0,"[""establishment"", ""point_of_interest"", ""primary_school"", ""school""]",1.3856591,103.7679301,True
Bukit Panjang,Dairy Farm,education,secondary school,"secondary school in Dairy Farm, Bukit Panjang, Singapore",ChIJS4GFPqAR2jERQGJOjeXgYz8,Greenridge Secondary School,"31 Gangsa Rd, Singapore 678972",,0,"[""establishment"", ""point_of_interest"", ""school""]",1.3754112,103.7644315,True
Bukit Panjang,Dairy Farm,education,secondary school,"secondary school in Dairy Farm, Bukit Panjang, Singapore",ChIJbUEQbd0R2jERyMl2YGs8yHE,Bukit Panjang Government High School,"7 Choa Chu Kang Ave 4, Singapore 689809",,0,"[""establishment"", ""point_of_interest"", ""school"", ""secondary_school""]",1.3815132,103.7388106,True
Bukit Panjang,Dairy Farm,education,junior college,"junior college in Dairy Farm, Bukit Panjang, Singapore",ChIJz_-CGpUR2jERsxAVVh_vnoY,Jurong Pioneer Junior College,"21 Teck Whye Walk, Singapore 688258",3.8,86,"[""establishment"", ""point_of_interest"", ""university""]",1.3847446,103.753857,True
Bukit Panjang,Dairy Farm,education,junior college,"junior college in Dairy Farm, Bukit Panjang, Singapore",ChIJ61lTU6EQ2jERiBDECMxHYFY,National Junior College,"37 Hillcrest Rd, Singapore 288913",4.4,182,"[""establishment"", ""point_of_interest"", ""school"", ""university""]",1.330476,103.8045,True
Bukit Panjang,Dairy Farm,education,polytechnic,"polytechnic in Dairy Farm, Bukit Panjang, Singapore",ChIJmRw2WwAR2jER-ljPZK8pgek,The Botany at Dairy Farm,"3 Dairy Farm Walk, Singapore 679625",4.9,7,"[""establishment"", ""point_of_interest""]",1.3667894,103.7723748,True
Bukit Panjang,Dairy Farm,education,polytechnic,"polytechnic in Dairy Farm, Bukit Panjang, Singapore",ChIJWeO0jn0Q2jERQwzr3v_n0nU,Ngee Ann Polytechnic,"535 Clementi Rd, Singapore 599489",4.3,500,"[""establishment"", ""point_of_interest""]",1.3315798,103.7747134,True
Bukit Panjang,Dairy Farm,education,university,"university in Dairy Farm, Bukit Panjang, Singapore",ChIJtUdZcwAR2jERtDPH7xhL6Fk,Dairy Farm Residences,"4, 6, 8, Dairy Farm Ln, #10 & 12, Singapore 677623",3.6,26,"[""establishment"", ""point_of_interest""]",1.3665947,103.7741401,True
Bukit Panjang,Dairy Farm,education,university,"university in Dairy Farm, Bukit Panjang, Singapore",ChIJiZqCY6sR2jERGMIgfqtxXY0,The Dairy Farm,"21 Dairy Farm Rd, Singapore 679045",4.8,5,"[""establishment"", ""point_of_interest""]",1.3660756,103.7697939,True
Bukit Panjang,Dairy Farm,education,tuition centre,"tuition centre in Dairy Farm, Bukit Panjang, Singapore",ChIJVSTfVioR2jERzl_KymLWRVM,"Edufirst Learning Centre (Bukit Panjang) – Math, English & Chinese Tuition | Tuition Centre | Student Care","642 Senja Cl, #01-20/21, Singapore 670642",4.8,51,"[""establishment"", ""point_of_interest""]",1.387415,103.7623571,True
Bukit Panjang,Dairy Farm,education,tuition centre,"tuition centre in Dairy Farm, Bukit Panjang, Singapore",ChIJyUFZyb8Z2jERDtNTVdQgbCE,Qi Ming Learning Center 启明华文(Qi Ming Chinesisch-Lernzentrum) - formerly Zhang Lao Shi Chinese,"4 Dairy Farm Ln, B1-06 Street Floor) Dairy Farm Mall, Singapore 677622",5.0,6,"[""establishment"", ""point_of_interest""]",1.365536,103.774517,True
Bukit Panjang,Dairy Farm,education,library,"library in Dairy Farm, Bukit Panjang, Singapore",ChIJAQAASKMR2jER1rsyt_ipOM0,Bukit Panjang Library,"1 Jelebu Road #04-04 & 16/17 Bukit Panjang Plaza, Singapore 677743",4.3,263,"[""establishment"", ""library"", ""point_of_interest""]",1.3799627,103.7643391,True
Bukit Panjang,Dairy Farm,education,library,"library in Dairy Farm, Bukit Panjang, Singapore",ChIJ5-Dtl-kR2jERllI9-1NpYVY,Choa Chu Kang Library,"21 Choa Chu Kang Avenue 4 #04-01/02 and #05-06, Lot One Shopper’s Mall, Singapore 689812",4.3,280,"[""establishment"", ""library"", ""point_of_interest""]",1.384977,103.7452205,True
Bukit Panjang,Dairy Farm,transport,MRT station,"MRT station in Dairy Farm, Bukit Panjang, Singapore",ChIJARt1T4kR2jERTyE-4kybHC4,Bukit Panjang MRT Station (DT1),"950 Upper Bukit Timah Rd, B2-02, Singapore 678213",4.5,895,"[""establishment"", ""point_of_interest""]",1.3790912,103.7617432,True
Bukit Panjang,Dairy Farm,transport,MRT station,"MRT station in Dairy Farm, Bukit Panjang, Singapore",ChIJARTcUrsR2jERUUjcHJScUz8,Bukit Panjang MRT/LRT station,Singapore,3.4,50,"[""establishment"", ""point_of_interest"", ""transit_station""]",1.3783155,103.762459,True
Bukit Panjang,Dairy Farm,transport,bus stop,"bus stop in Dairy Farm, Bukit Panjang, Singapore",ChIJb4trXFMQ2jERDlibxR9wfbE,Bef Dairy Farm Cres,Singapore,3.0,2,"[""establishment"", ""point_of_interest"", ""transit_station""]",1.3634127,103.769025,True
Bukit Panjang,Dairy Farm,transport,bus stop,"bus stop in Dairy Farm, Bukit Panjang, Singapore",ChIJYbxq2qwR2jERbjQomdNaMo4,Opp Dairy Farm Rd,Singapore,5.0,1,"[""establishment"", ""point_of_interest"", ""transit_station""]",1.365094,103.767052,True
Bukit Panjang,Dairy Farm,transport,bus interchange,"bus interchange in Dairy Farm, Bukit Panjang, Singapore",ChIJR58QIQAR2jER4V6UweGq9BQ,Bukit Panjang Bus Interchange,"15 Petir Rd, #01-63, Singapore 678270",2.8,16,"[""establishment"", ""point_of_interest""]",1.3784347,103.7627763,True
Bukit Panjang,Dairy Farm,transport,bus interchange,"bus interchange in Dairy Farm, Bukit Panjang, Singapore",ChIJ8Qp3dQAR2jEROFXXj8Y8-Fg,Dairy Farm Mall,Singapore,5.0,1,"[""establishment"", ""point_of_interest"", ""transit_station""]",1.3657822,103.7753752,True
Bukit Panjang,Dairy Farm,transport,LRT station,"LRT station in Dairy Farm, Bukit Panjang, Singapore",ChIJD58--UkR2jERMi5sKsqSqko,Bukit Panjang LRT Station (BP6),"11 Petir Rd, Singapore 678268",4.4,77,"[""establishment"", ""point_of_interest""]",1.3778954,103.7630388,True
Bukit Panjang,Dairy Farm,food,hawker centre,"hawker centre in Dairy Farm, Bukit Panjang, Singapore",ChIJc0LVIKcR2jERFB8jEvb4t7g,Bukit Panjang Hawker Centre & Market,"2 Bukit Panjang Ring Rd, Singapore 679947",3.9,2933,"[""establishment"", ""food"", ""point_of_interest"", ""restaurant""]",1.3774093,103.7724275,True
Bukit Panjang,Dairy Farm,food,hawker centre,"hawker centre in Dairy Farm, Bukit Panjang, Singapore",ChIJwyqFZAAR2jERBNsK4AtckYU,Food Kakis @ Dairy Farm Mall,"4 Dairy Farm Ln, #01-12, Singapore",3.9,19,"[""establishment"", ""food"", ""point_of_interest""]",1.3654648,103.774358,True
Bukit Panjang,Dairy Farm,food,coffee shop,"coffee shop in Dairy Farm, Bukit Panjang, Singapore",ChIJsdalOgAR2jEResRkWx-ygqk,The Coffee Bean & Tea Leaf - Dairy Farm Mall,"4 Dairy Farm Ln, #01-01/02 Dairy Farm Mall, Singapore 677622",3.9,32,"[""cafe"", ""establishment"", ""food"", ""point_of_interest""]",1.3656753,103.7751023,True
Bukit Panjang,Dairy Farm,food,coffee shop,"coffee shop in Dairy Farm, Bukit Panjang, Singapore",ChIJoWvrTQAR2jERQ3tFieg_QJ8,Seafood Blue Lagoon,"Dairy Farm Rd, Singapore",4.0,9,"[""cafe"", ""establishment"", ""food"", ""point_of_interest"", ""store""]",1.3658281,103.775109,True
Bukit Panjang,Dairy Farm,food,restaurant,"restaurant in Dairy Farm, Bukit Panjang, Singapore",ChIJd8QPNukR2jERaTPoSrco6PE,Monzen Izakaya and Grill,"4 Dairy Farm Ln, #01-04, Singapore 677622",4.4,174,"[""establishment"", ""food"", ""point_of_interest"", ""restaurant""]",1.3651839,103.7751171,True
Bukit Panjang,Dairy Farm,food,cafe,"cafe in Dairy Farm, Bukit Panjang, Singapore",ChIJyw36fqQR2jERcCOpFI-_nYg,Baker & Cook - Dairy Farm,"4 Dairy Farm Ln, Unit # B1-01/02, Singapore 677622",4.1,240,"[""bakery"", ""cafe"", ""establishment"", ""food"", ""point_of_interest"", ""store""]",1.3664704,103.7751214,True
Bukit Panjang,Dairy Farm,shopping,shopping mall,"shopping mall in Dairy Farm, Bukit Panjang, Singapore",ChIJYQ4eVQAR2jERL9vRsD9nYsY,Dairy Farm Mall,"4 Dairy Farm Ln, Singapore 677622",3.6,120,"[""establishment"", ""point_of_interest"", ""shopping_mall""]",1.3664704,103.7751214,True
Bukit Panjang,Dairy Farm,shopping,supermarket,"supermarket in Dairy Farm, Bukit Panjang, Singapore",ChIJ0dkjcwAR2jERiwgHlWg0INA,FairPrice Finest Dairy Farm Residences,"4 Dairy Farm Ln, B1-12 Dairy Farm Mall, Singapore 677622",4.2,28,"[""establishment"", ""food"", ""grocery_or_supermarket"", ""point_of_interest"", ""store""]",1.3654625,103.7749791,True
Bukit Panjang,Dairy Farm,shopping,supermarket,"supermarket in Dairy Farm, Bukit Panjang, Singapore",ChIJUXhrN6MR2jER7xtwryUocpY,FairPrice Finest,"1 Jelebu Rd, #01-15 & #02-20 Bukit Panjang Plaza, Singapore 677743",4.3,1180,"[""establishment"", ""food"", ""grocery_or_supermarket"", ""point_of_interest"", ""store"", ""supermarket""]",1.3800079,103.7642894,True
Bukit Panjang,Dairy Farm,shopping,convenience store,"convenience store in Dairy Farm, Bukit Panjang, Singapore",ChIJJWqdY54R2jERP0w1YMk08Mc,M28 Minimart,"465 Segar Rd, #01-150 Segar Gardens, Singapore 670465",3.3,14,"[""convenience_store"", ""establishment"", ""food"", ""point_of_interest"", ""store""]",1.387382,103.7726038,True
Bukit Panjang,Dairy Farm,shopping,wet market,"wet market in Dairy Farm, Bukit Panjang, Singapore",ChIJ2-fuRZ8R2jERo1jNY3fv4iw,Fajar Market,"445 Fajar Rd, Singapore 670445",4.0,83,"[""establishment"", ""point_of_interest""]",1.3841814,103.7710986,True
Bukit Panjang,Dairy Farm,shopping,wet market,"wet market in Dairy Farm, Bukit Panjang, Singapore",ChIJkXRszaAR2jEROQL4rhmhElg,Bangkit Market,"257 Bangkit Rd, Singapore 670257",4.2,1152,"[""establishment"", ""point_of_interest""]",1.3778953,103.7732915,True
Bukit Panjang,Dairy Farm,recreation,gym,"gym in Dairy Farm, Bukit Panjang, Singapore",ChIJ3XZbumIR2jER1R_aC-6Kggs,BFT Dairy Farm,"4 Dairy Farm Ln, #01-07/08/09 Dairy Farm Mall, Singapore 677622",4.8,81,"[""establishment"", ""gym"", ""health"", ""point_of_interest""]",1.3655818,103.7748673,True
Bukit Panjang,Dairy Farm,recreation,gym,"gym in Dairy Farm, Bukit Panjang, Singapore",ChIJhbpOJgAR2jERx241ISLOhgo,Dairy Farm Park Connector Fitness Station,"11 Dairy Farm Rd, Singapore 679040",5.0,2,"[""establishment"", ""gym"", ""health"", ""point_of_interest""]",1.3656046,103.7674181,True
Bukit Panjang,Dairy Farm,recreation,swimming complex,"swimming complex in Dairy Farm, Bukit Panjang, Singapore",ChIJs45bbr0R2jERwByR91EdWqw,Senja-Cashew Community Club,"101 Bukit Panjang Rd, Singapore 679910",4.3,1262,"[""establishment"", ""point_of_interest""]",1.381403,103.764651,True
Bukit Panjang,Dairy Farm,recreation,swimming complex,"swimming complex in Dairy Farm, Bukit Panjang, Singapore",ChIJ03G_xKIR2jERuE_Fzg7W0XE,Senja Cashew Swimming Complex (The Swimming Place),"101 Bukit Panjang Rd, Singapore 679910",4.1,237,"[""establishment"", ""health"", ""point_of_interest"", ""school""]",1.3821209,103.7645736,True
Bukit Panjang,Dairy Farm,recreation,cinema,"cinema in Dairy Farm, Bukit Panjang, Singapore",ChIJgYTJddwR2jER8MdGymd5AOA,CozyPlace @ Bukit Timah,"170 Upper Bukit Timah Rd, #12-01 Shopping Centre, Singapore 588179",4.9,485,"[""establishment"", ""movie_theater"", ""point_of_interest""]",1.3431115,103.7760782,True
Bukit Panjang,Dairy Farm,recreation,cinema,"cinema in Dairy Farm, Bukit Panjang, Singapore",ChIJ3dSCfKMR2jERsBpC6UoFuaQ,EagleWings Cinematics,"9 King Albert Prk, #01-58, Singapore 598332",4.4,503,"[""establishment"", ""movie_theater"", ""point_of_interest""]",1.3369213,103.7790282,True
Bukit Panjang,Dairy Farm,recreation,community club,"community club in Dairy Farm, Bukit Panjang, Singapore",ChIJJWt786YR2jERcIgIkdUxv_0,Bukit Panjang Community Club,"8 Pending Rd, Singapore 678295",4.1,957,"[""establishment"", ""point_of_interest""]",1.376001,103.770687,True
Bukit Panjang,Dairy Farm,recreation,playground,"playground in Dairy Farm, Bukit Panjang, Singapore",ChIJ-f__r6oR2jER5UiO6z8HpQM,Dairy Farm Nature Park,"100 Dairy Farm Rd, Singapore 679057",4.5,1247,"[""establishment"", ""park"", ""point_of_interest"", ""tourist_attraction""]",1.3640182,103.7763968,True
Bukit Panjang,Dairy Farm,recreation,playground,"playground in Dairy Farm, Bukit Panjang, Singapore",ChIJfbpxiakR2jERtwba7LzBDVc,Chestnut Close Playground,"Chestnut Cl, Singapore",4.2,47,"[""establishment"", ""point_of_interest""]",1.3689057,103.7734011,True
Bukit Panjang,Dairy Farm,nature,park,"park in Dairy Farm, Bukit Panjang, Singapore",ChIJ-f__r6oR2jER5UiO6z8HpQM,Dairy Farm Nature Park,"100 Dairy Farm Rd, Singapore 679057",4.5,1247,"[""establishment"", ""park"", ""point_of_interest"", ""tourist_attraction""]",1.3640182,103.7763968,True
Bukit Panjang,Dairy Farm,nature,park,"park in Dairy Farm, Bukit Panjang, Singapore",ChIJYaJF6IAR2jER9lwXd7Fnuj0,Dairy Farm Open Carpark B,"100 Dairy Farm Rd, Singapore 679057",4.8,23,"[""establishment"", ""parking"", ""point_of_interest""]",1.3645752,103.7763066,True
Bukit Panjang,Dairy Farm,nature,garden,"garden in Dairy Farm, Bukit Panjang, Singapore",ChIJUXqMQ1MQ2jERop6ZvgCy-2E,Dairy Farm Estate,"3 Dairy Farm Rd, Singapore 679035",4.3,156,"[""establishment"", ""point_of_interest""]",1.3649414,103.7695313,True
Bukit Panjang,Dairy Farm,nature,beach,"beach in Dairy Farm, Bukit Panjang, Singapore",ChIJtdbGAYAR2jERVLLHxQtZvSg,Dairy Farm Quarry,Singapore,4.3,20,"[""establishment"", ""point_of_interest""]",1.3606446,103.7726608,True
Bukit Panjang,Dairy Farm,nature,waterfront,"waterfront in Dairy Farm, Bukit Panjang, Singapore",ChIJtUdZcwAR2jERtDPH7xhL6Fk,Dairy Farm Residences,"4, 6, 8, Dairy Farm Ln, #10 & 12, Singapore 677623",3.6,26,"[""establishment"", ""point_of_interest""]",1.3665947,103.7741401,True
Bukit Panjang,Dairy Farm,nature,park connector,"park connector in Dairy Farm, Bukit Panjang, Singapore",ChIJmxJ7dQAR2jERQHkDALJc18Y,Dairy Farm Park Connector,Singapore,5.0,3,"[""establishment"", ""point_of_interest""]",1.3641301,103.7680407,True
Bukit Panjang,Dairy Farm,nature,park connector,"park connector in Dairy Farm, Bukit Panjang, Singapore",ChIJHxwMV3AR2jER_BkA5D3SY4k,Dairy Farm Park Connector,"Bef, Chestnut Ave, Singapore",5.0,2,"[""establishment"", ""park"", ""point_of_interest""]",1.367726,103.775307,True
Bukit Panjang,Fajar,education,kindergarten,"kindergarten in Fajar, Bukit Panjang, Singapore",ChIJ45x4iIgR2jERQfg5yAOn1ZU,Little Seeds Preschool (TSA - Bukit Panjang),"402 Fajar Rd, #01-217, Singapore 670402",4.9,38,"[""establishment"", ""point_of_interest"", ""school""]",1.3803488,103.7680693,True
Bukit Panjang,Fajar,education,kindergarten,"kindergarten in Fajar, Bukit Panjang, Singapore",ChIJX_-TfKER2jEReb5FkPzwaS4,My First Skool at Blk 443A Fajar Road,"443A Fajar Rd, #01-92 Fajar Hills, Singapore 671443",5.0,1,"[""establishment"", ""point_of_interest"", ""school""]",1.3814938,103.7696568,True
Bukit Panjang,Fajar,education,childcare centre,"childcare centre in Fajar, Bukit Panjang, Singapore",ChIJg-qEifUR2jERHEvaLFCoNK0,Junior Seekers Student Care @ Fajar,"Blk 441 Fajar Rd, #B1-466, Singapore 670441",5.0,11,"[""establishment"", ""point_of_interest""]",1.3834187,103.7705169,True
Bukit Panjang,Fajar,education,primary school,"primary school in Fajar, Bukit Panjang, Singapore",ChIJJR5v3qMR2jER9QZ49ia1PWE,Zhenghua Primary School,"9 Fajar Rd, Singapore 679002",,0,"[""establishment"", ""point_of_interest"", ""primary_school"", ""school"", ""secondary_school""]",1.3796697,103.7692818,True
Bukit Panjang,Fajar,education,secondary school,"secondary school in Fajar, Bukit Panjang, Singapore",ChIJS4GFPqAR2jERQGJOjeXgYz8,Greenridge Secondary School,"31 Gangsa Rd, Singapore 678972",,0,"[""establishment"", ""point_of_interest"", ""school""]",1.3754112,103.7644315,True
Bukit Panjang,Fajar,education,junior college,"junior college in Fajar, Bukit Panjang, Singapore",ChIJz_-CGpUR2jERsxAVVh_vnoY,Jurong Pioneer Junior College,"21 Teck Whye Walk, Singapore 688258",3.8,86,"[""establishment"", ""point_of_interest"", ""university""]",1.3847446,103.753857,True
Bukit Panjang,Fajar,education,polytechnic,"polytechnic in Fajar, Bukit Panjang, Singapore",ChIJFXzxL2Aa2jERnoWTOdJdVKk,Singapore Polytechnic,"500 Dover Rd, Singapore 139651",4.3,647,"[""establishment"", ""point_of_interest""]",1.3097757,103.7775495,True
Bukit Panjang,Fajar,education,polytechnic,"polytechnic in Fajar, Bukit Panjang, Singapore",ChIJWeO0jn0Q2jERQwzr3v_n0nU,Ngee Ann Polytechnic,"535 Clementi Rd, Singapore 599489",4.3,500,"[""establishment"", ""point_of_interest""]",1.3315798,103.7747134,True
Bukit Panjang,Fajar,education,university,"university in Fajar, Bukit Panjang, Singapore",ChIJcYFHG58R2jER2gXSmmeYJhI,Stepping Stones Study Centre,"439 Fajar Rd, #B1-428, Singapore 670439",4.9,226,"[""establishment"", ""point_of_interest""]",1.383188,103.770197,True
Bukit Panjang,Fajar,education,university,"university in Fajar, Bukit Panjang, Singapore",ChIJ2QJCeFYa2jERa434wdYIjUg,National University of Singapore,"21 Lower Kent Ridge Rd, University Hall, Singapore 119077",4.5,2389,"[""establishment"", ""point_of_interest"", ""university""]",1.2976493,103.7766916,True
Bukit Panjang,Fajar,education,tuition centre,"tuition centre in Fajar, Bukit Panjang, Singapore",ChIJVSTfVioR2jERzl_KymLWRVM,"Edufirst Learning Centre (Bukit Panjang) – Math, English & Chinese Tuition | Tuition Centre | Student Care","642 Senja Cl, #01-20/21, Singapore 670642",4.8,51,"[""establishment"", ""point_of_interest""]",1.387415,103.7623571,True
Bukit Panjang,Fajar,education,library,"library in Fajar, Bukit Panjang, Singapore",ChIJAQAASKMR2jER1rsyt_ipOM0,Bukit Panjang Library,"1 Jelebu Road #04-04 & 16/17 Bukit Panjang Plaza, Singapore 677743",4.3,263,"[""establishment"", ""library"", ""point_of_interest""]",1.3799627,103.7643391,True
Bukit Panjang,Fajar,education,library,"library in Fajar, Bukit Panjang, Singapore",ChIJe3kTN6MR2jERr5FbmFCuxPI,Bukit Panjang Plaza,"1 Jelebu Rd, Singapore 677743",4.2,5897,"[""establishment"", ""point_of_interest"", ""shopping_mall""]",1.3800396,103.7642339,True
Bukit Panjang,Fajar,transport,MRT station,"MRT station in Fajar, Bukit Panjang, Singapore",ChIJM762P58R2jER4-pjN_7oJpk,Fajar,Singapore,2.5,6,"[""establishment"", ""point_of_interest"", ""subway_station"", ""transit_station""]",1.38453,103.77084,True
Bukit Panjang,Fajar,transport,MRT station,"MRT station in Fajar, Bukit Panjang, Singapore",ChIJEWtLCEIR2jERr90xM0YManE,Fajar LRT Station (BP10),"40 Fajar Rd, Singapore 679004",4.4,25,"[""establishment"", ""point_of_interest""]",1.3846153,103.770826,True
Bukit Panjang,Fajar,transport,bus stop,"bus stop in Fajar, Bukit Panjang, Singapore",ChIJe_EoRp8R2jER-i4JDRQ84k4,Opp Fajar Stn,Singapore,4.3,4,"[""establishment"", ""point_of_interest"", ""transit_station""]",1.384222,103.77021,True
Bukit Panjang,Fajar,transport,bus interchange,"bus interchange in Fajar, Bukit Panjang, Singapore",ChIJR58QIQAR2jER4V6UweGq9BQ,Bukit Panjang Bus Interchange,"15 Petir Rd, #01-63, Singapore 678270",2.8,16,"[""establishment"", ""point_of_interest""]",1.3784347,103.7627763,True
Bukit Panjang,Fajar,food,hawker centre,"hawker centre in Fajar, Bukit Panjang, Singapore",ChIJc0LVIKcR2jERFB8jEvb4t7g,Bukit Panjang Hawker Centre & Market,"2 Bukit Panjang Ring Rd, Singapore 679947",3.9,2933,"[""establishment"", ""food"", ""point_of_interest"", ""restaurant""]",1.3774093,103.7724275,True
Bukit Panjang,Fajar,food,hawker centre,"hawker centre in Fajar, Bukit Panjang, Singapore",ChIJM7Kvx3QZ2jER7umUFjan98g,Fajar Shopping Centre,"445 Fajar Rd, Singapore 670445",3.8,1833,"[""establishment"", ""point_of_interest"", ""shopping_mall""]",1.3838672,103.7705214,True
Bukit Panjang,Fajar,food,food court,"food court in Fajar, Bukit Panjang, Singapore",ChIJ7dkTQp8R2jERNlhKbItdayA,Koufu,"445 Fajar Rd, #01-548 Fajar Shopping Centre, Singapore 670445",3.7,415,"[""establishment"", ""food"", ""point_of_interest""]",1.3842094,103.7707387,True
Bukit Panjang,Fajar,food,food court,"food court in Fajar, Bukit Panjang, Singapore",ChIJ_91nAA0R2jERQupXcOdEieY,WUFU COFFEESHOP 445 Fajar,"445 #01-538 Fajar Shopping Centre, 445 Fajar Rd, Fajar Shopping Centre, Singapore 670445",3.0,28,"[""establishment"", ""food"", ""point_of_interest"", ""store""]",1.3836215,103.7709168,True
Bukit Panjang,Fajar,food,coffee shop,"coffee shop in Fajar, Bukit Panjang, Singapore",ChIJfQZezKAR2jER4rR7V_83Ejk,Food Hub Bangkit 257 Coffee House,"257 Bangkit Rd, Singapore 670257",3.9,838,"[""cafe"", ""establishment"", ""food"", ""point_of_interest"", ""store""]",1.378759,103.7734974,True
Bukit Panjang,Fajar,food,restaurant,"restaurant in Fajar, Bukit Panjang, Singapore",ChIJsdW5choR2jERtYwZ71Vi2E8,Jinjja Kitchen @ Bukit Panjang Plaza,"1 Jelebu Rd, #02-10, Singapore 677743",4.8,235,"[""establishment"", ""food"", ""point_of_interest"", ""restaurant""]",1.3799653,103.7643089,True
Bukit Panjang,Fajar,food,restaurant,"restaurant in Fajar, Bukit Panjang, Singapore",ChIJF_3DrFsR2jERTNZcQZfKczM,Greendot Bukit Panjang Plaza,"1 Jelebu Rd, #01-36, Singapore 677743",4.7,372,"[""establishment"", ""food"", ""point_of_interest"", ""restaurant""]",1.3799228,103.7644099,True
Bukit Panjang,Fajar,food,cafe,"cafe in Fajar, Bukit Panjang, Singapore",ChIJoWvrTQAR2jERQ3tFieg_QJ8,Seafood Blue Lagoon,"Dairy Farm Rd, Singapore",4.0,9,"[""cafe"", ""establishment"", ""food"", ""point_of_interest"", ""store""]",1.3658281,103.775109,True
Bukit Panjang,Fajar,food,cafe,"cafe in Fajar, Bukit Panjang, Singapore",ChIJyw36fqQR2jERcCOpFI-_nYg,Baker & Cook - Dairy Farm,"4 Dairy Farm Ln, Unit # B1-01/02, Singapore 677622",4.1,240,"[""bakery"", ""cafe"", ""establishment"", ""food"", ""point_of_interest"", ""store""]",1.3664704,103.7751214,True
Bukit Panjang,Fajar,shopping,shopping mall,"shopping mall in Fajar, Bukit Panjang, Singapore",ChIJe3kTN6MR2jERr5FbmFCuxPI,Bukit Panjang Plaza,"1 Jelebu Rd, Singapore 677743",4.2,5897,"[""establishment"", ""point_of_interest"", ""shopping_mall""]",1.3800396,103.7642339,True
Bukit Panjang,Fajar,shopping,shopping mall,"shopping mall in Fajar, Bukit Panjang, Singapore",ChIJM7Kvx3QZ2jER7umUFjan98g,Fajar Shopping Centre,"445 Fajar Rd, Singapore 670445",3.8,1833,"[""establishment"", ""point_of_interest"", ""shopping_mall""]",1.3838672,103.7705214,True
Bukit Panjang,Fajar,shopping,supermarket,"supermarket in Fajar, Bukit Panjang, Singapore",ChIJEwSPa58R2jERsbJaI3W6ac4,Sheng Siong Supermarket,"446A Fajar Rd, #01-01, Singapore 670446",4.3,402,"[""establishment"", ""food"", ""grocery_or_supermarket"", ""point_of_interest"", ""store"", ""supermarket""]",1.3839523,103.7709925,True
Bukit Panjang,Fajar,shopping,supermarket,"supermarket in Fajar, Bukit Panjang, Singapore",ChIJUXhrN6MR2jER7xtwryUocpY,FairPrice Finest,"1 Jelebu Rd, #01-15 & #02-20 Bukit Panjang Plaza, Singapore 677743",4.3,1180,"[""establishment"", ""food"", ""grocery_or_supermarket"", ""point_of_interest"", ""store"", ""supermarket""]",1.3800079,103.7642894,True
Bukit Panjang,Fajar,shopping,convenience store,"convenience store in Fajar, Bukit Panjang, Singapore",ChIJt4eqXJ8R2jER36KWDuOUl1s,7-Eleven,"445 Fajar Road, #01-556, Fajar Shopping Centre, Singapore 670445",3.2,19,"[""convenience_store"", ""establishment"", ""food"", ""point_of_interest"", ""store""]",1.3838672,103.7705214,True
Bukit Panjang,Fajar,shopping,convenience store,"convenience store in Fajar, Bukit Panjang, Singapore",ChIJjRrOww4R2jER0Fx-bHXfE0U,Srisai Minimart,"419 Fajar Road, #01-459, Fajar Square, Singapore 670419",4.2,5,"[""convenience_store"", ""establishment"", ""food"", ""point_of_interest"", ""store""]",1.3843667,103.7695145,True
Bukit Panjang,Fajar,shopping,wet market,"wet market in Fajar, Bukit Panjang, Singapore",ChIJ2-fuRZ8R2jERo1jNY3fv4iw,Fajar Market,"445 Fajar Rd, Singapore 670445",4.0,83,"[""establishment"", ""point_of_interest""]",1.3841814,103.7710986,True
Bukit Panjang,Fajar,shopping,wet market,"wet market in Fajar, Bukit Panjang, Singapore",ChIJkXRszaAR2jEROQL4rhmhElg,Bangkit Market,"257 Bangkit Rd, Singapore 670257",4.2,1152,"[""establishment"", ""point_of_interest""]",1.3778953,103.7732915,True
Bukit Panjang,Fajar,recreation,gym,"gym in Fajar, Bukit Panjang, Singapore",ChIJOVKixaIR2jERRlP-Omkol_M,Anytime Fitness Bukit Panjang,"8 Pending Rd, #03-01, Singapore 678295",4.4,212,"[""establishment"", ""gym"", ""health"", ""point_of_interest""]",1.3763082,103.7707994,True
Bukit Panjang,Fajar,recreation,gym,"gym in Fajar, Bukit Panjang, Singapore",ChIJT4ngSQAR2jERYEldwDSeuw0,BFT Bangkit,"20a Segar Rd, Singapore 679350",4.6,9,"[""establishment"", ""gym"", ""health"", ""point_of_interest""]",1.3899886,103.7717241,True
Bukit Panjang,Fajar,recreation,sports centre,"sports centre in Fajar, Bukit Panjang, Singapore",ChIJgx4YWagR2jERCasQYF6YSKI,ARK Sports Village,"20A Segar Rd, ARK SPORTS VILLAGE, Singapore 679350",4.7,40,"[""establishment"", ""point_of_interest""]",1.3900865,103.7717033,True
Bukit Panjang,Fajar,recreation,sports centre,"sports centre in Fajar, Bukit Panjang, Singapore",ChIJkVO-z5gR2jERYR1mMHhBYc8,Fajar Sports Hub,"Fajar Rd, Singapore",3.8,14,"[""establishment"", ""park"", ""point_of_interest""]",1.3849164,103.7687887,True
Bukit Panjang,Fajar,recreation,swimming complex,"swimming complex in Fajar, Bukit Panjang, Singapore",ChIJ03G_xKIR2jERuE_Fzg7W0XE,Senja Cashew Swimming Complex (The Swimming Place),"101 Bukit Panjang Rd, Singapore 679910",4.1,237,"[""establishment"", ""health"", ""point_of_interest"", ""school""]",1.3821209,103.7645736,True
Bukit Panjang,Fajar,recreation,swimming complex,"swimming complex in Fajar, Bukit Panjang, Singapore",ChIJM7Kvx3QZ2jER7umUFjan98g,Fajar Shopping Centre,"445 Fajar Rd, Singapore 670445",3.8,1833,"[""establishment"", ""point_of_interest"", ""shopping_mall""]",1.3838672,103.7705214,True
Bukit Panjang,Fajar,recreation,cinema,"cinema in Fajar, Bukit Panjang, Singapore",ChIJi19VjekR2jERWaroR6pc860,Shaw Theatres,"21 Choa Chu Kang Ave 4, Singapore 689812",4.1,906,"[""establishment"", ""movie_theater"", ""point_of_interest""]",1.3850351,103.7451224,True
Bukit Panjang,Fajar,recreation,cinema,"cinema in Fajar, Bukit Panjang, Singapore",ChIJFx7cQgAR2jERum7NN5FvIOk,Shaw Theatres JEM,"50 Jurong Gateway Rd, #05 04, Singapore 608549",4.0,84,"[""establishment"", ""movie_theater"", ""point_of_interest""]",1.33312,103.7432173,True
Bukit Panjang,Fajar,recreation,community club,"community club in Fajar, Bukit Panjang, Singapore",ChIJJWt786YR2jERcIgIkdUxv_0,Bukit Panjang Community Club,"8 Pending Rd, Singapore 678295",4.1,957,"[""establishment"", ""point_of_interest""]",1.376001,103.770687,True
Bukit Panjang,Fajar,recreation,community club,"community club in Fajar, Bukit Panjang, Singapore",ChIJn3ut854R2jERfkj909V6YhA,Zhenghua Community Club,"1 Segar Rd, Singapore 677738",3.9,525,"[""establishment"", ""point_of_interest""]",1.3867544,103.7717269,True
Bukit Panjang,Fajar,recreation,playground,"playground in Fajar, Bukit Panjang, Singapore",ChIJbc6gyaMR2jERHvER6lqnSPQ,Playground,"402 Fajar Rd, Singapore 670402",5.0,5,"[""establishment"", ""point_of_interest""]",1.3805143,103.7681963,True
Bukit Panjang,Fajar,recreation,playground,"playground in Fajar, Bukit Panjang, Singapore",ChIJYYGkfwoR2jERA18hEAHSmUk,Zhenghua Park Children's Playground,"276 Bangkit Rd, Singapore 670276",4.3,21,"[""establishment"", ""point_of_interest""]",1.3806711,103.7754029,True
Bukit Panjang,Fajar,nature,park,"park in Fajar, Bukit Panjang, Singapore",ChIJW0wCIAcR2jERAEOR0GhMljA,Zhenghua Park,"273 Bangkit Rd, Singapore 670276",4.3,566,"[""establishment"", ""park"", ""point_of_interest"", ""tourist_attraction""]",1.3771337,103.7763826,True
Bukit Panjang,Fajar,nature,park,"park in Fajar, Bukit Panjang, Singapore",ChIJkVO-z5gR2jERYR1mMHhBYc8,Fajar Sports Hub,"Fajar Rd, Singapore",3.8,14,"[""establishment"", ""park"", ""point_of_interest""]",1.3849164,103.7687887,True
Bukit Panjang,Fajar,nature,nature reserve,"nature reserve in Fajar, Bukit Panjang, Singapore",ChIJR9wDuIwQ2jERp5g9l0m9MQ0,Rifle Range Nature Park,"Rifle Range Rd, Singapore 589322",4.7,1045,"[""establishment"", ""park"", ""point_of_interest"", ""tourist_attraction""]",1.3434752,103.7794063,True
Bukit Panjang,Fajar,nature,nature reserve,"nature reserve in Fajar, Bukit Panjang, Singapore",ChIJ-f__r6oR2jER5UiO6z8HpQM,Dairy Farm Nature Park,"100 Dairy Farm Rd, Singapore 679057",4.5,1247,"[""establishment"", ""park"", ""point_of_interest"", ""tourist_attraction""]",1.3640182,103.7763968,True
Bukit Panjang,Fajar,nature,garden,"garden in Fajar, Bukit Panjang, Singapore",ChIJFRoWIwgR2jER2v5DQcoF4pE,Bukit Panjang Butterfly Garden,"213 Petir Rd, Singapore 670213",3.5,29,"[""establishment"", ""park"", ""point_of_interest""]",1.3751813,103.7758946,True
Bukit Panjang,Fajar,nature,garden,"garden in Fajar, Bukit Panjang, Singapore",ChIJ3SLjNCwR2jER6HJiIG_jYMc,Siang Garden,"Fajar Rd, #01-538 Fajar Shopping Centre, Singapore 670445",2.3,20,"[""establishment"", ""food"", ""point_of_interest"", ""restaurant""]",1.383602,103.7710299,True
Bukit Panjang,Fajar,nature,beach,"beach in Fajar, Bukit Panjang, Singapore",ChIJM7Kvx3QZ2jER7umUFjan98g,Fajar Shopping Centre,"445 Fajar Rd, Singapore 670445",3.8,1833,"[""establishment"", ""point_of_interest"", ""shopping_mall""]",1.3838672,103.7705214,True
Bukit Panjang,Fajar,nature,beach,"beach in Fajar, Bukit Panjang, Singapore",ChIJaaC07KIR2jERl3-DgSWf4aE,Pang Sua Pond,"101 Bukit Panjang Ring Road, Saujana Rd, Singapore 679910",4.5,901,"[""establishment"", ""park"", ""point_of_interest"", ""tourist_attraction""]",1.3819061,103.7655122,True
Bukit Panjang,Fajar,nature,waterfront,"waterfront in Fajar, Bukit Panjang, Singapore",ChIJ96HBJZ8a2jERl1GsjJmk-70,Waterfront @ Faber,"48 Faber Walk, Singapore 128993",4.4,120,"[""establishment"", ""point_of_interest""]",1.3232117,103.754716,True
Bukit Panjang,Fajar,nature,park connector,"park connector in Fajar, Bukit Panjang, Singapore",ChIJZ2n78R0R2jERv4IZBDswYrc,Bukit Panjang Park Connector,"501 Jelapang Rd, Singapore 670501",4.7,3,"[""establishment"", ""point_of_interest""]",1.3835404,103.767104,True
Bukit Panjang,Fajar,nature,park connector,"park connector in Fajar, Bukit Panjang, Singapore",ChIJ__8_JqUb2jERpXwPzz-poks,Pasir Panjang Park,"121 Pasir Panjang Rd, Singapore 118543",3.9,16,"[""establishment"", ""park"", ""point_of_interest""]",1.2777905,103.7861067,True
Bukit Panjang,Jelebu,education,kindergarten,"kindergarten in Jelebu, Bukit Panjang, Singapore",ChIJ45x4iIgR2jERQfg5yAOn1ZU,Little Seeds Preschool (TSA - Bukit Panjang),"402 Fajar Rd, #01-217, Singapore 670402",4.9,38,"[""establishment"", ""point_of_interest"", ""school""]",1.3803488,103.7680693,True
Bukit Panjang,Jelebu,education,kindergarten,"kindergarten in Jelebu, Bukit Panjang, Singapore",ChIJ2wJTN6MR2jERrpy2Gf89NT8,E-Bridge Pre-School Bukit Panjang,"1 Jelebu Rd, #04-05, Plaza 677743",3.8,5,"[""establishment"", ""point_of_interest"", ""school""]",1.3799653,103.7643089,True
Bukit Panjang,Jelebu,education,childcare centre,"childcare centre in Jelebu, Bukit Panjang, Singapore",ChIJW-MNxLwR2jERc0FlnmTsDiU,PCF Sparkletots Preschool @ Cashew Blk 183,"183 Jelebu Rd, Singapore 670183",5.0,1,"[""establishment"", ""point_of_interest""]",1.3799774,103.7629728,True
Bukit Panjang,Jelebu,education,childcare centre,"childcare centre in Jelebu, Bukit Panjang, Singapore",ChIJPYvMLtER2jERBwgbdFjT2eg,Infant care,"#02-02/02-03 Cashew Park, Singapore 679637",5.0,23,"[""establishment"", ""point_of_interest"", ""school""]",1.370652,103.767527,True
Bukit Panjang,Jelebu,education,primary school,"primary school in Jelebu, Bukit Panjang, Singapore",ChIJLYS9rqgR2jERu6jj_I969Gw,Bukit Panjang Primary School,"109 Cashew Rd, Singapore 679676",,0,"[""establishment"", ""point_of_interest"", ""primary_school"", ""school"", ""secondary_school""]",1.3730121,103.7690821,True
Bukit Panjang,Jelebu,education,primary school,"primary school in Jelebu, Bukit Panjang, Singapore",ChIJJR5v3qMR2jER9QZ49ia1PWE,Zhenghua Primary School,"9 Fajar Rd, Singapore 679002",,0,"[""establishment"", ""point_of_interest"", ""primary_school"", ""school"", ""secondary_school""]",1.3796697,103.7692818,True
Bukit Panjang,Jelebu,education,secondary school,"secondary school in Jelebu, Bukit Panjang, Singapore",ChIJbUEQbd0R2jERyMl2YGs8yHE,Bukit Panjang Government High School,"7 Choa Chu Kang Ave 4, Singapore 689809",,0,"[""establishment"", ""point_of_interest"", ""school"", ""secondary_school""]",1.3815132,103.7388106,True
Bukit Panjang,Jelebu,education,secondary school,"secondary school in Jelebu, Bukit Panjang, Singapore",ChIJS4GFPqAR2jERQGJOjeXgYz8,Greenridge Secondary School,"31 Gangsa Rd, Singapore 678972",,0,"[""establishment"", ""point_of_interest"", ""school""]",1.3754112,103.7644315,True
Bukit Panjang,Jelebu,education,junior college,"junior college in Jelebu, Bukit Panjang, Singapore",ChIJz_-CGpUR2jERsxAVVh_vnoY,Jurong Pioneer Junior College,"21 Teck Whye Walk, Singapore 688258",3.8,86,"[""establishment"", ""point_of_interest"", ""university""]",1.3847446,103.753857,True
Bukit Panjang,Jelebu,education,junior college,"junior college in Jelebu, Bukit Panjang, Singapore",ChIJ61lTU6EQ2jERiBDECMxHYFY,National Junior College,"37 Hillcrest Rd, Singapore 288913",4.4,182,"[""establishment"", ""point_of_interest"", ""school"", ""university""]",1.330476,103.8045,True
Bukit Panjang,Jelebu,education,polytechnic,"polytechnic in Jelebu, Bukit Panjang, Singapore",ChIJFXzxL2Aa2jERnoWTOdJdVKk,Singapore Polytechnic,"500 Dover Rd, Singapore 139651",4.3,647,"[""establishment"", ""point_of_interest""]",1.3097757,103.7775495,True
Bukit Panjang,Jelebu,education,polytechnic,"polytechnic in Jelebu, Bukit Panjang, Singapore",ChIJWeO0jn0Q2jERQwzr3v_n0nU,Ngee Ann Polytechnic,"535 Clementi Rd, Singapore 599489",4.3,500,"[""establishment"", ""point_of_interest""]",1.3315798,103.7747134,True
Bukit Panjang,Jelebu,education,university,"university in Jelebu, Bukit Panjang, Singapore",ChIJ2QJCeFYa2jERa434wdYIjUg,National University of Singapore,"21 Lower Kent Ridge Rd, University Hall, Singapore 119077",4.5,2389,"[""establishment"", ""point_of_interest"", ""university""]",1.2976493,103.7766916,True
Bukit Panjang,Jelebu,education,university,"university in Jelebu, Bukit Panjang, Singapore",ChIJvQQziYAQ2jERCOP-JKA4N9k,Singapore University of Social Sciences,"463 Clementi Rd, Singapore 599494",3.8,235,"[""establishment"", ""point_of_interest"", ""university""]",1.3286895,103.7759499,True
Bukit Panjang,Jelebu,education,tuition centre,"tuition centre in Jelebu, Bukit Panjang, Singapore",ChIJS95PQt0R2jERjAuuA_Ite7A,Bukit Panjang Tuition Class,"Blk 181 Jelebu Rd, Singapore 670181",,0,"[""establishment"", ""point_of_interest""]",1.3792737,103.7629963,True
Bukit Panjang,Jelebu,education,tuition centre,"tuition centre in Jelebu, Bukit Panjang, Singapore",ChIJYfvpNqMR2jERVZLa-n7UQV0,Mind Stretcher Bukit Panjang,"1 Jelebu Rd, #04-13 to 14 Bukit Panjang Plaza, Singapore 677743",4.6,84,"[""establishment"", ""point_of_interest""]",1.3798574,103.7645551,True
Bukit Panjang,Jelebu,education,library,"library in Jelebu, Bukit Panjang, Singapore",ChIJAQAASKMR2jER1rsyt_ipOM0,Bukit Panjang Library,"1 Jelebu Road #04-04 & 16/17 Bukit Panjang Plaza, Singapore 677743",4.3,263,"[""establishment"", ""library"", ""point_of_interest""]",1.3799627,103.7643391,True
Bukit Panjang,Jelebu,transport,MRT station,"MRT station in Jelebu, Bukit Panjang, Singapore",ChIJARt1T4kR2jERTyE-4kybHC4,Bukit Panjang MRT Station (DT1),"950 Upper Bukit Timah Rd, B2-02, Singapore 678213",4.5,895,"[""establishment"", ""point_of_interest""]",1.3790912,103.7617432,True
Bukit Panjang,Jelebu,transport,MRT station,"MRT station in Jelebu, Bukit Panjang, Singapore",ChIJ0_xeXrsR2jERpZ7qVzmnpag,Bukit Panjang,"Upper Bukit Timah Rd, Singapore 678205",4.2,166,"[""establishment"", ""point_of_interest"", ""subway_station"", ""transit_station""]",1.379,103.76154,True
Bukit Panjang,Jelebu,transport,bus stop,"bus stop in Jelebu, Bukit Panjang, Singapore",ChIJrxlbSqMR2jERQSELLa5LEFE,Opp Bt Panjang Plaza,Singapore,4.0,2,"[""establishment"", ""point_of_interest"", ""transit_station""]",1.379617,103.763908,True
Bukit Panjang,Jelebu,transport,bus stop,"bus stop in Jelebu, Bukit Panjang, Singapore",ChIJLXDxn7wR2jERI6bdKcYEx2s,Bt Panjang Stn Exit A/LRT,Singapore,4.4,14,"[""establishment"", ""point_of_interest"", ""transit_station""]",1.37863,103.76219,True
Bukit Panjang,Jelebu,transport,bus interchange,"bus interchange in Jelebu, Bukit Panjang, Singapore",ChIJR58QIQAR2jER4V6UweGq9BQ,Bukit Panjang Bus Interchange,"15 Petir Rd, #01-63, Singapore 678270",2.8,16,"[""establishment"", ""point_of_interest""]",1.3784347,103.7627763,True
Bukit Panjang,Jelebu,transport,bus interchange,"bus interchange in Jelebu, Bukit Panjang, Singapore",ChIJgVMsWLsR2jERmO09ZfrDfUI,Bt Panjang Interchange,Singapore,3.5,37,"[""establishment"", ""point_of_interest"", ""transit_station""]",1.378126,103.76329,True
Bukit Panjang,Jelebu,transport,LRT station,"LRT station in Jelebu, Bukit Panjang, Singapore",ChIJARTcUrsR2jERUUjcHJScUz8,Bukit Panjang MRT/LRT station,Singapore,3.4,50,"[""establishment"", ""point_of_interest"", ""transit_station""]",1.3783155,103.762459,True
Bukit Panjang,Jelebu,transport,LRT station,"LRT station in Jelebu, Bukit Panjang, Singapore",ChIJD58--UkR2jERMi5sKsqSqko,Bukit Panjang LRT Station (BP6),"11 Petir Rd, Singapore 678268",4.4,77,"[""establishment"", ""point_of_interest""]",1.3778954,103.7630388,True
Bukit Panjang,Jelebu,food,hawker centre,"hawker centre in Jelebu, Bukit Panjang, Singapore",ChIJyUme9TQR2jER1H5Rycs68oo,Hawkers' Street @ BPP,"1 Jelebu Rd, #03-08, Plaza 677743",4.7,2486,"[""establishment"", ""food"", ""point_of_interest""]",1.3805265,103.7642075,True
Bukit Panjang,Jelebu,food,hawker centre,"hawker centre in Jelebu, Bukit Panjang, Singapore",ChIJc0LVIKcR2jERFB8jEvb4t7g,Bukit Panjang Hawker Centre & Market,"2 Bukit Panjang Ring Rd, Singapore 679947",3.9,2933,"[""establishment"", ""food"", ""point_of_interest"", ""restaurant""]",1.3774093,103.7724275,True
Bukit Panjang,Jelebu,food,food court,"food court in Jelebu, Bukit Panjang, Singapore",ChIJMStxnCkR2jER1hx-HM88TfI,545 Whampoa Prawn Noodles (Bukit Panjang Plaza),"1 Jelebu Rd, #03-08 Hawkers’ Street, Singapore 677743",4.6,211,"[""establishment"", ""food"", ""point_of_interest""]",1.3799653,103.7643089,True
Bukit Panjang,Jelebu,food,coffee shop,"coffee shop in Jelebu, Bukit Panjang, Singapore",ChIJlYQIAQAR2jER3_KPJVaRgTw,The Coffee Bean & Tea Leaf,"1 Jelebu Rd, #02-08A/09, Plaza 677743",3.4,32,"[""cafe"", ""establishment"", ""food"", ""point_of_interest"", ""store""]",1.3799653,103.7643089,True
Bukit Panjang,Jelebu,food,coffee shop,"coffee shop in Jelebu, Bukit Panjang, Singapore",ChIJUZgbZKEV2jERAIK95u2eDUs,Buddy-San,"5 Woodlands Road, The Tennery. #08-19, Tower C, Singapore 677903",5.0,20,"[""cafe"", ""establishment"", ""food"", ""point_of_interest""]",1.3803767,103.7602969,True
Bukit Panjang,Jelebu,food,restaurant,"restaurant in Jelebu, Bukit Panjang, Singapore",ChIJsdW5choR2jERtYwZ71Vi2E8,Jinjja Kitchen @ Bukit Panjang Plaza,"1 Jelebu Rd, #02-10, Singapore 677743",4.8,235,"[""establishment"", ""food"", ""point_of_interest"", ""restaurant""]",1.3799653,103.7643089,True
Bukit Panjang,Jelebu,food,restaurant,"restaurant in Jelebu, Bukit Panjang, Singapore",ChIJo5fFNAAR2jERP7mP-ShZHTY,Super Sushi @ Bukit Panjang Plaza,"1 Jelebu Rd, Singapore 677743",4.9,235,"[""establishment"", ""food"", ""point_of_interest"", ""restaurant""]",1.3799653,103.7643089,True
Bukit Panjang,Jelebu,shopping,shopping mall,"shopping mall in Jelebu, Bukit Panjang, Singapore",ChIJe3kTN6MR2jERr5FbmFCuxPI,Bukit Panjang Plaza,"1 Jelebu Rd, Singapore 677743",4.2,5897,"[""establishment"", ""point_of_interest"", ""shopping_mall""]",1.3800396,103.7642339,True
Bukit Panjang,Jelebu,shopping,shopping mall,"shopping mall in Jelebu, Bukit Panjang, Singapore",ChIJ_8HAraQR2jERaLrfjzD5k7Y,Hillion Mall,"17 Petir Rd, #01-07, Singapore 678278",4.2,8930,"[""establishment"", ""point_of_interest"", ""shopping_mall""]",1.3785171,103.7632971,True
Bukit Panjang,Jelebu,shopping,supermarket,"supermarket in Jelebu, Bukit Panjang, Singapore",ChIJUXhrN6MR2jER7xtwryUocpY,FairPrice Finest,"1 Jelebu Rd, #01-15 & #02-20 Bukit Panjang Plaza, Singapore 677743",4.3,1180,"[""establishment"", ""food"", ""grocery_or_supermarket"", ""point_of_interest"", ""store"", ""supermarket""]",1.3800079,103.7642894,True
Bukit Panjang,Jelebu,shopping,supermarket,"supermarket in Jelebu, Bukit Panjang, Singapore",ChIJ_xnxVaMR2jERK7dnPmCBqqc,FairPrice Hillion Mall,"17 Petir Rd, #B2-67, Singapore 678278",4.2,1391,"[""establishment"", ""food"", ""grocery_or_supermarket"", ""point_of_interest"", ""store"", ""supermarket""]",1.378531,103.7632107,True
Bukit Panjang,Jelebu,shopping,convenience store,"convenience store in Jelebu, Bukit Panjang, Singapore",ChIJ08z-ThQR2jERSoTcHrvMOFM,Convenience Plus,"Singapore, Bangkit Rd, #01-41",1.8,13,"[""convenience_store"", ""establishment"", ""food"", ""point_of_interest"", ""store""]",1.3779482,103.7733395,True
Bukit Panjang,Jelebu,shopping,wet market,"wet market in Jelebu, Bukit Panjang, Singapore",ChIJkXRszaAR2jEROQL4rhmhElg,Bangkit Market,"257 Bangkit Rd, Singapore 670257",4.2,1152,"[""establishment"", ""point_of_interest""]",1.3778953,103.7732915,True
Bukit Panjang,Jelebu,shopping,wet market,"wet market in Jelebu, Bukit Panjang, Singapore",ChIJ2-fuRZ8R2jERo1jNY3fv4iw,Fajar Market,"445 Fajar Rd, Singapore 670445",4.0,83,"[""establishment"", ""point_of_interest""]",1.3841814,103.7710986,True
Bukit Panjang,Jelebu,recreation,gym,"gym in Jelebu, Bukit Panjang, Singapore",ChIJOVKixaIR2jERRlP-Omkol_M,Anytime Fitness Bukit Panjang,"8 Pending Rd, #03-01, Singapore 678295",4.4,212,"[""establishment"", ""gym"", ""health"", ""point_of_interest""]",1.3763082,103.7707994,True
Bukit Panjang,Jelebu,recreation,gym,"gym in Jelebu, Bukit Panjang, Singapore",ChIJT4ngSQAR2jERYEldwDSeuw0,BFT Bangkit,"20a Segar Rd, Singapore 679350",4.6,9,"[""establishment"", ""gym"", ""health"", ""point_of_interest""]",1.3899886,103.7717241,True
Bukit Panjang,Jelebu,recreation,sports centre,"sports centre in Jelebu, Bukit Panjang, Singapore",ChIJgx4YWagR2jERCasQYF6YSKI,ARK Sports Village,"20A Segar Rd, ARK SPORTS VILLAGE, Singapore 679350",4.7,40,"[""establishment"", ""point_of_interest""]",1.3900865,103.7717033,True
Bukit Panjang,Jelebu,recreation,sports centre,"sports centre in Jelebu, Bukit Panjang, Singapore",ChIJJWt786YR2jERcIgIkdUxv_0,Bukit Panjang Community Club,"8 Pending Rd, Singapore 678295",4.1,957,"[""establishment"", ""point_of_interest""]",1.376001,103.770687,True
Bukit Panjang,Jelebu,recreation,swimming complex,"swimming complex in Jelebu, Bukit Panjang, Singapore",ChIJ03G_xKIR2jERuE_Fzg7W0XE,Senja Cashew Swimming Complex (The Swimming Place),"101 Bukit Panjang Rd, Singapore 679910",4.1,237,"[""establishment"", ""health"", ""point_of_interest"", ""school""]",1.3821209,103.7645736,True
Bukit Panjang,Jelebu,recreation,swimming complex,"swimming complex in Jelebu, Bukit Panjang, Singapore",ChIJs45bbr0R2jERwByR91EdWqw,Senja-Cashew Community Club,"101 Bukit Panjang Rd, Singapore 679910",4.3,1262,"[""establishment"", ""point_of_interest""]",1.381403,103.764651,True
Bukit Panjang,Jelebu,recreation,cinema,"cinema in Jelebu, Bukit Panjang, Singapore",ChIJi19VjekR2jERWaroR6pc860,Shaw Theatres,"21 Choa Chu Kang Ave 4, Singapore 689812",4.1,906,"[""establishment"", ""movie_theater"", ""point_of_interest""]",1.3850351,103.7451224,True
Bukit Panjang,Jelebu,recreation,cinema,"cinema in Jelebu, Bukit Panjang, Singapore",ChIJgYTJddwR2jER8MdGymd5AOA,CozyPlace @ Bukit Timah,"170 Upper Bukit Timah Rd, #12-01 Shopping Centre, Singapore 588179",4.9,485,"[""establishment"", ""movie_theater"", ""point_of_interest""]",1.3431115,103.7760782,True
Bukit Panjang,Jelebu,recreation,playground,"playground in Jelebu, Bukit Panjang, Singapore",ChIJzXrO_GgR2jERXBZ4BfZD4Fo,Senja Woods Playground,"Senja Cl, Singapore",4.8,12,"[""establishment"", ""point_of_interest""]",1.3888007,103.7616474,True
Bukit Panjang,Jelebu,recreation,playground,"playground in Jelebu, Bukit Panjang, Singapore",ChIJYYGkfwoR2jERA18hEAHSmUk,Zhenghua Park Children's Playground,"276 Bangkit Rd, Singapore 670276",4.3,21,"[""establishment"", ""point_of_interest""]",1.3806711,103.7754029,True
Bukit Panjang,Jelebu,nature,park,"park in Jelebu, Bukit Panjang, Singapore",ChIJW0wCIAcR2jERAEOR0GhMljA,Zhenghua Park,"273 Bangkit Rd, Singapore 670276",4.3,566,"[""establishment"", ""park"", ""point_of_interest"", ""tourist_attraction""]",1.3771337,103.7763826,True
Bukit Panjang,Jelebu,nature,park,"park in Jelebu, Bukit Panjang, Singapore",ChIJ-f__r6oR2jER5UiO6z8HpQM,Dairy Farm Nature Park,"100 Dairy Farm Rd, Singapore 679057",4.5,1247,"[""establishment"", ""park"", ""point_of_interest"", ""tourist_attraction""]",1.3640182,103.7763968,True
Bukit Panjang,Jelebu,nature,nature reserve,"nature reserve in Jelebu, Bukit Panjang, Singapore",ChIJR9wDuIwQ2jERp5g9l0m9MQ0,Rifle Range Nature Park,"Rifle Range Rd, Singapore 589322",4.7,1045,"[""establishment"", ""park"", ""point_of_interest"", ""tourist_attraction""]",1.3434752,103.7794063,True
Bukit Panjang,Jelebu,nature,nature reserve,"nature reserve in Jelebu, Bukit Panjang, Singapore",ChIJO9cemPUQ2jERvlh8KtwhtAc,Bukit Timah Nature Reserve,"Hindhede Dr, Singapore 589318",4.6,8413,"[""establishment"", ""park"", ""point_of_interest"", ""tourist_attraction""]",1.3483883,103.776701,True
Bukit Panjang,Jelebu,nature,garden,"garden in Jelebu, Bukit Panjang, Singapore",ChIJFRoWIwgR2jER2v5DQcoF4pE,Bukit Panjang Butterfly Garden,"213 Petir Rd, Singapore 670213",3.5,29,"[""establishment"", ""park"", ""point_of_interest""]",1.3751813,103.7758946,True
Bukit Panjang,Jelebu,nature,beach,"beach in Jelebu, Bukit Panjang, Singapore",ChIJQ8uk4vwa2jERqMrT6OFBMuw,West Coast Park,"W Coast Ferry Rd, Singapore 126978",4.4,7048,"[""establishment"", ""park"", ""point_of_interest"", ""tourist_attraction""]",1.2913603,103.7666534,True
Bukit Panjang,Jelebu,nature,beach,"beach in Jelebu, Bukit Panjang, Singapore",ChIJpRlNluQa2jERt1AMrgNfuhM,Promenade Lookout Jetty,Singapore,4.3,130,"[""establishment"", ""point_of_interest""]",1.2967871,103.7606201,True
Bukit Panjang,Jelebu,nature,waterfront,"waterfront in Jelebu, Bukit Panjang, Singapore",ChIJ96HBJZ8a2jERl1GsjJmk-70,Waterfront @ Faber,"48 Faber Walk, Singapore 128993",4.4,120,"[""establishment"", ""point_of_interest""]",1.3232117,103.754716,True
Bukit Panjang,Jelebu,nature,waterfront,"waterfront in Jelebu, Bukit Panjang, Singapore",ChIJaaC07KIR2jERl3-DgSWf4aE,Pang Sua Pond,"101 Bukit Panjang Ring Road, Saujana Rd, Singapore 679910",4.5,901,"[""establishment"", ""park"", ""point_of_interest"", ""tourist_attraction""]",1.3819061,103.7655122,True
Bukit Panjang,Jelebu,nature,park connector,"park connector in Jelebu, Bukit Panjang, Singapore",ChIJZ2n78R0R2jERv4IZBDswYrc,Bukit Panjang Park Connector,"501 Jelapang Rd, Singapore 670501",4.7,3,"[""establishment"", ""point_of_interest""]",1.3835404,103.767104,True
Bukit Panjang,Jelebu,nature,park connector,"park connector in Jelebu, Bukit Panjang, Singapore",ChIJ__8_JqUb2jERpXwPzz-poks,Pasir Panjang Park,"121 Pasir Panjang Rd, Singapore 118543",3.9,16,"[""establishment"", ""park"", ""point_of_interest""]",1.2777905,103.7861067,True
Bukit Panjang,Nature Reserve,education,kindergarten,"kindergarten in Nature Reserve, Bukit Panjang, Singapore",ChIJ45x4iIgR2jERQfg5yAOn1ZU,Little Seeds Preschool (TSA - Bukit Panjang),"402 Fajar Rd, #01-217, Singapore 670402",4.9,38,"[""establishment"", ""point_of_interest"", ""school""]",1.3803488,103.7680693,True
Bukit Panjang,Nature Reserve,education,kindergarten,"kindergarten in Nature Reserve, Bukit Panjang, Singapore",ChIJ65PzLjER2jERCvxBPn1Hom8,Willow Nursery and Preschool,"17 Dairy Farm Rd, Singapore 679043",5.0,11,"[""establishment"", ""point_of_interest"", ""school""]",1.3653094,103.769605,True
Bukit Panjang,Nature Reserve,education,childcare centre,"childcare centre in Nature Reserve, Bukit Panjang, Singapore",ChIJPYvMLtER2jERBwgbdFjT2eg,Infant care,"#02-02/02-03 Cashew Park, Singapore 679637",5.0,23,"[""establishment"", ""point_of_interest"", ""school""]",1.370652,103.767527,True
Bukit Panjang,Nature Reserve,education,childcare centre,"childcare centre in Nature Reserve, Bukit Panjang, Singapore",ChIJ9_lHc6kR2jER926-6xNYLmE,Ace @ Work Childcare (BPCC),"8 Pending Rd, #03-03/04/05 Community Club, Singapore 678295",5.0,2,"[""establishment"", ""point_of_interest""]",1.3764795,103.770547,True
Bukit Panjang,Nature Reserve,education,primary school,"primary school in Nature Reserve, Bukit Panjang, Singapore",ChIJV-m4CCQR2jEROYVc5UE50gI,Forest School Singapore,"2 Dairy Farm Rd, Singapore 679034",5.0,6,"[""establishment"", ""point_of_interest""]",1.3633526,103.7683102,True
Bukit Panjang,Nature Reserve,education,primary school,"primary school in Nature Reserve, Bukit Panjang, Singapore",ChIJLYS9rqgR2jERu6jj_I969Gw,Bukit Panjang Primary School,"109 Cashew Rd, Singapore 679676",,0,"[""establishment"", ""point_of_interest"", ""primary_school"", ""school"", ""secondary_school""]",1.3730121,103.7690821,True
Bukit Panjang,Nature Reserve,education,secondary school,"secondary school in Nature Reserve, Bukit Panjang, Singapore",ChIJbUEQbd0R2jERyMl2YGs8yHE,Bukit Panjang Government High School,"7 Choa Chu Kang Ave 4, Singapore 689809",,0,"[""establishment"", ""point_of_interest"", ""school"", ""secondary_school""]",1.3815132,103.7388106,True
Bukit Panjang,Nature Reserve,education,secondary school,"secondary school in Nature Reserve, Bukit Panjang, Singapore",ChIJS4GFPqAR2jERQGJOjeXgYz8,Greenridge Secondary School,"31 Gangsa Rd, Singapore 678972",,0,"[""establishment"", ""point_of_interest"", ""school""]",1.3754112,103.7644315,True
Bukit Panjang,Nature Reserve,education,junior college,"junior college in Nature Reserve, Bukit Panjang, Singapore",ChIJz_-CGpUR2jERsxAVVh_vnoY,Jurong Pioneer Junior College,"21 Teck Whye Walk, Singapore 688258",3.8,86,"[""establishment"", ""point_of_interest"", ""university""]",1.3847446,103.753857,True
Bukit Panjang,Nature Reserve,education,junior college,"junior college in Nature Reserve, Bukit Panjang, Singapore",ChIJ61lTU6EQ2jERiBDECMxHYFY,National Junior College,"37 Hillcrest Rd, Singapore 288913",4.4,182,"[""establishment"", ""point_of_interest"", ""school"", ""university""]",1.330476,103.8045,True
Bukit Panjang,Nature Reserve,education,polytechnic,"polytechnic in Nature Reserve, Bukit Panjang, Singapore",ChIJWeO0jn0Q2jERQwzr3v_n0nU,Ngee Ann Polytechnic,"535 Clementi Rd, Singapore 599489",4.3,500,"[""establishment"", ""point_of_interest""]",1.3315798,103.7747134,True
Bukit Panjang,Nature Reserve,education,polytechnic,"polytechnic in Nature Reserve, Bukit Panjang, Singapore",ChIJFXzxL2Aa2jERnoWTOdJdVKk,Singapore Polytechnic,"500 Dover Rd, Singapore 139651",4.3,647,"[""establishment"", ""point_of_interest""]",1.3097757,103.7775495,True
Bukit Panjang,Nature Reserve,education,university,"university in Nature Reserve, Bukit Panjang, Singapore",ChIJO9cemPUQ2jERvlh8KtwhtAc,Bukit Timah Nature Reserve,"Hindhede Dr, Singapore 589318",4.6,8413,"[""establishment"", ""park"", ""point_of_interest"", ""tourist_attraction""]",1.3483883,103.776701,True
Bukit Panjang,Nature Reserve,education,university,"university in Nature Reserve, Bukit Panjang, Singapore",ChIJR9wDuIwQ2jERp5g9l0m9MQ0,Rifle Range Nature Park,"Rifle Range Rd, Singapore 589322",4.7,1045,"[""establishment"", ""park"", ""point_of_interest"", ""tourist_attraction""]",1.3434752,103.7794063,True
Bukit Panjang,Nature Reserve,education,tuition centre,"tuition centre in Nature Reserve, Bukit Panjang, Singapore",ChIJLa76vsgR2jER1Xa5czDFbEo,"Zenith Education Studio - Bukit Panjang | JC Tuition, Secondary Tuition & Pri | Math, Chem, Econs, Physics, GP, English","1 Woodlands Rd, #01-10 Junction 10, Singapore 677903",5.0,42,"[""establishment"", ""point_of_interest""]",1.3801217,103.7603527,True
Bukit Panjang,Nature Reserve,education,tuition centre,"tuition centre in Nature Reserve, Bukit Panjang, Singapore",ChIJUTJ-x7sR2jERGiwmS5KM0Ow,The Initiative Learning Hub,"171A Gangsa Rd, Block 170 Block 170, Singapore 671171",5.0,10,"[""establishment"", ""point_of_interest""]",1.379002,103.7663645,True
Bukit Panjang,Nature Reserve,education,library,"library in Nature Reserve, Bukit Panjang, Singapore",ChIJAQAASKMR2jER1rsyt_ipOM0,Bukit Panjang Library,"1 Jelebu Road #04-04 & 16/17 Bukit Panjang Plaza, Singapore 677743",4.3,263,"[""establishment"", ""library"", ""point_of_interest""]",1.3799627,103.7643391,True
Bukit Panjang,Nature Reserve,transport,MRT station,"MRT station in Nature Reserve, Bukit Panjang, Singapore",ChIJARt1T4kR2jERTyE-4kybHC4,Bukit Panjang MRT Station (DT1),"950 Upper Bukit Timah Rd, B2-02, Singapore 678213",4.5,895,"[""establishment"", ""point_of_interest""]",1.3790912,103.7617432,True
Bukit Panjang,Nature Reserve,transport,MRT station,"MRT station in Nature Reserve, Bukit Panjang, Singapore",ChIJARTcUrsR2jERUUjcHJScUz8,Bukit Panjang MRT/LRT station,Singapore,3.4,50,"[""establishment"", ""point_of_interest"", ""transit_station""]",1.3783155,103.762459,True
Bukit Panjang,Nature Reserve,transport,bus stop,"bus stop in Nature Reserve, Bukit Panjang, Singapore",ChIJLXDxn7wR2jERI6bdKcYEx2s,Bt Panjang Stn Exit A/LRT,Singapore,4.4,14,"[""establishment"", ""point_of_interest"", ""transit_station""]",1.37863,103.76219,True
Bukit Panjang,Nature Reserve,transport,bus stop,"bus stop in Nature Reserve, Bukit Panjang, Singapore",ChIJeeZcZLsR2jERalREqcR4aUs,Bt Panjang Stn Exit B,Singapore,4.3,4,"[""establishment"", ""point_of_interest"", ""transit_station""]",1.37821,103.76172,True
Bukit Panjang,Nature Reserve,transport,bus interchange,"bus interchange in Nature Reserve, Bukit Panjang, Singapore",ChIJR58QIQAR2jER4V6UweGq9BQ,Bukit Panjang Bus Interchange,"15 Petir Rd, #01-63, Singapore 678270",2.8,16,"[""establishment"", ""point_of_interest""]",1.3784347,103.7627763,True
Bukit Panjang,Nature Reserve,transport,bus interchange,"bus interchange in Nature Reserve, Bukit Panjang, Singapore",ChIJgVMsWLsR2jERmO09ZfrDfUI,Bt Panjang Interchange,Singapore,3.5,37,"[""establishment"", ""point_of_interest"", ""transit_station""]",1.378126,103.76329,True
Bukit Panjang,Nature Reserve,transport,LRT station,"LRT station in Nature Reserve, Bukit Panjang, Singapore",ChIJD58--UkR2jERMi5sKsqSqko,Bukit Panjang LRT Station (BP6),"11 Petir Rd, Singapore 678268",4.4,77,"[""establishment"", ""point_of_interest""]",1.3778954,103.7630388,True
Bukit Panjang,Nature Reserve,food,hawker centre,"hawker centre in Nature Reserve, Bukit Panjang, Singapore",ChIJc0LVIKcR2jERFB8jEvb4t7g,Bukit Panjang Hawker Centre & Market,"2 Bukit Panjang Ring Rd, Singapore 679947",3.9,2933,"[""establishment"", ""food"", ""point_of_interest"", ""restaurant""]",1.3774093,103.7724275,True
Bukit Panjang,Nature Reserve,food,hawker centre,"hawker centre in Nature Reserve, Bukit Panjang, Singapore",ChIJLyVUnQ8R2jERUApgCyTj3Pg,Senja Hawker Centre,"2 Senja Cl, Singapore 677632",4.1,1303,"[""establishment"", ""food"", ""point_of_interest"", ""restaurant""]",1.3870687,103.7607865,True
Bukit Panjang,Nature Reserve,food,coffee shop,"coffee shop in Nature Reserve, Bukit Panjang, Singapore",ChIJoWvrTQAR2jERQ3tFieg_QJ8,Seafood Blue Lagoon,"Dairy Farm Rd, Singapore",4.0,9,"[""cafe"", ""establishment"", ""food"", ""point_of_interest"", ""store""]",1.3658281,103.775109,True
Bukit Panjang,Nature Reserve,food,coffee shop,"coffee shop in Nature Reserve, Bukit Panjang, Singapore",ChIJi1qB8rMR2jERT4w1YCJfXR4,Keffie Slowdown Coffeebar (Homebased 🏠),"537 Bukit Panjang Ring Rd, Singapore 670537",4.9,11,"[""establishment"", ""point_of_interest""]",1.3837772,103.7631191,True
Bukit Panjang,Nature Reserve,food,restaurant,"restaurant in Nature Reserve, Bukit Panjang, Singapore",ChIJsdW5choR2jERtYwZ71Vi2E8,Jinjja Kitchen @ Bukit Panjang Plaza,"1 Jelebu Rd, #02-10, Singapore 677743",4.8,235,"[""establishment"", ""food"", ""point_of_interest"", ""restaurant""]",1.3799653,103.7643089,True
Bukit Panjang,Nature Reserve,food,restaurant,"restaurant in Nature Reserve, Bukit Panjang, Singapore",ChIJA6QMKKgR2jERfRlvLfuGk2o,The ART (Assumption Restaurant for Training),"30 Cashew Rd, Singapore 679697",4.5,198,"[""establishment"", ""food"", ""point_of_interest"", ""restaurant""]",1.3697086,103.7666091,True
Bukit Panjang,Nature Reserve,food,cafe,"cafe in Nature Reserve, Bukit Panjang, Singapore",ChIJyw36fqQR2jERcCOpFI-_nYg,Baker & Cook - Dairy Farm,"4 Dairy Farm Ln, Unit # B1-01/02, Singapore 677622",4.1,240,"[""bakery"", ""cafe"", ""establishment"", ""food"", ""point_of_interest"", ""store""]",1.3664704,103.7751214,True
Bukit Panjang,Nature Reserve,food,cafe,"cafe in Nature Reserve, Bukit Panjang, Singapore",ChIJCaXKGjAR2jERV2b3bf4hj6Q,FlagWhite,"106 Jln Jurong Kechil, Singapore 598604",4.5,1137,"[""cafe"", ""establishment"", ""food"", ""liquor_store"", ""point_of_interest"", ""restaurant"", ""store""]",1.3408725,103.7724378,True
Bukit Panjang,Nature Reserve,shopping,shopping mall,"shopping mall in Nature Reserve, Bukit Panjang, Singapore",ChIJe3kTN6MR2jERr5FbmFCuxPI,Bukit Panjang Plaza,"1 Jelebu Rd, Singapore 677743",4.2,5897,"[""establishment"", ""point_of_interest"", ""shopping_mall""]",1.3800396,103.7642339,True
Bukit Panjang,Nature Reserve,shopping,shopping mall,"shopping mall in Nature Reserve, Bukit Panjang, Singapore",ChIJ_8HAraQR2jERaLrfjzD5k7Y,Hillion Mall,"17 Petir Rd, #01-07, Singapore 678278",4.2,8930,"[""establishment"", ""point_of_interest"", ""shopping_mall""]",1.3785171,103.7632971,True
Bukit Panjang,Nature Reserve,shopping,supermarket,"supermarket in Nature Reserve, Bukit Panjang, Singapore",ChIJUXhrN6MR2jER7xtwryUocpY,FairPrice Finest,"1 Jelebu Rd, #01-15 & #02-20 Bukit Panjang Plaza, Singapore 677743",4.3,1180,"[""establishment"", ""food"", ""grocery_or_supermarket"", ""point_of_interest"", ""store"", ""supermarket""]",1.3800079,103.7642894,True
Bukit Panjang,Nature Reserve,shopping,supermarket,"supermarket in Nature Reserve, Bukit Panjang, Singapore",ChIJ0dkjcwAR2jERiwgHlWg0INA,FairPrice Finest Dairy Farm Residences,"4 Dairy Farm Ln, B1-12 Dairy Farm Mall, Singapore 677622",4.2,28,"[""establishment"", ""food"", ""grocery_or_supermarket"", ""point_of_interest"", ""store""]",1.3654625,103.7749791,True
Bukit Panjang,Nature Reserve,shopping,convenience store,"convenience store in Nature Reserve, Bukit Panjang, Singapore",ChIJ08z-ThQR2jERSoTcHrvMOFM,Convenience Plus,"Singapore, Bangkit Rd, #01-41",1.8,13,"[""convenience_store"", ""establishment"", ""food"", ""point_of_interest"", ""store""]",1.3779482,103.7733395,True
Bukit Panjang,Nature Reserve,shopping,convenience store,"convenience store in Nature Reserve, Bukit Panjang, Singapore",ChIJ_bA3iE0R2jERd4D-Ggvezxw,7-Eleven,"17 Petir Rd, B1-23, Singapore 678278",3.3,20,"[""convenience_store"", ""establishment"", ""food"", ""grocery_or_supermarket"", ""point_of_interest"", ""store""]",1.3784298,103.763132,True
Bukit Panjang,Nature Reserve,shopping,wet market,"wet market in Nature Reserve, Bukit Panjang, Singapore",ChIJ2-fuRZ8R2jERo1jNY3fv4iw,Fajar Market,"445 Fajar Rd, Singapore 670445",4.0,83,"[""establishment"", ""point_of_interest""]",1.3841814,103.7710986,True
Bukit Panjang,Nature Reserve,shopping,wet market,"wet market in Nature Reserve, Bukit Panjang, Singapore",ChIJkXRszaAR2jEROQL4rhmhElg,Bangkit Market,"257 Bangkit Rd, Singapore 670257",4.2,1152,"[""establishment"", ""point_of_interest""]",1.3778953,103.7732915,True
Bukit Panjang,Nature Reserve,recreation,gym,"gym in Nature Reserve, Bukit Panjang, Singapore",ChIJT4ngSQAR2jERYEldwDSeuw0,BFT Bangkit,"20a Segar Rd, Singapore 679350",4.6,9,"[""establishment"", ""gym"", ""health"", ""point_of_interest""]",1.3899886,103.7717241,True
Bukit Panjang,Nature Reserve,recreation,gym,"gym in Nature Reserve, Bukit Panjang, Singapore",ChIJOVKixaIR2jERRlP-Omkol_M,Anytime Fitness Bukit Panjang,"8 Pending Rd, #03-01, Singapore 678295",4.4,212,"[""establishment"", ""gym"", ""health"", ""point_of_interest""]",1.3763082,103.7707994,True
Bukit Panjang,Nature Reserve,recreation,sports centre,"sports centre in Nature Reserve, Bukit Panjang, Singapore",ChIJgx4YWagR2jERCasQYF6YSKI,ARK Sports Village,"20A Segar Rd, ARK SPORTS VILLAGE, Singapore 679350",4.7,40,"[""establishment"", ""point_of_interest""]",1.3900865,103.7717033,True
Bukit Panjang,Nature Reserve,recreation,sports centre,"sports centre in Nature Reserve, Bukit Panjang, Singapore",ChIJJWt786YR2jERcIgIkdUxv_0,Bukit Panjang Community Club,"8 Pending Rd, Singapore 678295",4.1,957,"[""establishment"", ""point_of_interest""]",1.376001,103.770687,True
Bukit Panjang,Nature Reserve,recreation,swimming complex,"swimming complex in Nature Reserve, Bukit Panjang, Singapore",ChIJ03G_xKIR2jERuE_Fzg7W0XE,Senja Cashew Swimming Complex (The Swimming Place),"101 Bukit Panjang Rd, Singapore 679910",4.1,237,"[""establishment"", ""health"", ""point_of_interest"", ""school""]",1.3821209,103.7645736,True
Bukit Panjang,Nature Reserve,recreation,swimming complex,"swimming complex in Nature Reserve, Bukit Panjang, Singapore",ChIJs45bbr0R2jERwByR91EdWqw,Senja-Cashew Community Club,"101 Bukit Panjang Rd, Singapore 679910",4.3,1262,"[""establishment"", ""point_of_interest""]",1.381403,103.764651,True
Bukit Panjang,Nature Reserve,recreation,cinema,"cinema in Nature Reserve, Bukit Panjang, Singapore",ChIJ3dSCfKMR2jERsBpC6UoFuaQ,EagleWings Cinematics,"9 King Albert Prk, #01-58, Singapore 598332",4.4,503,"[""establishment"", ""movie_theater"", ""point_of_interest""]",1.3369213,103.7790282,True
Bukit Panjang,Nature Reserve,recreation,cinema,"cinema in Nature Reserve, Bukit Panjang, Singapore",ChIJgYTJddwR2jER8MdGymd5AOA,CozyPlace @ Bukit Timah,"170 Upper Bukit Timah Rd, #12-01 Shopping Centre, Singapore 588179",4.9,485,"[""establishment"", ""movie_theater"", ""point_of_interest""]",1.3431115,103.7760782,True
Bukit Panjang,Nature Reserve,recreation,playground,"playground in Nature Reserve, Bukit Panjang, Singapore",ChIJzyXb06oR2jERmRrMCYmdRJg,Bukit Batok Nature Park Playground,Singapore,4.1,19,"[""establishment"", ""point_of_interest""]",1.3494843,103.7637727,True
Bukit Panjang,Nature Reserve,recreation,playground,"playground in Nature Reserve, Bukit Panjang, Singapore",ChIJYYGkfwoR2jERA18hEAHSmUk,Zhenghua Park Children's Playground,"276 Bangkit Rd, Singapore 670276",4.3,21,"[""establishment"", ""point_of_interest""]",1.3806711,103.7754029,True
Bukit Panjang,Nature Reserve,nature,park,"park in Nature Reserve, Bukit Panjang, Singapore",ChIJR9wDuIwQ2jERp5g9l0m9MQ0,Rifle Range Nature Park,"Rifle Range Rd, Singapore 589322",4.7,1045,"[""establishment"", ""park"", ""point_of_interest"", ""tourist_attraction""]",1.3434752,103.7794063,True
Bukit Panjang,Nature Reserve,nature,park,"park in Nature Reserve, Bukit Panjang, Singapore",ChIJ-f__r6oR2jER5UiO6z8HpQM,Dairy Farm Nature Park,"100 Dairy Farm Rd, Singapore 679057",4.5,1247,"[""establishment"", ""park"", ""point_of_interest"", ""tourist_attraction""]",1.3640182,103.7763968,True
Bukit Panjang,Nature Reserve,nature,nature reserve,"nature reserve in Nature Reserve, Bukit Panjang, Singapore",ChIJO9cemPUQ2jERvlh8KtwhtAc,Bukit Timah Nature Reserve,"Hindhede Dr, Singapore 589318",4.6,8413,"[""establishment"", ""park"", ""point_of_interest"", ""tourist_attraction""]",1.3483883,103.776701,True
Bukit Panjang,Nature Reserve,nature,waterfront,"waterfront in Nature Reserve, Bukit Panjang, Singapore",ChIJq_5RjPUQ2jERQZR7bzih7tw,Hindhede Nature Park,"Hindhede Dr, Singapore",4.5,970,"[""establishment"", ""park"", ""point_of_interest"", ""tourist_attraction""]",1.3491093,103.7754308,True
Bukit Panjang,Nature Reserve,nature,park connector,"park connector in Nature Reserve, Bukit Panjang, Singapore",ChIJZ2n78R0R2jERv4IZBDswYrc,Bukit Panjang Park Connector,"501 Jelapang Rd, Singapore 670501",4.7,3,"[""establishment"", ""point_of_interest""]",1.3835404,103.767104,True
Bukit Panjang,Nature Reserve,nature,park connector,"park connector in Nature Reserve, Bukit Panjang, Singapore",ChIJAfY-aQAR2jERJU4PExbtgb0,BUKIT PANJANG NORTH PARK CONNECTOR,"Segar Cl, Singapore",5.0,1,"[""establishment"", ""point_of_interest""]",1.3891486,103.7603213,True
Bukit Panjang,Saujana,education,kindergarten,"kindergarten in Saujana, Bukit Panjang, Singapore",ChIJWfJ6C6IR2jER7Hw1wojSTsg,PCF Sparkletots @ Bukit Panjang Blk 412,"Blk 412 Saujana Rd, #01-66, Singapore 670412",,0,"[""establishment"", ""point_of_interest"", ""school""]",1.3829262,103.7682696,True
Bukit Panjang,Saujana,education,childcare centre,"childcare centre in Saujana, Bukit Panjang, Singapore",ChIJlR6jX3IR2jER-7jRuKomnS0,Little Footprints Preschool @ Bukit Panjang 546,"546A Segar Road, Segar Vale, #01-67, Singapore 671546",5.0,30,"[""establishment"", ""point_of_interest"", ""school""]",1.3886142,103.7703292,True
Bukit Panjang,Saujana,education,childcare centre,"childcare centre in Saujana, Bukit Panjang, Singapore",ChIJ-60Lw7wR2jERMP6t40C50YA,Raffles Kidz @ Bukit Panjang – Best Childcare Centre And Preschool,"9 Galistan Ave, Singapore 669682",4.7,77,"[""establishment"", ""point_of_interest""]",1.3783452,103.7596499,True
Bukit Panjang,Saujana,education,primary school,"primary school in Saujana, Bukit Panjang, Singapore",ChIJLYS9rqgR2jERu6jj_I969Gw,Bukit Panjang Primary School,"109 Cashew Rd, Singapore 679676",,0,"[""establishment"", ""point_of_interest"", ""primary_school"", ""school"", ""secondary_school""]",1.3730121,103.7690821,True
Bukit Panjang,Saujana,education,primary school,"primary school in Saujana, Bukit Panjang, Singapore",ChIJ52ZRhr0R2jERzrJbrhEZw8U,West View Primary School,"31 Senja Rd, Singapore 677742",,0,"[""establishment"", ""point_of_interest"", ""primary_school"", ""school""]",1.3837275,103.7601419,True
Bukit Panjang,Saujana,education,secondary school,"secondary school in Saujana, Bukit Panjang, Singapore",ChIJZS8GNJER2jERSd-ue7liC-Q,West Spring Secondary School,"61 Senja Rd, Singapore 677737",,0,"[""establishment"", ""point_of_interest"", ""school"", ""secondary_school""]",1.3877121,103.7600409,True
Bukit Panjang,Saujana,education,secondary school,"secondary school in Saujana, Bukit Panjang, Singapore",ChIJS4GFPqAR2jERQGJOjeXgYz8,Greenridge Secondary School,"31 Gangsa Rd, Singapore 678972",,0,"[""establishment"", ""point_of_interest"", ""school""]",1.3754112,103.7644315,True
Bukit Panjang,Saujana,education,junior college,"junior college in Saujana, Bukit Panjang, Singapore",ChIJz_-CGpUR2jERsxAVVh_vnoY,Jurong Pioneer Junior College,"21 Teck Whye Walk, Singapore 688258",3.8,86,"[""establishment"", ""point_of_interest"", ""university""]",1.3847446,103.753857,True
Bukit Panjang,Saujana,education,junior college,"junior college in Saujana, Bukit Panjang, Singapore",ChIJ61lTU6EQ2jERiBDECMxHYFY,National Junior College,"37 Hillcrest Rd, Singapore 288913",4.4,182,"[""establishment"", ""point_of_interest"", ""school"", ""university""]",1.330476,103.8045,True
Bukit Panjang,Saujana,education,polytechnic,"polytechnic in Saujana, Bukit Panjang, Singapore",ChIJWeO0jn0Q2jERQwzr3v_n0nU,Ngee Ann Polytechnic,"535 Clementi Rd, Singapore 599489",4.3,500,"[""establishment"", ""point_of_interest""]",1.3315798,103.7747134,True
Bukit Panjang,Saujana,education,polytechnic,"polytechnic in Saujana, Bukit Panjang, Singapore",ChIJzYwU2PoR2jERoCNtSpIlsQU,Bukit Panjang Polyclinic,"50 Woodlands Rd, #03-02, Singapore 677726",3.2,195,"[""establishment"", ""health"", ""hospital"", ""point_of_interest""]",1.3828301,103.7603609,True
Bukit Panjang,Saujana,education,university,"university in Saujana, Bukit Panjang, Singapore",ChIJvQQziYAQ2jERCOP-JKA4N9k,Singapore University of Social Sciences,"463 Clementi Rd, Singapore 599494",3.8,235,"[""establishment"", ""point_of_interest"", ""university""]",1.3286895,103.7759499,True
Bukit Panjang,Saujana,education,tuition centre,"tuition centre in Saujana, Bukit Panjang, Singapore",ChIJZS3SpWAR2jER6yf3ZmS0DuY,Stepping Stones Learning Centre (Bukit Panjang),"Blk 258 Bukit Panjang Ring Rd, #01-52, Singapore 670258",4.8,85,"[""establishment"", ""point_of_interest"", ""school""]",1.3780272,103.7731523,True
Bukit Panjang,Saujana,education,tuition centre,"tuition centre in Saujana, Bukit Panjang, Singapore",ChIJLa76vsgR2jER1Xa5czDFbEo,"Zenith Education Studio - Bukit Panjang | JC Tuition, Secondary Tuition & Pri | Math, Chem, Econs, Physics, GP, English","1 Woodlands Rd, #01-10 Junction 10, Singapore 677903",5.0,42,"[""establishment"", ""point_of_interest""]",1.3801217,103.7603527,True
Bukit Panjang,Saujana,education,library,"library in Saujana, Bukit Panjang, Singapore",ChIJAQAASKMR2jER1rsyt_ipOM0,Bukit Panjang Library,"1 Jelebu Road #04-04 & 16/17 Bukit Panjang Plaza, Singapore 677743",4.3,263,"[""establishment"", ""library"", ""point_of_interest""]",1.3799627,103.7643391,True
Bukit Panjang,Saujana,education,library,"library in Saujana, Bukit Panjang, Singapore",ChIJxzbY1z4Q2jERJ6mezML68e8,Bukit Batok Library,"1 Bt Batok Central, #03-01 West Mall, Singapore 658713",4.2,278,"[""establishment"", ""library"", ""point_of_interest""]",1.3500111,103.7492852,True
Bukit Panjang,Saujana,transport,MRT station,"MRT station in Saujana, Bukit Panjang, Singapore",ChIJARt1T4kR2jERTyE-4kybHC4,Bukit Panjang MRT Station (DT1),"950 Upper Bukit Timah Rd, B2-02, Singapore 678213",4.5,895,"[""establishment"", ""point_of_interest""]",1.3790912,103.7617432,True
Bukit Panjang,Saujana,transport,MRT station,"MRT station in Saujana, Bukit Panjang, Singapore",ChIJARTcUrsR2jERUUjcHJScUz8,Bukit Panjang MRT/LRT station,Singapore,3.4,50,"[""establishment"", ""point_of_interest"", ""transit_station""]",1.3783155,103.762459,True
Bukit Panjang,Saujana,transport,bus stop,"bus stop in Saujana, Bukit Panjang, Singapore",ChIJLXDxn7wR2jERI6bdKcYEx2s,Bt Panjang Stn Exit A/LRT,Singapore,4.4,14,"[""establishment"", ""point_of_interest"", ""transit_station""]",1.37863,103.76219,True
Bukit Panjang,Saujana,transport,bus stop,"bus stop in Saujana, Bukit Panjang, Singapore",ChIJgVMsWLsR2jERmO09ZfrDfUI,Bt Panjang Interchange,Singapore,3.5,37,"[""establishment"", ""point_of_interest"", ""transit_station""]",1.378126,103.76329,True
Bukit Panjang,Saujana,transport,bus interchange,"bus interchange in Saujana, Bukit Panjang, Singapore",ChIJR58QIQAR2jER4V6UweGq9BQ,Bukit Panjang Bus Interchange,"15 Petir Rd, #01-63, Singapore 678270",2.8,16,"[""establishment"", ""point_of_interest""]",1.3784347,103.7627763,True
Bukit Panjang,Saujana,transport,LRT station,"LRT station in Saujana, Bukit Panjang, Singapore",ChIJD58--UkR2jERMi5sKsqSqko,Bukit Panjang LRT Station (BP6),"11 Petir Rd, Singapore 678268",4.4,77,"[""establishment"", ""point_of_interest""]",1.3778954,103.7630388,True
Bukit Panjang,Saujana,food,hawker centre,"hawker centre in Saujana, Bukit Panjang, Singapore",ChIJc0LVIKcR2jERFB8jEvb4t7g,Bukit Panjang Hawker Centre & Market,"2 Bukit Panjang Ring Rd, Singapore 679947",3.9,2933,"[""establishment"", ""food"", ""point_of_interest"", ""restaurant""]",1.3774093,103.7724275,True
Bukit Panjang,Saujana,food,hawker centre,"hawker centre in Saujana, Bukit Panjang, Singapore",ChIJLyVUnQ8R2jERUApgCyTj3Pg,Senja Hawker Centre,"2 Senja Cl, Singapore 677632",4.1,1303,"[""establishment"", ""food"", ""point_of_interest"", ""restaurant""]",1.3870687,103.7607865,True
Bukit Panjang,Saujana,food,food court,"food court in Saujana, Bukit Panjang, Singapore",ChIJyUme9TQR2jER1H5Rycs68oo,Hawkers' Street @ BPP,"1 Jelebu Rd, #03-08, Plaza 677743",4.7,2486,"[""establishment"", ""food"", ""point_of_interest""]",1.3805265,103.7642075,True
Bukit Panjang,Saujana,food,coffee shop,"coffee shop in Saujana, Bukit Panjang, Singapore",ChIJoxvVHXER2jERatXpyzIyBi0,"Coffeeshop (Kimly Seafood) at Blk 163A Gangsa Road, Bukit Panjang","163A Gangsa Rd, Singapore 671163",2.5,46,"[""cafe"", ""establishment"", ""food"", ""point_of_interest"", ""store""]",1.3769066,103.764434,True
Bukit Panjang,Saujana,food,coffee shop,"coffee shop in Saujana, Bukit Panjang, Singapore",ChIJa-2L8qMR2jERoh8-RRcoGqs,Coffeeshop Food Court 103 Gangsa,"103 Gangsa Rd, Singapore 670102",3.7,83,"[""cafe"", ""establishment"", ""food"", ""point_of_interest"", ""store""]",1.3788029,103.7685851,True
Bukit Panjang,Saujana,food,restaurant,"restaurant in Saujana, Bukit Panjang, Singapore",ChIJsdW5choR2jERtYwZ71Vi2E8,Jinjja Kitchen @ Bukit Panjang Plaza,"1 Jelebu Rd, #02-10, Singapore 677743",4.8,235,"[""establishment"", ""food"", ""point_of_interest"", ""restaurant""]",1.3799653,103.7643089,True
Bukit Panjang,Saujana,food,restaurant,"restaurant in Saujana, Bukit Panjang, Singapore",ChIJ1yl3DkYR2jER0EUpkr2Eo28,A Hot Hideout @ Bukit Panjang (Junction 10),"1 Woodlands Rd, #01-34/35 Junction 10, Singapore 677899",4.8,3029,"[""establishment"", ""food"", ""point_of_interest"", ""restaurant""]",1.3803952,103.759958,True
Bukit Panjang,Saujana,food,cafe,"cafe in Saujana, Bukit Panjang, Singapore",ChIJyw36fqQR2jERcCOpFI-_nYg,Baker & Cook - Dairy Farm,"4 Dairy Farm Ln, Unit # B1-01/02, Singapore 677622",4.1,240,"[""bakery"", ""cafe"", ""establishment"", ""food"", ""point_of_interest"", ""store""]",1.3664704,103.7751214,True
Bukit Panjang,Saujana,food,cafe,"cafe in Saujana, Bukit Panjang, Singapore",ChIJ873LtKgb2jERj6XcmvT6Ki4,Italian Coffee Lab Pasir Panjang,"100 Pasir Panjang Rd, #03-07, Singapore 118518",4.7,277,"[""cafe"", ""establishment"", ""food"", ""point_of_interest"", ""store""]",1.2752251,103.7958857,True
Bukit Panjang,Saujana,shopping,shopping mall,"shopping mall in Saujana, Bukit Panjang, Singapore",ChIJe3kTN6MR2jERr5FbmFCuxPI,Bukit Panjang Plaza,"1 Jelebu Rd, Singapore 677743",4.2,5897,"[""establishment"", ""point_of_interest"", ""shopping_mall""]",1.3800396,103.7642339,True
Bukit Panjang,Saujana,shopping,shopping mall,"shopping mall in Saujana, Bukit Panjang, Singapore",ChIJ_8HAraQR2jERaLrfjzD5k7Y,Hillion Mall,"17 Petir Rd, #01-07, Singapore 678278",4.2,8930,"[""establishment"", ""point_of_interest"", ""shopping_mall""]",1.3785171,103.7632971,True
Bukit Panjang,Saujana,shopping,supermarket,"supermarket in Saujana, Bukit Panjang, Singapore",ChIJUXhrN6MR2jER7xtwryUocpY,FairPrice Finest,"1 Jelebu Rd, #01-15 & #02-20 Bukit Panjang Plaza, Singapore 677743",4.3,1180,"[""establishment"", ""food"", ""grocery_or_supermarket"", ""point_of_interest"", ""store"", ""supermarket""]",1.3800079,103.7642894,True
Bukit Panjang,Saujana,shopping,supermarket,"supermarket in Saujana, Bukit Panjang, Singapore",ChIJBx90AZwR2jERPk8B5rAO2nU,Sheng Siong Supermarket,"547 Segar Rd, #01-06, Singapore 670547",4.2,637,"[""establishment"", ""food"", ""grocery_or_supermarket"", ""point_of_interest"", ""store"", ""supermarket""]",1.3880201,103.7698141,True
Bukit Panjang,Saujana,shopping,convenience store,"convenience store in Saujana, Bukit Panjang, Singapore",ChIJrVzybQAb2jERZBI5RVlxv_M,GOOD PRICE HUB,"801 W Coast Cres, #01-06 West Coast Parkview, Singapore 121801",3.1,9,"[""convenience_store"", ""establishment"", ""food"", ""point_of_interest"", ""store""]",1.2996756,103.7638045,True
Bukit Panjang,Saujana,shopping,convenience store,"convenience store in Saujana, Bukit Panjang, Singapore",ChIJsX1vLgAb2jER0PgFhz-HHqQ,Value $,"505 W Coast Dr, #01-220, Singapore 120505",5.0,1,"[""convenience_store"", ""establishment"", ""food"", ""point_of_interest"", ""store""]",1.3119394,103.7600766,True
Bukit Panjang,Saujana,shopping,wet market,"wet market in Saujana, Bukit Panjang, Singapore",ChIJ2-fuRZ8R2jERo1jNY3fv4iw,Fajar Market,"445 Fajar Rd, Singapore 670445",4.0,83,"[""establishment"", ""point_of_interest""]",1.3841814,103.7710986,True
Bukit Panjang,Saujana,shopping,wet market,"wet market in Saujana, Bukit Panjang, Singapore",ChIJkXRszaAR2jEROQL4rhmhElg,Bangkit Market,"257 Bangkit Rd, Singapore 670257",4.2,1152,"[""establishment"", ""point_of_interest""]",1.3778953,103.7732915,True
Bukit Panjang,Saujana,recreation,gym,"gym in Saujana, Bukit Panjang, Singapore",ChIJT4ngSQAR2jERYEldwDSeuw0,BFT Bangkit,"20a Segar Rd, Singapore 679350",4.6,9,"[""establishment"", ""gym"", ""health"", ""point_of_interest""]",1.3899886,103.7717241,True
Bukit Panjang,Saujana,recreation,gym,"gym in Saujana, Bukit Panjang, Singapore",ChIJOVKixaIR2jERRlP-Omkol_M,Anytime Fitness Bukit Panjang,"8 Pending Rd, #03-01, Singapore 678295",4.4,212,"[""establishment"", ""gym"", ""health"", ""point_of_interest""]",1.3763082,103.7707994,True
Bukit Panjang,Saujana,recreation,sports centre,"sports centre in Saujana, Bukit Panjang, Singapore",ChIJgx4YWagR2jERCasQYF6YSKI,ARK Sports Village,"20A Segar Rd, ARK SPORTS VILLAGE, Singapore 679350",4.7,40,"[""establishment"", ""point_of_interest""]",1.3900865,103.7717033,True
Bukit Panjang,Saujana,recreation,sports centre,"sports centre in Saujana, Bukit Panjang, Singapore",ChIJ2cCNCFga2jER5JmIg6WzSNk,University Sports Centre,"2 Sports Dr., Singapore 117288",4.5,114,"[""establishment"", ""gym"", ""health"", ""point_of_interest""]",1.2997617,103.7754896,True
Bukit Panjang,Saujana,recreation,swimming complex,"swimming complex in Saujana, Bukit Panjang, Singapore",ChIJ03G_xKIR2jERuE_Fzg7W0XE,Senja Cashew Swimming Complex (The Swimming Place),"101 Bukit Panjang Rd, Singapore 679910",4.1,237,"[""establishment"", ""health"", ""point_of_interest"", ""school""]",1.3821209,103.7645736,True
Bukit Panjang,Saujana,recreation,swimming complex,"swimming complex in Saujana, Bukit Panjang, Singapore",ChIJs45bbr0R2jERwByR91EdWqw,Senja-Cashew Community Club,"101 Bukit Panjang Rd, Singapore 679910",4.3,1262,"[""establishment"", ""point_of_interest""]",1.381403,103.764651,True
Bukit Panjang,Saujana,recreation,cinema,"cinema in Saujana, Bukit Panjang, Singapore",ChIJFx7cQgAR2jERum7NN5FvIOk,Shaw Theatres JEM,"50 Jurong Gateway Rd, #05 04, Singapore 608549",4.0,84,"[""establishment"", ""movie_theater"", ""point_of_interest""]",1.33312,103.7432173,True
Bukit Panjang,Saujana,recreation,cinema,"cinema in Saujana, Bukit Panjang, Singapore",ChIJi19VjekR2jERWaroR6pc860,Shaw Theatres,"21 Choa Chu Kang Ave 4, Singapore 689812",4.1,906,"[""establishment"", ""movie_theater"", ""point_of_interest""]",1.3850351,103.7451224,True
Bukit Panjang,Saujana,recreation,community club,"community club in Saujana, Bukit Panjang, Singapore",ChIJJWt786YR2jERcIgIkdUxv_0,Bukit Panjang Community Club,"8 Pending Rd, Singapore 678295",4.1,957,"[""establishment"", ""point_of_interest""]",1.376001,103.770687,True
Bukit Panjang,Saujana,recreation,playground,"playground in Saujana, Bukit Panjang, Singapore",ChIJzXrO_GgR2jERXBZ4BfZD4Fo,Senja Woods Playground,"Senja Cl, Singapore",4.8,12,"[""establishment"", ""point_of_interest""]",1.3888007,103.7616474,True
Bukit Panjang,Saujana,recreation,playground,"playground in Saujana, Bukit Panjang, Singapore",ChIJRc_-U6IR2jERmga-wRi1PPE,Bukit Panjang Neighborhood 5 Park,"Saujana Rd, Singapore",4.5,166,"[""establishment"", ""park"", ""point_of_interest"", ""tourist_attraction""]",1.3837469,103.7648533,True
Bukit Panjang,Saujana,nature,park,"park in Saujana, Bukit Panjang, Singapore",ChIJRc_-U6IR2jERmga-wRi1PPE,Bukit Panjang Neighborhood 5 Park,"Saujana Rd, Singapore",4.5,166,"[""establishment"", ""park"", ""point_of_interest"", ""tourist_attraction""]",1.3837469,103.7648533,True
Bukit Panjang,Saujana,nature,park,"park in Saujana, Bukit Panjang, Singapore",ChIJW0wCIAcR2jERAEOR0GhMljA,Zhenghua Park,"273 Bangkit Rd, Singapore 670276",4.3,566,"[""establishment"", ""park"", ""point_of_interest"", ""tourist_attraction""]",1.3771337,103.7763826,True
Bukit Panjang,Saujana,nature,nature reserve,"nature reserve in Saujana, Bukit Panjang, Singapore",ChIJR9wDuIwQ2jERp5g9l0m9MQ0,Rifle Range Nature Park,"Rifle Range Rd, Singapore 589322",4.7,1045,"[""establishment"", ""park"", ""point_of_interest"", ""tourist_attraction""]",1.3434752,103.7794063,True
Bukit Panjang,Saujana,nature,nature reserve,"nature reserve in Saujana, Bukit Panjang, Singapore",ChIJs3oprUQQ2jERp8A9mbkPZJE,Bukit Batok Nature Park,"Cnr Bukit Batok East Avenue 2, Bukit Batok East Ave 6, and, Singapore 659761",4.5,3266,"[""establishment"", ""park"", ""point_of_interest""]",1.3485421,103.7641994,True
Bukit Panjang,Saujana,nature,garden,"garden in Saujana, Bukit Panjang, Singapore",ChIJaaC07KIR2jERl3-DgSWf4aE,Pang Sua Pond,"101 Bukit Panjang Ring Road, Saujana Rd, Singapore 679910",4.5,901,"[""establishment"", ""park"", ""point_of_interest"", ""tourist_attraction""]",1.3819061,103.7655122,True
Bukit Panjang,Saujana,nature,beach,"beach in Saujana, Bukit Panjang, Singapore",ChIJs45bbr0R2jERwByR91EdWqw,Senja-Cashew Community Club,"101 Bukit Panjang Rd, Singapore 679910",4.3,1262,"[""establishment"", ""point_of_interest""]",1.381403,103.764651,True
Bukit Panjang,Saujana,nature,waterfront,"waterfront in Saujana, Bukit Panjang, Singapore",ChIJE5oICqIR2jERy5-36TUYpeg,Blk 416 Saujana Rd,"416 Saujana Rd, Singapore 670416",3.8,13,"[""establishment"", ""point_of_interest""]",1.3832166,103.7684292,True
Bukit Panjang,Saujana,nature,park connector,"park connector in Saujana, Bukit Panjang, Singapore",ChIJZ2n78R0R2jERv4IZBDswYrc,Bukit Panjang Park Connector,"501 Jelapang Rd, Singapore 670501",4.7,3,"[""establishment"", ""point_of_interest""]",1.3835404,103.767104,True
Bukit Panjang,Saujana,nature,park connector,"park connector in Saujana, Bukit Panjang, Singapore",ChIJAfY-aQAR2jERJU4PExbtgb0,BUKIT PANJANG NORTH PARK CONNECTOR,"Segar Cl, Singapore",5.0,1,"[""establishment"", ""point_of_interest""]",1.3891486,103.7603213,True
Bukit Panjang,Senja,education,kindergarten,"kindergarten in Senja, Bukit Panjang, Singapore",ChIJD2-555YR2jERB5redAVLl-U,Little Footprints Preschool @ Bukit Panjang 631,"631 Senja Rd, #01-228, Singapore 670631",5.0,46,"[""establishment"", ""point_of_interest"", ""school""]",1.3865825,103.760386,True
Bukit Panjang,Senja,education,kindergarten,"kindergarten in Senja, Bukit Panjang, Singapore",ChIJVStI-ZkR2jERHO-aAW_glWM,My First Skool at Blk 654 Senja Road,"Blk 654 Senja Rd, #01-254, Singapore 670654",4.7,17,"[""establishment"", ""point_of_interest"", ""school""]",1.3878729,103.7641207,True
Bukit Panjang,Senja,education,primary school,"primary school in Senja, Bukit Panjang, Singapore",ChIJ52ZRhr0R2jERzrJbrhEZw8U,West View Primary School,"31 Senja Rd, Singapore 677742",,0,"[""establishment"", ""point_of_interest"", ""primary_school"", ""school""]",1.3837275,103.7601419,True
Bukit Panjang,Senja,education,secondary school,"secondary school in Senja, Bukit Panjang, Singapore",ChIJZS8GNJER2jERSd-ue7liC-Q,West Spring Secondary School,"61 Senja Rd, Singapore 677737",,0,"[""establishment"", ""point_of_interest"", ""school"", ""secondary_school""]",1.3877121,103.7600409,True
Bukit Panjang,Senja,education,junior college,"junior college in Senja, Bukit Panjang, Singapore",ChIJz_-CGpUR2jERsxAVVh_vnoY,Jurong Pioneer Junior College,"21 Teck Whye Walk, Singapore 688258",3.8,86,"[""establishment"", ""point_of_interest"", ""university""]",1.3847446,103.753857,True
Bukit Panjang,Senja,education,junior college,"junior college in Senja, Bukit Panjang, Singapore",ChIJs45bbr0R2jERwByR91EdWqw,Senja-Cashew Community Club,"101 Bukit Panjang Rd, Singapore 679910",4.3,1262,"[""establishment"", ""point_of_interest""]",1.381403,103.764651,True
Bukit Panjang,Senja,education,polytechnic,"polytechnic in Senja, Bukit Panjang, Singapore",ChIJzYwU2PoR2jERoCNtSpIlsQU,Bukit Panjang Polyclinic,"50 Woodlands Rd, #03-02, Singapore 677726",3.2,195,"[""establishment"", ""health"", ""hospital"", ""point_of_interest""]",1.3828301,103.7603609,True
Bukit Panjang,Senja,education,polytechnic,"polytechnic in Senja, Bukit Panjang, Singapore",ChIJFXzxL2Aa2jERnoWTOdJdVKk,Singapore Polytechnic,"500 Dover Rd, Singapore 139651",4.3,647,"[""establishment"", ""point_of_interest""]",1.3097757,103.7775495,True
Bukit Panjang,Senja,education,university,"university in Senja, Bukit Panjang, Singapore",ChIJdZqHOjIR2jERDe7F2eSb-DA,Remote Closing University,"621 Senja Rd, #06-130 Block 621, Singapore 670621",,0,"[""establishment"", ""point_of_interest""]",1.3860095,103.7627167,True
