planning_area,subzone,poi_dimension,place_query_type,search_query,place_id,place_name,formatted_address,rating,user_ratings_total,types,lat,lng,need_reviews
Mandai,Mandai East,education,education facilities schools childcare libraries,"education facilities schools childcare libraries near Mandai East, Mandai, Singapore",ChIJf5_pqVIS2jERAkF9nM8cvqk,Little Muslim Readers (Woodlands),"11 Woodlands Cl, Singapore 737853",5.0,1,"[""establishment"", ""point_of_interest""]",1.4343653,103.8024411,True
Mandai,Mandai East,education,education facilities schools childcare libraries,"education facilities schools childcare libraries near Mandai East, Mandai, Singapore",ChIJjxeoub4T2jEROJtpVYn5dcs,Agape Little Uni Gambas (Nordcom II),"2 Gambas Cres, #01-15 Nordcom II, Singapore 757044",4.7,40,"[""establishment"", ""point_of_interest"", ""school""]",1.4434524,103.8155447,True
Mandai,Mandai East,education,education facilities schools childcare libraries,"education facilities schools childcare libraries near Mandai East, Mandai, Singapore",ChIJnVjyIGMT2jER1AP2Rg9FFT4,Star Learners @ Sembawang Way | Preschool & Childcare,"355 Sembawang Wy, #02-02, Singapore 750355",5.0,116,"[""establishment"", ""point_of_interest"", ""school""]",1.4500614,103.8184399,True
Mandai,Mandai East,education,education facilities schools childcare libraries,"education facilities schools childcare libraries near Mandai East, Mandai, Singapore",ChIJh-bVYOgT2jERnSDkw1F-WjM,PlayFACTO School @ Woods Square | Student Care Woodlands,"8 Woodlands Square, Solo 2, #04-25 Woods Square, Singapore 737713",5.0,122,"[""establishment"", ""point_of_interest""]",1.4353,103.7855651,True
Mandai,Mandai East,education,education facilities schools childcare libraries,"education facilities schools childcare libraries near Mandai East, Mandai, Singapore",ChIJHyby1H8U2jERcLpQogdt3pc,Star Learners @ Sembawang Place | Preschool & Childcare,"587 Sembawang Pl, Singapore 758440",4.8,51,"[""establishment"", ""point_of_interest"", ""school""]",1.43938,103.824555,True
Mandai,Mandai East,education,education facilities schools childcare libraries,"education facilities schools childcare libraries near Mandai East, Mandai, Singapore",ChIJqVqJA6YT2jERen84koMFzGM,Woodlands Library,"900 S Woodlands Dr, #01-03 Civic Centre, Singapore 730900",4.3,488,"[""establishment"", ""library"", ""point_of_interest""]",1.4349053,103.78678,True
Mandai,Mandai East,education,education facilities schools childcare libraries,"education facilities schools childcare libraries near Mandai East, Mandai, Singapore",ChIJeaqovalUSisREgD2TAt83wo,Small Wonder Woodlands Close,"11 Woodlands Cl, #01-25 WOODLANDS 11, Singapore 737853",5.0,20,"[""establishment"", ""point_of_interest"", ""school""]",1.4343653,103.8024411,True
Mandai,Mandai East,education,education facilities schools childcare libraries,"education facilities schools childcare libraries near Mandai East, Mandai, Singapore",ChIJlWuGEUET2jERN8QxATXQ-mo,SAS MS Library,"40 Woodlands Street 41, Singapore 738547",5.0,1,"[""establishment"", ""library"", ""point_of_interest""]",1.4257604,103.7754555,True
Mandai,Mandai East,education,education facilities schools childcare libraries,"education facilities schools childcare libraries near Mandai East, Mandai, Singapore",ChIJAQBU3HQT2jER6dkS1qHMOk8,Creative Land Childcare & Development Centre,"715 Woodlands Drive 70, #12-152 Block 715, Singapore 730715",5.0,1,"[""establishment"", ""point_of_interest""]",1.4419538,103.7998133,True
Mandai,Mandai East,education,education facilities schools childcare libraries,"education facilities schools childcare libraries near Mandai East, Mandai, Singapore",ChIJBYGvEQAV2jER6vbbOEyIvVk,Play & Learn Community library corner,"137 Yishun Ring Rd, Singapore 760137",,0,"[""establishment"", ""library"", ""point_of_interest""]",1.4320036,103.8300215,True
Mandai,Mandai East,education,education facilities schools childcare libraries,"education facilities schools childcare libraries near Mandai East, Mandai, Singapore",ChIJjc4Gd2IT2jERErJlDYsVmmM,Glory Joy Child Development Centre,"501B Wellington Cir, #01-06, Singapore 752501",4.8,27,"[""establishment"", ""point_of_interest"", ""school""]",1.4521332,103.8214902,True
Mandai,Mandai East,education,education facilities schools childcare libraries,"education facilities schools childcare libraries near Mandai East, Mandai, Singapore",ChIJqdSp_aEV2jERZcy1OsTx3Qk,Hua Cheng Education Centre (Junction Nine),"18 Yishun Ave 9, Junction Nine, #01-81, #01-70, Singapore 768897",4.8,29,"[""establishment"", ""point_of_interest""]",1.433182,103.841643,True
Mandai,Mandai East,education,education facilities schools childcare libraries,"education facilities schools childcare libraries near Mandai East, Mandai, Singapore",ChIJEbc1amET2jER-FRRivzSbLw,Endeavour Primary School,"10 Admiralty Link, Singapore 757521",,0,"[""establishment"", ""point_of_interest"", ""primary_school"", ""school""]",1.4545646,103.8171781,True
Mandai,Mandai East,education,education facilities schools childcare libraries,"education facilities schools childcare libraries near Mandai East, Mandai, Singapore",ChIJFwBnxn0T2jERFDDiOhsMo_U,Canberra Community Club,"2 Sembawang Cres, #01-01, Singapore 757632",4.1,1059,"[""establishment"", ""point_of_interest""]",1.4449347,103.8197721,True
Mandai,Mandai East,education,education facilities schools childcare libraries,"education facilities schools childcare libraries near Mandai East, Mandai, Singapore",ChIJ2739TgoP2jERlpS4Fef772Y,Library and Information Services Centre (NIE),"1 Nanyang Walk, Singapore 637616",4.6,28,"[""establishment"", ""library"", ""point_of_interest""]",1.348661,103.677635,True
Mandai,Mandai East,education,education facilities schools childcare libraries,"education facilities schools childcare libraries near Mandai East, Mandai, Singapore",ChIJ5dRbTgAT2jER751YdtJ9uxQ,Curiosity Cove,"80 Mandai Lake Rd, Mandai Wildlife EAST, Singapore 729826",4.6,785,"[""establishment"", ""point_of_interest"", ""tourist_attraction""]",1.4063051,103.7905513,True
Mandai,Mandai East,education,education facilities schools childcare libraries,"education facilities schools childcare libraries near Mandai East, Mandai, Singapore",ChIJVXvIfP0T2jERic4-tMR0Oj0,Rainforest Wild Adventure EAST,"80 Mandai Lake Rd, Singapore 729826",4.7,303,"[""establishment"", ""park"", ""point_of_interest"", ""tourist_attraction"", ""zoo""]",1.404051,103.7884283,True
Mandai,Mandai East,education,education facilities schools childcare libraries,"education facilities schools childcare libraries near Mandai East, Mandai, Singapore",ChIJga6yJcgZ2jER9mR2vO8iwFQ,Edublitz Pte Ltd,"21 Woodlands Cl, #03-10 21, Singapore 737854",5.0,2,"[""establishment"", ""point_of_interest"", ""store""]",1.4351696,103.8048721,True
Mandai,Mandai East,education,education facilities schools childcare libraries,"education facilities schools childcare libraries near Mandai East, Mandai, Singapore",ChIJGxiR2ZYT2jEREX4llNf_UrE,Mandai Wildlife WEST,"20 Mandai Lake Rd, Mandai Wildlife Reserve, Singapore 729825",4.7,590,"[""establishment"", ""point_of_interest"", ""tourist_attraction""]",1.408012,103.7804473,True
Mandai,Mandai East,education,education facilities schools childcare libraries,"education facilities schools childcare libraries near Mandai East, Mandai, Singapore",ChIJObXKj7MT2jERwq1Oa1l1XvE,Edureach Centre Woodlands,"Woodlands Street 41, Singapore 730408",,0,"[""establishment"", ""point_of_interest""]",1.4288113,103.7725491,True
Mandai,Mandai East,transport,public transport MRT LRT bus stops,"public transport MRT LRT bus stops near Mandai East, Mandai, Singapore",ChIJl88aFcAT2jERItREYfgqTDE,Mandai Depot,"320 Mandai Rd, Singapore 779405",3.9,86,"[""establishment"", ""point_of_interest""]",1.4172688,103.7995004,True
Mandai,Mandai East,transport,public transport MRT LRT bus stops,"public transport MRT LRT bus stops near Mandai East, Mandai, Singapore",ChIJD6i8UnoT2jERH9M2oeqpdw0,Mandai Bus Depot,"310 Mandai Rd, Singapore 779404",3.9,27,"[""establishment"", ""point_of_interest""]",1.4166276,103.7988281,True
Mandai,Mandai East,transport,public transport MRT LRT bus stops,"public transport MRT LRT bus stops near Mandai East, Mandai, Singapore",ChIJNynxo9kT2jERnecXO7eSYLY,Mandai Wildlife EAST,Singapore,3.0,2,"[""establishment"", ""point_of_interest"", ""transit_station""]",1.40513,103.78933,True
Mandai,Mandai East,transport,public transport MRT LRT bus stops,"public transport MRT LRT bus stops near Mandai East, Mandai, Singapore",ChIJH3t41-sT2jERDTWQCtUctAw,Aft Mandai Ave,Singapore,4.3,4,"[""establishment"", ""point_of_interest"", ""transit_station""]",1.415984,103.8020509,True
Mandai,Mandai East,transport,public transport MRT LRT bus stops,"public transport MRT LRT bus stops near Mandai East, Mandai, Singapore",ChIJ40kM3CMS2jER2uPYx5827i8,Opp Mandai Est,Singapore,5.0,6,"[""establishment"", ""point_of_interest"", ""transit_station""]",1.4067735,103.755998,True
Mandai,Mandai East,transport,public transport MRT LRT bus stops,"public transport MRT LRT bus stops near Mandai East, Mandai, Singapore",ChIJmfd-s9IT2jERAkNeAuUvIuk,Mandai Camp 2,Singapore,4.4,7,"[""establishment"", ""point_of_interest"", ""transit_station""]",1.410479,103.775475,True
Mandai,Mandai East,transport,public transport MRT LRT bus stops,"public transport MRT LRT bus stops near Mandai East, Mandai, Singapore",ChIJD_F6IQAV2jERUACgRM5MoNw,Mandai Khatib Shuttle (Mandai Wildlife Reserve),"Khatib MRT Station (NS14) Exit A Pick Up Point, Singapore",4.2,11,"[""establishment"", ""point_of_interest""]",1.4174381,103.8331631,True
Mandai,Mandai East,transport,public transport MRT LRT bus stops,"public transport MRT LRT bus stops near Mandai East, Mandai, Singapore",ChIJZSNU3iMS2jERd4XUG6ROV3w,Aft Mandai Est,Singapore,4.5,6,"[""establishment"", ""point_of_interest"", ""transit_station""]",1.4061307,103.7563449,True
Mandai,Mandai East,transport,public transport MRT LRT bus stops,"public transport MRT LRT bus stops near Mandai East, Mandai, Singapore",ChIJSxBzJO8T2jEReiOCGtBI75A,Opp Mandai Crematorium,Singapore,4.3,4,"[""establishment"", ""point_of_interest"", ""transit_station""]",1.412944,103.805374,True
Mandai,Mandai East,transport,public transport MRT LRT bus stops,"public transport MRT LRT bus stops near Mandai East, Mandai, Singapore",ChIJA0mdVFQT2jERDavDriJiyUQ,Tower Transit Singapore Pte Ltd,"310 Mandai Rd, Singapore 779404",2.2,23,"[""establishment"", ""point_of_interest""]",1.4185039,103.7980791,True
Mandai,Mandai East,transport,public transport MRT LRT bus stops,"public transport MRT LRT bus stops near Mandai East, Mandai, Singapore",ChIJn7frpyMS2jERJjpP3Qp2RM8,Bef Mandai Rd,Singapore,4.0,3,"[""establishment"", ""point_of_interest"", ""transit_station""]",1.4095435,103.7556006,True
Mandai,Mandai East,transport,public transport MRT LRT bus stops,"public transport MRT LRT bus stops near Mandai East, Mandai, Singapore",ChIJdbrkeBIU2jERsQIAy-echaA,Khatib MRT Station (NS14) Exit A Pick Up Point,Singapore,4.3,13,"[""establishment"", ""point_of_interest"", ""transit_station""]",1.41756,103.83324,True
Mandai,Mandai East,transport,public transport MRT LRT bus stops,"public transport MRT LRT bus stops near Mandai East, Mandai, Singapore",ChIJF3jxEtIT2jER8zD6_2V3B44,Bef Mandai Lake Rd,Singapore,5.0,1,"[""establishment"", ""point_of_interest"", ""transit_station""]",1.4105811,103.7806267,True
Mandai,Mandai East,transport,public transport MRT LRT bus stops,"public transport MRT LRT bus stops near Mandai East, Mandai, Singapore",ChIJp53xctIT2jERGJ8byruYVk0,Aft Mandai Lake Rd,Singapore,,0,"[""establishment"", ""point_of_interest"", ""transit_station""]",1.4109211,103.7794483,True
Mandai,Mandai East,transport,public transport MRT LRT bus stops,"public transport MRT LRT bus stops near Mandai East, Mandai, Singapore",ChIJk612VukT2jERm9bvdqimkPg,Bef Mandai Ave,Singapore,,0,"[""establishment"", ""point_of_interest"", ""transit_station""]",1.415823,103.8038731,True
Mandai,Mandai East,transport,public transport MRT LRT bus stops,"public transport MRT LRT bus stops near Mandai East, Mandai, Singapore",ChIJ2TeHBu4T2jERbQx0fA4Z5oI,Opp Mandai Crematorium & Columbarium,Singapore,2.6,5,"[""establishment"", ""point_of_interest"", ""transit_station""]",1.415571,103.809494,True
Mandai,Mandai East,transport,public transport MRT LRT bus stops,"public transport MRT LRT bus stops near Mandai East, Mandai, Singapore",ChIJ7_fOrtkT2jERHYoWSOW967A,S'pore Zoo,Singapore,4.3,28,"[""bus_station"", ""establishment"", ""point_of_interest"", ""transit_station""]",1.404624,103.78936,True
Mandai,Mandai East,transport,public transport MRT LRT bus stops,"public transport MRT LRT bus stops near Mandai East, Mandai, Singapore",ChIJr7qzN9IT2jERcNioQQLxmIM,Opp Bird Paradise,Singapore,5.0,2,"[""establishment"", ""point_of_interest"", ""transit_station""]",1.409885,103.779076,True
Mandai,Mandai East,transport,public transport MRT LRT bus stops,"public transport MRT LRT bus stops near Mandai East, Mandai, Singapore",ChIJHdRlpyMS2jERIfIliVZYOlk,Aft Mandai Rd,Singapore,,0,"[""establishment"", ""point_of_interest"", ""transit_station""]",1.4102207,103.7559253,True
Mandai,Mandai East,transport,public transport MRT LRT bus stops,"public transport MRT LRT bus stops near Mandai East, Mandai, Singapore",ChIJrxLCiA0U2jER-R_D8ehBje4,Khatib,"Ave 2 outside Khatib Mrt Stn, Singapore",4.1,367,"[""establishment"", ""point_of_interest"", ""subway_station"", ""transit_station""]",1.4173483,103.8329731,True
Mandai,Mandai East,food,food dining hawker centres restaurants cafes,"food dining hawker centres restaurants cafes near Mandai East, Mandai, Singapore",ChIJrZaADQAT2jERG5ctP3kcB8Y,Food Republic Mandai Wildlife Reserve,"80 Mandai Lake Rd, #01-01/02 Mandai Wildlife EAST, Singapore 729826",3.4,69,"[""establishment"", ""food"", ""point_of_interest""]",1.4041388,103.7900508,True
Mandai,Mandai East,food,food dining hawker centres restaurants cafes,"food dining hawker centres restaurants cafes near Mandai East, Mandai, Singapore",ChIJnXGjYQAT2jER0Yr-hNsuzcI,Sentinel Foodhall,"20 Mandai Lake Rd, Bird Paradise at the Mandai Wildlife Reserve, Singapore 729825",4.4,165,"[""establishment"", ""food"", ""point_of_interest"", ""restaurant""]",1.4097285,103.7827883,True
Mandai,Mandai East,food,food dining hawker centres restaurants cafes,"food dining hawker centres restaurants cafes near Mandai East, Mandai, Singapore",ChIJfXJo3JIT2jERBwVMR8HEbms,Food Central,"20 Mandai Lake Rd, Bird Paradise at the Mandai Wildlife Reserve, Singapore 729825",4.3,415,"[""establishment"", ""food"", ""point_of_interest""]",1.4050912,103.780918,True
Mandai,Mandai East,food,food dining hawker centres restaurants cafes,"food dining hawker centres restaurants cafes near Mandai East, Mandai, Singapore",ChIJ-XjLKOQT2jERhBFyemmiuag,Han's Union @ Mandai Wildlife Reserve,"20 Mandai Lake Rd, #02-02, Singapore 729825",4.2,168,"[""establishment"", ""food"", ""point_of_interest"", ""restaurant""]",1.4079205,103.7808077,True
Mandai,Mandai East,food,food dining hawker centres restaurants cafes,"food dining hawker centres restaurants cafes near Mandai East, Mandai, Singapore",ChIJq_KaoxET2jERyYIxb7dC-8Y,Planter's Shed,"60 Mandai Lake Rd, Level B1 Rainforest Resort by Banyan Tree, Singapore 729979",4.3,111,"[""establishment"", ""food"", ""point_of_interest"", ""restaurant""]",1.4071032,103.7907476,True
Mandai,Mandai East,food,food dining hawker centres restaurants cafes,"food dining hawker centres restaurants cafes near Mandai East, Mandai, Singapore",ChIJD-HIEdkT2jERTPBGsoeo-dg,Ah Meng Restaurant,"80 Mandai Lake Rd, Singapore Zoo at the Mandai Wildlife Reserve, Singapore 729826",4.1,1160,"[""establishment"", ""food"", ""point_of_interest"", ""restaurant""]",1.4044329,103.7935492,True
Mandai,Mandai East,food,food dining hawker centres restaurants cafes,"food dining hawker centres restaurants cafes near Mandai East, Mandai, Singapore",ChIJebuu92kT2jERtBQ6OGhKwH8,Penguin Cove Restaurant,"20 Mandai Lake Rd, Bird Paradise at the Mandai Wildlife Reserve, Singapore 729825",4.3,251,"[""establishment"", ""food"", ""point_of_interest"", ""restaurant""]",1.4065452,103.7826085,True
Mandai,Mandai East,food,food dining hawker centres restaurants cafes,"food dining hawker centres restaurants cafes near Mandai East, Mandai, Singapore",ChIJgUxbod4T2jER7OICXNgcMKU,Crimson Restaurant,"20 Mandai Lake Rd, Bird Paradise at the Mandai Wildlife Reserve, Singapore 729825",4.8,973,"[""establishment"", ""food"", ""point_of_interest"", ""restaurant""]",1.4044484,103.780802,True
Mandai,Mandai East,food,food dining hawker centres restaurants cafes,"food dining hawker centres restaurants cafes near Mandai East, Mandai, Singapore",ChIJf-MrLT8V2jERx_aVOpIuLng,Bukit Canberra Hawker Centre,"21 Canberra Link, Singapore 756973",4.2,1945,"[""establishment"", ""food"", ""point_of_interest"", ""restaurant""]",1.4489743,103.8228369,True
Mandai,Mandai East,food,food dining hawker centres restaurants cafes,"food dining hawker centres restaurants cafes near Mandai East, Mandai, Singapore",ChIJWX6hZwAT2jERCJjVk3CHRmU,Cavern Restaurant,"20 Mandai Lake Rd, #02-32 Rainforest Wild Adventure WEST, Singapore 729825",4.5,1292,"[""establishment"", ""food"", ""point_of_interest"", ""restaurant""]",1.4088282,103.7810406,True
Mandai,Mandai East,food,food dining hawker centres restaurants cafes,"food dining hawker centres restaurants cafes near Mandai East, Mandai, Singapore",ChIJEcljAGoU2jERqtf7wNTnNlg,Yishun Park Hawker Centre,"51 Yishun Ave 11, Singapore 768867",4.1,7320,"[""establishment"", ""food"", ""point_of_interest"", ""restaurant"", ""tourist_attraction""]",1.4250185,103.8447207,True
Mandai,Mandai East,food,food dining hawker centres restaurants cafes,"food dining hawker centres restaurants cafes near Mandai East, Mandai, Singapore",ChIJk_idN3oU2jEReqhHxnv3lgI,Chong Pang Food Centre,"Block 105 Yishun Ring Rd, Singapore 760105",4.1,8604,"[""establishment"", ""food"", ""point_of_interest"", ""restaurant""]",1.4318039,103.8281477,True
Mandai,Mandai East,food,food dining hawker centres restaurants cafes,"food dining hawker centres restaurants cafes near Mandai East, Mandai, Singapore",ChIJM9NDV9gT2jERDIaoRwP9YIw,Ulu Ulu Safari Restaurant,"80 Mandai Lake Rd, Night Safari at the Mandai Wildlife Reserve, Singapore 729826",3.8,882,"[""establishment"", ""food"", ""point_of_interest"", ""restaurant""]",1.4038005,103.7884284,True
Mandai,Mandai East,food,food dining hawker centres restaurants cafes,"food dining hawker centres restaurants cafes near Mandai East, Mandai, Singapore",ChIJjZkEenkU2jERDrlpcJ5BrXE,Chong Pang Nasi Lemak,"447 Sembawang Rd, Singapore 758404",4.1,2082,"[""establishment"", ""food"", ""point_of_interest"", ""restaurant""]",1.4286335,103.8265569,True
Mandai,Mandai East,food,food dining hawker centres restaurants cafes,"food dining hawker centres restaurants cafes near Mandai East, Mandai, Singapore",ChIJSYCHb3UT2jERZBT2RKbXINU,Kampung Admiralty Hawker Centre,"676 Woodlands Drive 71, Singapore 730676",4.1,4925,"[""establishment"", ""food"", ""point_of_interest"", ""restaurant""]",1.4398741,103.8006515,True
Mandai,Mandai East,food,food dining hawker centres restaurants cafes,"food dining hawker centres restaurants cafes near Mandai East, Mandai, Singapore",ChIJR0iJdQAT2jERzR83Smj4GC0,The Courtyard Cafe,"B1-01, Concourse Level, 80 Mandai Lake Rd, Mandai Wildlife EAST, Singapore 729826",4.1,74,"[""establishment"", ""food"", ""point_of_interest"", ""restaurant""]",1.4049653,103.7905536,True
Mandai,Mandai East,food,food dining hawker centres restaurants cafes,"food dining hawker centres restaurants cafes near Mandai East, Mandai, Singapore",ChIJGxiR2ZYT2jEREX4llNf_UrE,Mandai Wildlife WEST,"20 Mandai Lake Rd, Mandai Wildlife Reserve, Singapore 729825",4.7,590,"[""establishment"", ""point_of_interest"", ""tourist_attraction""]",1.408012,103.7804473,True
Mandai,Mandai East,food,food dining hawker centres restaurants cafes,"food dining hawker centres restaurants cafes near Mandai East, Mandai, Singapore",ChIJgxAVM98T2jERKU1petyKGI8,Mama Panda Kitchen,"80 Mandai Lake Rd, River Wonders at the Mandai Wildlife Reserve, Singapore 729826",4.1,379,"[""establishment"", ""food"", ""point_of_interest"", ""restaurant""]",1.4034834,103.7927318,True
Mandai,Mandai East,food,food dining hawker centres restaurants cafes,"food dining hawker centres restaurants cafes near Mandai East, Mandai, Singapore",ChIJdZupgcsb2jERP1Byeb2I-24,Alexandra Village Food Centre,"120 Bukit Merah Lane 1, Singapore 150120",4.2,6383,"[""establishment"", ""food"", ""point_of_interest"", ""restaurant""]",1.2863397,103.8045184,True
Mandai,Mandai East,food,food dining hawker centres restaurants cafes,"food dining hawker centres restaurants cafes near Mandai East, Mandai, Singapore",ChIJhSwY6T8V2jER5NDy1GyGdJg,Fire Rice,"732 Yishun Ave 5, Singapore 760732",4.5,184,"[""establishment"", ""food"", ""point_of_interest"", ""restaurant""]",1.429086,103.830239,True
Mandai,Mandai East,shopping,shopping groceries malls supermarkets markets,"shopping groceries malls supermarkets markets near Mandai East, Mandai, Singapore",ChIJjXeDH3oU2jERBV22OV1TW9A,Chong Pang City (Shopping Belt),"Block 126 Yishun Street 11, #01-427, Singapore 760126",4.4,2308,"[""establishment"", ""food"", ""point_of_interest"", ""restaurant"", ""shopping_mall""]",1.4305711,103.8272411,True
Mandai,Mandai East,shopping,shopping groceries malls supermarkets markets,"shopping groceries malls supermarkets markets near Mandai East, Mandai, Singapore",ChIJk32Wj2ET2jERlCt-VO4D4IY,Sembawang Mart,"511 Canberra Rd, Singapore 750511",3.9,815,"[""establishment"", ""point_of_interest"", ""shopping_mall""]",1.453728,103.8196335,True
Mandai,Mandai East,shopping,shopping groceries malls supermarkets markets,"shopping groceries malls supermarkets markets near Mandai East, Mandai, Singapore",ChIJg0iEvagT2jERLpza72gaJ08,Causeway Point,"1 Woodlands Sq, Singapore 738099",4.3,13829,"[""establishment"", ""point_of_interest"", ""shopping_mall""]",1.4360933,103.7859471,True
Mandai,Mandai East,shopping,shopping groceries malls supermarkets markets,"shopping groceries malls supermarkets markets near Mandai East, Mandai, Singapore",ChIJTyWXW4EZ2jERvzrznx6-XSc,"Little Farms Market, Valley Point (Grocery store)","491 River Valley Rd, #01-20, Singapore 248371",4.5,862,"[""establishment"", ""food"", ""grocery_or_supermarket"", ""point_of_interest"", ""store""]",1.2931219,103.8269124,True
Mandai,Mandai East,shopping,shopping groceries malls supermarkets markets,"shopping groceries malls supermarkets markets near Mandai East, Mandai, Singapore",ChIJp0dC1NsT2jERgCxSHeSVzrY,Sheng Siong Supermarket,"573 Woodlands Drive 16, #02-01 Woodlands Glen, Singapore 730573",4.5,657,"[""establishment"", ""food"", ""grocery_or_supermarket"", ""point_of_interest"", ""store"", ""supermarket""]",1.4309488,103.7985447,True
Mandai,Mandai East,shopping,shopping groceries malls supermarkets markets,"shopping groceries malls supermarkets markets near Mandai East, Mandai, Singapore",ChIJVckjOPQZ2jERRbsxELRO0mg,Annai Super Mart 24 Hrs,"22 Kim Keat Rd, Singapore 328839",4.5,81,"[""establishment"", ""food"", ""grocery_or_supermarket"", ""point_of_interest"", ""store""]",1.3242228,103.8530354,True
Mandai,Mandai East,shopping,shopping groceries malls supermarkets markets,"shopping groceries malls supermarkets markets near Mandai East, Mandai, Singapore",ChIJv6TxPRIU2jERTIL4lT3CLTI,Khatib Central,"848 Yishun Street 81, Singapore 760848",4.1,1120,"[""establishment"", ""point_of_interest"", ""shopping_mall""]",1.4165374,103.8349115,True
Mandai,Mandai East,shopping,shopping groceries malls supermarkets markets,"shopping groceries malls supermarkets markets near Mandai East, Mandai, Singapore",ChIJl_sOMpIZ2jERxxBnQVJpECQ,CS Fresh Gold Paragon,"290 Orchard Rd, B1-21/22 Paragon, Singapore 238859",4.3,926,"[""establishment"", ""food"", ""grocery_or_supermarket"", ""point_of_interest"", ""store"", ""supermarket""]",1.3036312,103.835694,True
Mandai,Mandai East,shopping,shopping groceries malls supermarkets markets,"shopping groceries malls supermarkets markets near Mandai East, Mandai, Singapore",ChIJa2nb2g0Q2jERlcUMLtMVyoI,IMM Building,"2 Jurong East Street 21, Singapore 609601",4.4,18153,"[""establishment"", ""point_of_interest"", ""shopping_mall""]",1.3359631,103.7470337,True
Mandai,Mandai East,shopping,shopping groceries malls supermarkets markets,"shopping groceries malls supermarkets markets near Mandai East, Mandai, Singapore",ChIJTW4fr5wT2jEReGufQu0QfWQ,Vista Point,"548 Woodlands Drive 44, Singapore 730548",4.2,1249,"[""establishment"", ""point_of_interest"", ""shopping_mall""]",1.4313837,103.7938289,True
Mandai,Mandai East,shopping,shopping groceries malls supermarkets markets,"shopping groceries malls supermarkets markets near Mandai East, Mandai, Singapore",ChIJHbKxhboZ2jEROFG6e1zb8Hc,CS Fresh Bugis Junction,"200 Victoria Street, #B1-17/18, Bugis Junction, Singapore 188024",4.2,1281,"[""establishment"", ""food"", ""grocery_or_supermarket"", ""point_of_interest"", ""store"", ""supermarket""]",1.2999362,103.8560058,True
Mandai,Mandai East,shopping,shopping groceries malls supermarkets markets,"shopping groceries malls supermarkets markets near Mandai East, Mandai, Singapore",ChIJp0JVlEIa2jER9lM6m1VP3S0,CS Fresh The Star Vista,"1 Vista Exchange Green #B1-02&35/36, The Star Vista, Singapore 138617",3.9,401,"[""establishment"", ""food"", ""grocery_or_supermarket"", ""point_of_interest"", ""storage"", ""store"", ""supermarket""]",1.3068384,103.7879216,True
Mandai,Mandai East,shopping,shopping groceries malls supermarkets markets,"shopping groceries malls supermarkets markets near Mandai East, Mandai, Singapore",ChIJGwxoxLgT2jERXUN1fpnw76E,Sheng Siong Supermarket,"202 Marsiling Dr, #01-138 & #01-150, Singapore 730202",4.5,346,"[""establishment"", ""food"", ""grocery_or_supermarket"", ""point_of_interest"", ""store"", ""supermarket""]",1.4431994,103.7752258,True
Mandai,Mandai East,shopping,shopping groceries malls supermarkets markets,"shopping groceries malls supermarkets markets near Mandai East, Mandai, Singapore",ChIJQ9-chwga2jER4QBkxkVVPRs,German Market Place,"609 Bukit Timah Rd, #609, Singapore 269710",4.2,207,"[""establishment"", ""food"", ""grocery_or_supermarket"", ""point_of_interest"", ""store"", ""supermarket""]",1.324376,103.8095603,True
Mandai,Mandai East,shopping,shopping groceries malls supermarkets markets,"shopping groceries malls supermarkets markets near Mandai East, Mandai, Singapore",ChIJv7v6ViMS2jERfgkrHP0j3ks,Sheng Siong Supermarket Pte Ltd,"6 Mandai Link, Singapore 728652",3.8,53,"[""establishment"", ""food"", ""grocery_or_supermarket"", ""point_of_interest"", ""store"", ""supermarket""]",1.4090813,103.7566878,True
Mandai,Mandai East,shopping,shopping groceries malls supermarkets markets,"shopping groceries malls supermarkets markets near Mandai East, Mandai, Singapore",ChIJMW3cfr0Z2jER9ALB17fDCoY,Cold Storage,"68 Orchard Rd, B2-16, Plaza, Singapore 238839",4.2,1197,"[""establishment"", ""food"", ""grocery_or_supermarket"", ""point_of_interest"", ""store"", ""supermarket""]",1.3007111,103.844904,True
Mandai,Mandai East,shopping,shopping groceries malls supermarkets markets,"shopping groceries malls supermarkets markets near Mandai East, Mandai, Singapore",ChIJuSYLsDIb2jERdhHc_yYhFwc,Sheng Siong Supermarket,"31A Margaret Dr, Singapore 142031",4.5,135,"[""establishment"", ""food"", ""grocery_or_supermarket"", ""point_of_interest"", ""store"", ""supermarket""]",1.2985644,103.8038797,True
Mandai,Mandai East,shopping,shopping groceries malls supermarkets markets,"shopping groceries malls supermarkets markets near Mandai East, Mandai, Singapore",ChIJ_-EOspoU2jERvfgqq4YcwNI,Sheng Siong Supermarket,"105 Canberra St, #02-05, EastBrook@Canberra 750105",4.4,1148,"[""establishment"", ""food"", ""grocery_or_supermarket"", ""point_of_interest"", ""store"", ""supermarket""]",1.4488842,103.8323044,True
Mandai,Mandai East,shopping,shopping groceries malls supermarkets markets,"shopping groceries malls supermarkets markets near Mandai East, Mandai, Singapore",ChIJicB4X2sZ2jERds3GWBpz-OI,DON DON DONKI,"100 Tras Street 100AM #02, #01-05/22-26, #03 01-05/09-23, Singapore 079027",4.4,1311,"[""establishment"", ""food"", ""grocery_or_supermarket"", ""point_of_interest"", ""store"", ""supermarket""]",1.2749455,103.8434094,True
Mandai,Mandai East,shopping,shopping groceries malls supermarkets markets,"shopping groceries malls supermarkets markets near Mandai East, Mandai, Singapore",ChIJGxiR2ZYT2jEREX4llNf_UrE,Mandai Wildlife WEST,"20 Mandai Lake Rd, Mandai Wildlife Reserve, Singapore 729825",4.7,590,"[""establishment"", ""point_of_interest"", ""tourist_attraction""]",1.408012,103.7804473,True
Mandai,Mandai East,recreation,recreation sports gyms swimming community clubs,"recreation sports gyms swimming community clubs near Mandai East, Mandai, Singapore",ChIJYe_UNiYV2jERlvWhqzwZneA,Bukit Canberra Sport Centre,"21 Canberra Link, Singapore 756973",4.4,75,"[""establishment"", ""point_of_interest""]",1.449033,103.8231799,True
Mandai,Mandai East,recreation,recreation sports gyms swimming community clubs,"recreation sports gyms swimming community clubs near Mandai East, Mandai, Singapore",ChIJV5hnA6wT2jERqD4CwNu0SpM,Woodlands Sport Centre,"2 Woodlands Street 12, Singapore 738599",4.1,2050,"[""establishment"", ""gym"", ""health"", ""point_of_interest"", ""stadium""]",1.434104,103.779798,True
Mandai,Mandai East,recreation,recreation sports gyms swimming community clubs,"recreation sports gyms swimming community clubs near Mandai East, Mandai, Singapore",ChIJHaFvfZgV2jER7Y7GcRY7kFk,Bukit Canberra ActiveSG Gym,"21 Canberra Link, Singapore 756973",3.8,200,"[""establishment"", ""gym"", ""health"", ""point_of_interest""]",1.4473162,103.8235641,True
Mandai,Mandai East,recreation,recreation sports gyms swimming community clubs,"recreation sports gyms swimming community clubs near Mandai East, Mandai, Singapore",ChIJicZGWGkT2jERp9eMMlGkrLQ,Woodlands ActiveSG Gym,"3 Woodlands Street 13, Singapore 738600",4.0,61,"[""establishment"", ""gym"", ""health"", ""point_of_interest""]",1.4345985,103.7795611,True
Mandai,Mandai East,recreation,recreation sports gyms swimming community clubs,"recreation sports gyms swimming community clubs near Mandai East, Mandai, Singapore",ChIJCy5VTKMV2jERcEdrN9vyBM4,HomeTeamNS Khatib,"2 Yishun Walk, Singapore 767944",4.6,1660,"[""establishment"", ""point_of_interest""]",1.4143361,103.8311272,True
Mandai,Mandai East,recreation,recreation sports gyms swimming community clubs,"recreation sports gyms swimming community clubs near Mandai East, Mandai, Singapore",ChIJ_WX9ue0R2jER865IJyACAoc,Choa Chu Kang Sport Centre,"1 Choa Chu Kang Street 53, Singapore 689236",4.2,959,"[""establishment"", ""gym"", ""health"", ""point_of_interest"", ""stadium""]",1.3910172,103.7482599,True
Mandai,Mandai East,recreation,recreation sports gyms swimming community clubs,"recreation sports gyms swimming community clubs near Mandai East, Mandai, Singapore",ChIJ8bahiasT2jERqn8gbGDhwE8,SwimSafer Classes For Kids at Woodlands,"3 Woodlands Street 13, Singapore 738600",4.1,178,"[""establishment"", ""health"", ""point_of_interest"", ""school""]",1.4344994,103.7795368,True
Mandai,Mandai East,recreation,recreation sports gyms swimming community clubs,"recreation sports gyms swimming community clubs near Mandai East, Mandai, Singapore",ChIJ8yMt54sQ2jERjBRZb9swlqY,Temasek Club,"131 Rifle Range Rd, Singapore 588406",4.3,1464,"[""establishment"", ""point_of_interest""]",1.3463976,103.7805251,True
Mandai,Mandai East,recreation,recreation sports gyms swimming community clubs,"recreation sports gyms swimming community clubs near Mandai East, Mandai, Singapore",ChIJs45bbr0R2jERwByR91EdWqw,Senja-Cashew Community Club,"101 Bukit Panjang Rd, Singapore 679910",4.3,1262,"[""establishment"", ""point_of_interest""]",1.381403,103.764651,True
Mandai,Mandai East,recreation,recreation sports gyms swimming community clubs,"recreation sports gyms swimming community clubs near Mandai East, Mandai, Singapore",ChIJualWQwAT2jER7hH4uHJRMXA,Woodlands Swimming Pool Female Coach | O² Fins ⭐ FREE Trial Class & Starter Kit upon signup. 88991519,"3 Woodlands Street 13, Singapore 738600",5.0,108,"[""establishment"", ""health"", ""point_of_interest"", ""school""]",1.4347677,103.7796039,True
Mandai,Mandai East,recreation,recreation sports gyms swimming community clubs,"recreation sports gyms swimming community clubs near Mandai East, Mandai, Singapore",ChIJYZMTHQAT2jERWVe4Cd9_xrI,Mandai Rainforest Resort Gym,"60 Mandai Lake Rd, Level 2 Mandai Rainforest Resort by Banyan Tree, Singapore 729979",1.0,1,"[""establishment"", ""gym"", ""health"", ""point_of_interest""]",1.4068299,103.790126,True
Mandai,Mandai East,recreation,recreation sports gyms swimming community clubs,"recreation sports gyms swimming community clubs near Mandai East, Mandai, Singapore",ChIJq6qqmhEU2jER0yE06FDEo-U,Nee Soon South Community Club,"30 Yishun Street 81, Singapore 768455",4.1,354,"[""establishment"", ""point_of_interest""]",1.4149934,103.8348043,True
Mandai,Mandai East,recreation,recreation sports gyms swimming community clubs,"recreation sports gyms swimming community clubs near Mandai East, Mandai, Singapore",ChIJq1ymIRMT2jER1q1qMrhZpiY,Woodlands Recreation Centre,"200 Woodlands Industrial Pk E7, Singapore 757177",4.3,730,"[""establishment"", ""point_of_interest""]",1.4507013,103.7969076,True
Mandai,Mandai East,recreation,recreation sports gyms swimming community clubs,"recreation sports gyms swimming community clubs near Mandai East, Mandai, Singapore",ChIJq6qquv8S2jERFxNiPdcRSiY,Marsiling Community Club,"100 Admiralty Rd, Singapore 739980",4.1,595,"[""establishment"", ""point_of_interest""]",1.4408695,103.7737248,True
Mandai,Mandai East,recreation,recreation sports gyms swimming community clubs,"recreation sports gyms swimming community clubs near Mandai East, Mandai, Singapore",ChIJ9-wMbKkT2jERJojJzLw7pdA,Woodlands Sport Hall,"2 Woodlands Street 12, Singapore 738620",4.0,70,"[""establishment"", ""gym"", ""health"", ""point_of_interest""]",1.4343111,103.7796959,True
Mandai,Mandai East,recreation,recreation sports gyms swimming community clubs,"recreation sports gyms swimming community clubs near Mandai East, Mandai, Singapore",ChIJ4-iWlw8U2jERbtvdchPy4-o,Yishun Sport Hall,"101 Yishun Ave 1, Singapore 769130",4.0,250,"[""establishment"", ""point_of_interest""]",1.4121111,103.8313335,True
Mandai,Mandai East,recreation,recreation sports gyms swimming community clubs,"recreation sports gyms swimming community clubs near Mandai East, Mandai, Singapore",ChIJ7RoekQ8U2jERDK4JtndMOWY,Yishun Sport Centre,"101 Yishun Ave 1, Singapore 769130",3.7,3,"[""establishment"", ""point_of_interest""]",1.411809,103.831229,True
Mandai,Mandai East,recreation,recreation sports gyms swimming community clubs,"recreation sports gyms swimming community clubs near Mandai East, Mandai, Singapore",ChIJNXybHwgT2jER6Iq_DK6z-yQ,Woodlands Community Club,"1 Woodlands Street 81, Singapore 738526",4.2,987,"[""establishment"", ""point_of_interest""]",1.4398396,103.7883289,True
Mandai,Mandai East,recreation,recreation sports gyms swimming community clubs,"recreation sports gyms swimming community clubs near Mandai East, Mandai, Singapore",ChIJU5I1EQAV2jER9o68jMdoijY,Forest Gym,"345 Old Nelson Rd, Singapore 758692",4.4,7,"[""establishment"", ""gym"", ""health"", ""point_of_interest""]",1.4483633,103.8243021,True
Mandai,Mandai East,recreation,recreation sports gyms swimming community clubs,"recreation sports gyms swimming community clubs near Mandai East, Mandai, Singapore",ChIJkeX4YFsa2jERDRq9DzW0FHI,ACJC Sports Complex,"25 Dover Cl E, Singapore 139745",4.1,51,"[""establishment"", ""point_of_interest""]",1.301924,103.7863617,True
Mandai,Mandai East,nature,parks gardens nature waterfront park connectors,"parks gardens nature waterfront park connectors near Mandai East, Mandai, Singapore",ChIJied_ZdIT2jERfFB2io7NbV0,Central Catchment Park Connector,"Mandai Rd, Singapore",4.5,547,"[""establishment"", ""point_of_interest""]",1.4105867,103.7783568,True
Mandai,Mandai East,nature,parks gardens nature waterfront park connectors,"parks gardens nature waterfront park connectors near Mandai East, Mandai, Singapore",ChIJ4QhPDSMT2jER-K6cnYYSNZw,Ulu Sembawang Park Connector,"403R Jln Ulu Sembawang, Singapore 779563",4.4,108,"[""establishment"", ""park"", ""point_of_interest""]",1.422046,103.7928186,True
Mandai,Mandai East,nature,parks gardens nature waterfront park connectors,"parks gardens nature waterfront park connectors near Mandai East, Mandai, Singapore",ChIJE-Q_WsUT2jERQKIxuGU9mGU,Mandai Park Connector,Singapore,4.2,34,"[""establishment"", ""park"", ""point_of_interest""]",1.4105744,103.779128,True
Mandai,Mandai East,nature,parks gardens nature waterfront park connectors,"parks gardens nature waterfront park connectors near Mandai East, Mandai, Singapore",ChIJBfm8PQAT2jERAhOyYquGt7M,Mandai Boardwalk,"80 Mandai Lake Rd, Mandai Wildlife Reserve, Singapore 729826",4.6,432,"[""establishment"", ""park"", ""point_of_interest""]",1.4056235,103.7911718,True
Mandai,Mandai East,nature,parks gardens nature waterfront park connectors,"parks gardens nature waterfront park connectors near Mandai East, Mandai, Singapore",ChIJkyCpkWcT2jER1Nsl0ZvOI4Q,Bird Paradise,"20 Mandai Lake Rd, Mandai Wildlife WEST, Singapore 729825",4.7,9599,"[""establishment"", ""park"", ""point_of_interest"", ""tourist_attraction"", ""zoo""]",1.4071539,103.7812684,True
Mandai,Mandai East,nature,parks gardens nature waterfront park connectors,"parks gardens nature waterfront park connectors near Mandai East, Mandai, Singapore",ChIJi090zPwS2jERiJCqFWoP8Z4,Woodlands Waterfront Park,"Admiralty Rd W, Singapore 759956",4.5,3993,"[""establishment"", ""park"", ""point_of_interest"", ""tourist_attraction""]",1.4530529,103.7804801,True
Mandai,Mandai East,nature,parks gardens nature waterfront park connectors,"parks gardens nature waterfront park connectors near Mandai East, Mandai, Singapore",ChIJMxZeJ5sT2jERG3KCuLiIsjw,Woodlands Park Connector (SLE),Singapore,4.7,9,"[""establishment"", ""park"", ""point_of_interest""]",1.4254469,103.7905053,True
Mandai,Mandai East,nature,parks gardens nature waterfront park connectors,"parks gardens nature waterfront park connectors near Mandai East, Mandai, Singapore",ChIJH6JsiVUR2jERcH6ybOVyhbs,Springleaf Nature Park,"1230 Upper Thomson Rd, Singapore 787129",4.4,646,"[""establishment"", ""park"", ""point_of_interest""]",1.4011345,103.8185457,True
Mandai,Mandai East,nature,parks gardens nature waterfront park connectors,"parks gardens nature waterfront park connectors near Mandai East, Mandai, Singapore",ChIJW08LC5oU2jER6b7cHRVBP6Q,Simpang Kiri Park Connector,"Sembawang Rd, Singapore 758495",4.4,153,"[""establishment"", ""park"", ""point_of_interest"", ""tourist_attraction""]",1.4529108,103.8324722,True
Mandai,Mandai East,nature,parks gardens nature waterfront park connectors,"parks gardens nature waterfront park connectors near Mandai East, Mandai, Singapore",ChIJob735_oR2jER9np2yFqDAdA,Mandai Trail,"Bukit Timah Expy, Singapore",4.8,35,"[""establishment"", ""point_of_interest""]",1.3981092,103.7749632,True
Mandai,Mandai East,nature,parks gardens nature waterfront park connectors,"parks gardens nature waterfront park connectors near Mandai East, Mandai, Singapore",ChIJ____rBoU2jERyE5AP5-iwrc,Lower Seletar Reservoir Park,"Yishun Ave 1, Lower Seletar Reservoir Park, Singapore 769139",4.5,2534,"[""establishment"", ""park"", ""point_of_interest"", ""tourist_attraction""]",1.4101641,103.8324319,True
Mandai,Mandai East,nature,parks gardens nature waterfront park connectors,"parks gardens nature waterfront park connectors near Mandai East, Mandai, Singapore",ChIJywjk7i8V2jERP6UhBhji4eU,Khatib Bongsu Park Connector,"346 Yishun Ave 11, Singapore 760346",4.6,12,"[""establishment"", ""park"", ""point_of_interest""]",1.429097,103.8431386,True
Mandai,Mandai East,nature,parks gardens nature waterfront park connectors,"parks gardens nature waterfront park connectors near Mandai East, Mandai, Singapore",ChIJpe5vTGYV2jEReK-nqDGW0JI,Hampstead Wetlands Park,"1 Baker St, Singapore 799977",4.3,381,"[""establishment"", ""park"", ""point_of_interest""]",1.4094026,103.8693039,True
Mandai,Mandai East,nature,parks gardens nature waterfront park connectors,"parks gardens nature waterfront park connectors near Mandai East, Mandai, Singapore",ChIJxZfX_9gT2jERknwK8es7IHU,River Wonders,"80 Mandai Lake Rd, Singapore 729826",4.5,12325,"[""aquarium"", ""establishment"", ""park"", ""point_of_interest"", ""tourist_attraction"", ""zoo""]",1.4038498,103.7906676,True
Mandai,Mandai East,nature,parks gardens nature waterfront park connectors,"parks gardens nature waterfront park connectors near Mandai East, Mandai, Singapore",ChIJ_6g8kisX2jERaGrSixd_xbM,Windsor Nature Park,"30 Venus Dr, Singapore 573858",4.6,1759,"[""establishment"", ""park"", ""point_of_interest"", ""tourist_attraction""]",1.3566265,103.8214319,True
Mandai,Mandai East,nature,parks gardens nature waterfront park connectors,"parks gardens nature waterfront park connectors near Mandai East, Mandai, Singapore",ChIJn_BWwVUS2jERyHkVTD_-_vw,Marsiling Park,"Woodlands Centre Rd, Singapore 738930",4.2,1911,"[""establishment"", ""park"", ""point_of_interest"", ""tourist_attraction""]",1.4378367,103.7699507,True
Mandai,Mandai Estate,education,education facilities schools childcare libraries,"education facilities schools childcare libraries near Mandai Estate, Mandai, Singapore",ChIJf5_pqVIS2jERAkF9nM8cvqk,Little Muslim Readers (Woodlands),"11 Woodlands Cl, Singapore 737853",5.0,1,"[""establishment"", ""point_of_interest""]",1.4343653,103.8024411,True
Mandai,Mandai Estate,education,education facilities schools childcare libraries,"education facilities schools childcare libraries near Mandai Estate, Mandai, Singapore",ChIJNX1sv2YT2jERoF5IpESJXlw,My Little Campus - MLC (Sembawang),"406 Sembawang Dr, #01-828, Singapore 750406",5.0,13,"[""establishment"", ""point_of_interest"", ""school""]",1.4530174,103.8170112,True
Mandai,Mandai Estate,education,education facilities schools childcare libraries,"education facilities schools childcare libraries near Mandai Estate, Mandai, Singapore",ChIJjxeoub4T2jEROJtpVYn5dcs,Agape Little Uni Gambas (Nordcom II),"2 Gambas Cres, #01-15 Nordcom II, Singapore 757044",4.7,40,"[""establishment"", ""point_of_interest"", ""school""]",1.4434524,103.8155447,True
Mandai,Mandai Estate,education,education facilities schools childcare libraries,"education facilities schools childcare libraries near Mandai Estate, Mandai, Singapore",ChIJqVqJA6YT2jERen84koMFzGM,Woodlands Library,"900 S Woodlands Dr, #01-03 Civic Centre, Singapore 730900",4.3,488,"[""establishment"", ""library"", ""point_of_interest""]",1.4349053,103.78678,True
Mandai,Mandai Estate,education,education facilities schools childcare libraries,"education facilities schools childcare libraries near Mandai Estate, Mandai, Singapore",ChIJnVjyIGMT2jER1AP2Rg9FFT4,Star Learners @ Sembawang Way | Preschool & Childcare,"355 Sembawang Wy, #02-02, Singapore 750355",5.0,116,"[""establishment"", ""point_of_interest"", ""school""]",1.4500614,103.8184399,True
Mandai,Mandai Estate,education,education facilities schools childcare libraries,"education facilities schools childcare libraries near Mandai Estate, Mandai, Singapore",ChIJh-bVYOgT2jERnSDkw1F-WjM,PlayFACTO School @ Woods Square | Student Care Woodlands,"8 Woodlands Square, Solo 2, #04-25 Woods Square, Singapore 737713",5.0,122,"[""establishment"", ""point_of_interest""]",1.4353,103.7855651,True
Mandai,Mandai Estate,education,education facilities schools childcare libraries,"education facilities schools childcare libraries near Mandai Estate, Mandai, Singapore",ChIJHyby1H8U2jERcLpQogdt3pc,Star Learners @ Sembawang Place | Preschool & Childcare,"587 Sembawang Pl, Singapore 758440",4.8,51,"[""establishment"", ""point_of_interest"", ""school""]",1.43938,103.824555,True
Mandai,Mandai Estate,education,education facilities schools childcare libraries,"education facilities schools childcare libraries near Mandai Estate, Mandai, Singapore",ChIJlWuGEUET2jERN8QxATXQ-mo,SAS MS Library,"40 Woodlands Street 41, Singapore 738547",5.0,1,"[""establishment"", ""library"", ""point_of_interest""]",1.4257604,103.7754555,True
Mandai,Mandai Estate,education,education facilities schools childcare libraries,"education facilities schools childcare libraries near Mandai Estate, Mandai, Singapore",ChIJeaqovalUSisREgD2TAt83wo,Small Wonder Woodlands Close,"11 Woodlands Cl, #01-25 WOODLANDS 11, Singapore 737853",5.0,20,"[""establishment"", ""point_of_interest"", ""school""]",1.4343653,103.8024411,True
Mandai,Mandai Estate,education,education facilities schools childcare libraries,"education facilities schools childcare libraries near Mandai Estate, Mandai, Singapore",ChIJAQBU3HQT2jER6dkS1qHMOk8,Creative Land Childcare & Development Centre,"715 Woodlands Drive 70, #12-152 Block 715, Singapore 730715",5.0,1,"[""establishment"", ""point_of_interest""]",1.4419538,103.7998133,True
Mandai,Mandai Estate,education,education facilities schools childcare libraries,"education facilities schools childcare libraries near Mandai Estate, Mandai, Singapore",ChIJBYGvEQAV2jER6vbbOEyIvVk,Play & Learn Community library corner,"137 Yishun Ring Rd, Singapore 760137",,0,"[""establishment"", ""library"", ""point_of_interest""]",1.4320036,103.8300215,True
Mandai,Mandai Estate,education,education facilities schools childcare libraries,"education facilities schools childcare libraries near Mandai Estate, Mandai, Singapore",ChIJjc4Gd2IT2jERErJlDYsVmmM,Glory Joy Child Development Centre,"501B Wellington Cir, #01-06, Singapore 752501",4.8,27,"[""establishment"", ""point_of_interest"", ""school""]",1.4521332,103.8214902,True
Mandai,Mandai Estate,education,education facilities schools childcare libraries,"education facilities schools childcare libraries near Mandai Estate, Mandai, Singapore",ChIJg_ysn3UT2jERStLkDNA8vtk,Learning Media Educational Centre,"678A Woodlands Ave 6, #03-01/02, Singapore 731678",5.0,1,"[""establishment"", ""point_of_interest""]",1.4404093,103.8014336,True
Mandai,Mandai Estate,education,education facilities schools childcare libraries,"education facilities schools childcare libraries near Mandai Estate, Mandai, Singapore",ChIJga6yJcgZ2jER9mR2vO8iwFQ,Edublitz Pte Ltd,"21 Woodlands Cl, #03-10 21, Singapore 737854",5.0,2,"[""establishment"", ""point_of_interest"", ""store""]",1.4351696,103.8048721,True
Mandai,Mandai Estate,education,education facilities schools childcare libraries,"education facilities schools childcare libraries near Mandai Estate, Mandai, Singapore",ChIJ85BTqAIR2jER0elL_B7aOfM,Discovery Learners Student Care Center,"Block 541 Choa Chu Kang Street 52, #01-46, Singapore 680541",5.0,14,"[""establishment"", ""point_of_interest""]",1.3926538,103.7445298,True
Mandai,Mandai Estate,education,education facilities schools childcare libraries,"education facilities schools childcare libraries near Mandai Estate, Mandai, Singapore",ChIJZUNuRHQT2jERG1efRmPXSLs,Pine Learning Tuition Center,"#08-46 Mega@Woodlands, 39 Woodlands Cl, Singapore 737856",5.0,2,"[""establishment"", ""point_of_interest""]",1.4380218,103.8070794,True
Mandai,Mandai Estate,education,education facilities schools childcare libraries,"education facilities schools childcare libraries near Mandai Estate, Mandai, Singapore",ChIJoasOBSQS2jERT2GaOesa9PU,Manchankitta My project,"6 Mandai Estate, Singapore 729902 Mandai Estate, Singapore 729902",5.0,1,"[""establishment"", ""point_of_interest""]",1.4072626,103.7584667,True
Mandai,Mandai Estate,education,education facilities schools childcare libraries,"education facilities schools childcare libraries near Mandai Estate, Mandai, Singapore",ChIJFwBnxn0T2jERFDDiOhsMo_U,Canberra Community Club,"2 Sembawang Cres, #01-01, Singapore 757632",4.1,1059,"[""establishment"", ""point_of_interest""]",1.4449347,103.8197721,True
Mandai,Mandai Estate,education,education facilities schools childcare libraries,"education facilities schools childcare libraries near Mandai Estate, Mandai, Singapore",ChIJ2739TgoP2jERlpS4Fef772Y,Library and Information Services Centre (NIE),"1 Nanyang Walk, Singapore 637616",4.6,28,"[""establishment"", ""library"", ""point_of_interest""]",1.348661,103.677635,True
Mandai,Mandai Estate,education,education facilities schools childcare libraries,"education facilities schools childcare libraries near Mandai Estate, Mandai, Singapore",ChIJqdSp_aEV2jERZcy1OsTx3Qk,Hua Cheng Education Centre (Junction Nine),"18 Yishun Ave 9, Junction Nine, #01-81, #01-70, Singapore 768897",4.8,29,"[""establishment"", ""point_of_interest""]",1.433182,103.841643,True
Mandai,Mandai Estate,transport,public transport MRT LRT bus stops,"public transport MRT LRT bus stops near Mandai Estate, Mandai, Singapore",ChIJD6i8UnoT2jERH9M2oeqpdw0,Mandai Bus Depot,"310 Mandai Rd, Singapore 779404",3.9,27,"[""establishment"", ""point_of_interest""]",1.4166276,103.7988281,True
Mandai,Mandai Estate,transport,public transport MRT LRT bus stops,"public transport MRT LRT bus stops near Mandai Estate, Mandai, Singapore",ChIJH3t41-sT2jERDTWQCtUctAw,Aft Mandai Ave,Singapore,4.3,4,"[""establishment"", ""point_of_interest"", ""transit_station""]",1.415984,103.8020509,True
Mandai,Mandai Estate,transport,public transport MRT LRT bus stops,"public transport MRT LRT bus stops near Mandai Estate, Mandai, Singapore",ChIJl88aFcAT2jERItREYfgqTDE,Mandai Depot,"320 Mandai Rd, Singapore 779405",3.9,86,"[""establishment"", ""point_of_interest""]",1.4172688,103.7995004,True
Mandai,Mandai Estate,transport,public transport MRT LRT bus stops,"public transport MRT LRT bus stops near Mandai Estate, Mandai, Singapore",ChIJ40kM3CMS2jER2uPYx5827i8,Opp Mandai Est,Singapore,5.0,6,"[""establishment"", ""point_of_interest"", ""transit_station""]",1.4067735,103.755998,True
Mandai,Mandai Estate,transport,public transport MRT LRT bus stops,"public transport MRT LRT bus stops near Mandai Estate, Mandai, Singapore",ChIJZSNU3iMS2jERd4XUG6ROV3w,Aft Mandai Est,Singapore,4.5,6,"[""establishment"", ""point_of_interest"", ""transit_station""]",1.4061307,103.7563449,True
Mandai,Mandai Estate,transport,public transport MRT LRT bus stops,"public transport MRT LRT bus stops near Mandai Estate, Mandai, Singapore",ChIJSxBzJO8T2jEReiOCGtBI75A,Opp Mandai Crematorium,Singapore,4.3,4,"[""establishment"", ""point_of_interest"", ""transit_station""]",1.412944,103.805374,True
Mandai,Mandai Estate,transport,public transport MRT LRT bus stops,"public transport MRT LRT bus stops near Mandai Estate, Mandai, Singapore",ChIJn7frpyMS2jERJjpP3Qp2RM8,Bef Mandai Rd,Singapore,4.0,3,"[""establishment"", ""point_of_interest"", ""transit_station""]",1.4095435,103.7556006,True
Mandai,Mandai Estate,transport,public transport MRT LRT bus stops,"public transport MRT LRT bus stops near Mandai Estate, Mandai, Singapore",ChIJA0mdVFQT2jERDavDriJiyUQ,Tower Transit Singapore Pte Ltd,"310 Mandai Rd, Singapore 779404",2.2,23,"[""establishment"", ""point_of_interest""]",1.4185039,103.7980791,True
Mandai,Mandai Estate,transport,public transport MRT LRT bus stops,"public transport MRT LRT bus stops near Mandai Estate, Mandai, Singapore",ChIJmfd-s9IT2jERAkNeAuUvIuk,Mandai Camp 2,Singapore,4.4,7,"[""establishment"", ""point_of_interest"", ""transit_station""]",1.410479,103.775475,True
Mandai,Mandai Estate,transport,public transport MRT LRT bus stops,"public transport MRT LRT bus stops near Mandai Estate, Mandai, Singapore",ChIJk612VukT2jERm9bvdqimkPg,Bef Mandai Ave,Singapore,,0,"[""establishment"", ""point_of_interest"", ""transit_station""]",1.415823,103.8038731,True
Mandai,Mandai Estate,transport,public transport MRT LRT bus stops,"public transport MRT LRT bus stops near Mandai Estate, Mandai, Singapore",ChIJ2TeHBu4T2jERbQx0fA4Z5oI,Opp Mandai Crematorium & Columbarium,Singapore,2.6,5,"[""establishment"", ""point_of_interest"", ""transit_station""]",1.415571,103.809494,True
Mandai,Mandai Estate,transport,public transport MRT LRT bus stops,"public transport MRT LRT bus stops near Mandai Estate, Mandai, Singapore",ChIJp53xctIT2jERGJ8byruYVk0,Aft Mandai Lake Rd,Singapore,,0,"[""establishment"", ""point_of_interest"", ""transit_station""]",1.4109211,103.7794483,True
Mandai,Mandai Estate,transport,public transport MRT LRT bus stops,"public transport MRT LRT bus stops near Mandai Estate, Mandai, Singapore",ChIJHdRlpyMS2jERIfIliVZYOlk,Aft Mandai Rd,Singapore,,0,"[""establishment"", ""point_of_interest"", ""transit_station""]",1.4102207,103.7559253,True
Mandai,Mandai Estate,transport,public transport MRT LRT bus stops,"public transport MRT LRT bus stops near Mandai Estate, Mandai, Singapore",ChIJF3jxEtIT2jER8zD6_2V3B44,Bef Mandai Lake Rd,Singapore,5.0,1,"[""establishment"", ""point_of_interest"", ""transit_station""]",1.4105811,103.7806267,True
Mandai,Mandai Estate,transport,public transport MRT LRT bus stops,"public transport MRT LRT bus stops near Mandai Estate, Mandai, Singapore",ChIJV4O42tET2jERJlbggVv281M,Lp 159,Singapore,5.0,1,"[""establishment"", ""point_of_interest"", ""transit_station""]",1.410756,103.783211,True
Mandai,Mandai Estate,transport,public transport MRT LRT bus stops,"public transport MRT LRT bus stops near Mandai Estate, Mandai, Singapore",ChIJtUTrtC8S2jERziIhEiNcX_Q,Aft Mandai Hill Camp,Singapore,5.0,1,"[""establishment"", ""point_of_interest"", ""transit_station""]",1.4100178,103.7665478,True
Mandai,Mandai Estate,transport,public transport MRT LRT bus stops,"public transport MRT LRT bus stops near Mandai Estate, Mandai, Singapore",ChIJr7qzN9IT2jERcNioQQLxmIM,Opp Bird Paradise,Singapore,5.0,2,"[""establishment"", ""point_of_interest"", ""transit_station""]",1.409885,103.779076,True
Mandai,Mandai Estate,transport,public transport MRT LRT bus stops,"public transport MRT LRT bus stops near Mandai Estate, Mandai, Singapore",ChIJT0u2dkYS2jER3FIj6PYdAfs,Kranji,Singapore,2.8,21,"[""establishment"", ""point_of_interest"", ""transit_station""]",1.4254015,103.7620082,True
Mandai,Mandai Estate,transport,public transport MRT LRT bus stops,"public transport MRT LRT bus stops near Mandai Estate, Mandai, Singapore",ChIJyRcnxi8S2jERBkguICu9IjQ,Opp Mandai Hill Camp,Singapore,2.0,1,"[""establishment"", ""point_of_interest"", ""transit_station""]",1.410473,103.765823,True
Mandai,Mandai Estate,transport,public transport MRT LRT bus stops,"public transport MRT LRT bus stops near Mandai Estate, Mandai, Singapore",ChIJ_2n6RS0S2jERE52WQMCxyDs,Opp Mandai Camp 2,Singapore,,0,"[""establishment"", ""point_of_interest"", ""transit_station""]",1.410536,103.77449,True
Mandai,Mandai Estate,food,food dining hawker centres restaurants cafes,"food dining hawker centres restaurants cafes near Mandai Estate, Mandai, Singapore",ChIJnXGjYQAT2jER0Yr-hNsuzcI,Sentinel Foodhall,"20 Mandai Lake Rd, Bird Paradise at the Mandai Wildlife Reserve, Singapore 729825",4.4,165,"[""establishment"", ""food"", ""point_of_interest"", ""restaurant""]",1.4097285,103.7827883,True
Mandai,Mandai Estate,food,food dining hawker centres restaurants cafes,"food dining hawker centres restaurants cafes near Mandai Estate, Mandai, Singapore",ChIJrZaADQAT2jERG5ctP3kcB8Y,Food Republic Mandai Wildlife Reserve,"80 Mandai Lake Rd, #01-01/02 Mandai Wildlife EAST, Singapore 729826",3.4,69,"[""establishment"", ""food"", ""point_of_interest""]",1.4041388,103.7900508,True
Mandai,Mandai Estate,food,food dining hawker centres restaurants cafes,"food dining hawker centres restaurants cafes near Mandai Estate, Mandai, Singapore",ChIJq_KaoxET2jERyYIxb7dC-8Y,Planter's Shed,"60 Mandai Lake Rd, Level B1 Rainforest Resort by Banyan Tree, Singapore 729979",4.3,111,"[""establishment"", ""food"", ""point_of_interest"", ""restaurant""]",1.4071032,103.7907476,True
Mandai,Mandai Estate,food,food dining hawker centres restaurants cafes,"food dining hawker centres restaurants cafes near Mandai Estate, Mandai, Singapore",ChIJLyVUnQ8R2jERUApgCyTj3Pg,Senja Hawker Centre,"2 Senja Cl, Singapore 677632",4.1,1304,"[""establishment"", ""food"", ""point_of_interest"", ""restaurant""]",1.3870687,103.7607865,True
Mandai,Mandai Estate,food,food dining hawker centres restaurants cafes,"food dining hawker centres restaurants cafes near Mandai Estate, Mandai, Singapore",ChIJfXJo3JIT2jERBwVMR8HEbms,Food Central,"20 Mandai Lake Rd, Bird Paradise at the Mandai Wildlife Reserve, Singapore 729825",4.3,415,"[""establishment"", ""food"", ""point_of_interest""]",1.4050912,103.780918,True
Mandai,Mandai Estate,food,food dining hawker centres restaurants cafes,"food dining hawker centres restaurants cafes near Mandai Estate, Mandai, Singapore",ChIJD-HIEdkT2jERTPBGsoeo-dg,Ah Meng Restaurant,"80 Mandai Lake Rd, Singapore Zoo at the Mandai Wildlife Reserve, Singapore 729826",4.1,1160,"[""establishment"", ""food"", ""point_of_interest"", ""restaurant""]",1.4044329,103.7935492,True
Mandai,Mandai Estate,food,food dining hawker centres restaurants cafes,"food dining hawker centres restaurants cafes near Mandai Estate, Mandai, Singapore",ChIJWX6hZwAT2jERCJjVk3CHRmU,Cavern Restaurant,"20 Mandai Lake Rd, #02-32 Rainforest Wild Adventure WEST, Singapore 729825",4.5,1292,"[""establishment"", ""food"", ""point_of_interest"", ""restaurant""]",1.4088282,103.7810406,True
Mandai,Mandai Estate,food,food dining hawker centres restaurants cafes,"food dining hawker centres restaurants cafes near Mandai Estate, Mandai, Singapore",ChIJebuu92kT2jERtBQ6OGhKwH8,Penguin Cove Restaurant,"20 Mandai Lake Rd, Bird Paradise at the Mandai Wildlife Reserve, Singapore 729825",4.3,251,"[""establishment"", ""food"", ""point_of_interest"", ""restaurant""]",1.4065452,103.7826085,True
Mandai,Mandai Estate,food,food dining hawker centres restaurants cafes,"food dining hawker centres restaurants cafes near Mandai Estate, Mandai, Singapore",ChIJgUxbod4T2jER7OICXNgcMKU,Crimson Restaurant,"20 Mandai Lake Rd, Bird Paradise at the Mandai Wildlife Reserve, Singapore 729825",4.8,973,"[""establishment"", ""food"", ""point_of_interest"", ""restaurant""]",1.4044484,103.780802,True
Mandai,Mandai Estate,food,food dining hawker centres restaurants cafes,"food dining hawker centres restaurants cafes near Mandai Estate, Mandai, Singapore",ChIJEcljAGoU2jERqtf7wNTnNlg,Yishun Park Hawker Centre,"51 Yishun Ave 11, Singapore 768867",4.1,7320,"[""establishment"", ""food"", ""point_of_interest"", ""restaurant"", ""tourist_attraction""]",1.4250185,103.8447207,True
Mandai,Mandai Estate,food,food dining hawker centres restaurants cafes,"food dining hawker centres restaurants cafes near Mandai Estate, Mandai, Singapore",ChIJM9NDV9gT2jERDIaoRwP9YIw,Ulu Ulu Safari Restaurant,"80 Mandai Lake Rd, Night Safari at the Mandai Wildlife Reserve, Singapore 729826",3.8,882,"[""establishment"", ""food"", ""point_of_interest"", ""restaurant""]",1.4038005,103.7884284,True
Mandai,Mandai Estate,food,food dining hawker centres restaurants cafes,"food dining hawker centres restaurants cafes near Mandai Estate, Mandai, Singapore",ChIJf-MrLT8V2jERx_aVOpIuLng,Bukit Canberra Hawker Centre,"21 Canberra Link, Singapore 756973",4.2,1945,"[""establishment"", ""food"", ""point_of_interest"", ""restaurant""]",1.4489743,103.8228369,True
Mandai,Mandai Estate,food,food dining hawker centres restaurants cafes,"food dining hawker centres restaurants cafes near Mandai Estate, Mandai, Singapore",ChIJseQsTQ0Z2jERqpBTWF0Zf84,Maxwell Food Centre,"1 Kadayanallur St, Singapore 069184",4.4,23479,"[""establishment"", ""food"", ""point_of_interest"", ""restaurant"", ""tourist_attraction""]",1.2803361,103.844767,True
Mandai,Mandai Estate,food,food dining hawker centres restaurants cafes,"food dining hawker centres restaurants cafes near Mandai Estate, Mandai, Singapore",ChIJdZupgcsb2jERP1Byeb2I-24,Alexandra Village Food Centre,"120 Bukit Merah Lane 1, Singapore 150120",4.2,6383,"[""establishment"", ""food"", ""point_of_interest"", ""restaurant""]",1.2863397,103.8045184,True
Mandai,Mandai Estate,food,food dining hawker centres restaurants cafes,"food dining hawker centres restaurants cafes near Mandai Estate, Mandai, Singapore",ChIJ5Y6l4Q0Z2jERYL0KDIjT6v0,Lau Pa Sat,"18 Raffles Quay, Singapore 048582",4.4,38467,"[""establishment"", ""food"", ""point_of_interest"", ""restaurant"", ""tourist_attraction""]",1.2805121,103.8503809,True
Mandai,Mandai Estate,food,food dining hawker centres restaurants cafes,"food dining hawker centres restaurants cafes near Mandai Estate, Mandai, Singapore",ChIJ7SUpBGoa2jER31LgG0EuOmk,Holland Drive Market & Food Centre,"44 Holland Dr, Singapore 270044",4.1,3184,"[""establishment"", ""food"", ""point_of_interest"", ""restaurant""]",1.308167,103.7927992,True
Mandai,Mandai Estate,food,food dining hawker centres restaurants cafes,"food dining hawker centres restaurants cafes near Mandai Estate, Mandai, Singapore",ChIJk_idN3oU2jEReqhHxnv3lgI,Chong Pang Food Centre,"Block 105 Yishun Ring Rd, Singapore 760105",4.1,8604,"[""establishment"", ""food"", ""point_of_interest"", ""restaurant""]",1.4318039,103.8281477,True
Mandai,Mandai Estate,food,food dining hawker centres restaurants cafes,"food dining hawker centres restaurants cafes near Mandai Estate, Mandai, Singapore",ChIJv4Mk4QYa2jERlGncaOIvpW4,Adam Food Centre,"2 Adam Rd, Singapore 289876",4.2,8188,"[""establishment"", ""food"", ""point_of_interest"", ""restaurant""]",1.3240414,103.8141545,True
Mandai,Mandai Estate,food,food dining hawker centres restaurants cafes,"food dining hawker centres restaurants cafes near Mandai Estate, Mandai, Singapore",ChIJzyyRZWUb2jERYQW51dRsmjc,Margaret Drive Hawker Centre,"38A Margaret Dr, Singapore 142038",3.9,763,"[""establishment"", ""food"", ""point_of_interest"", ""restaurant""]",1.2974238,103.8047286,True
Mandai,Mandai Estate,food,food dining hawker centres restaurants cafes,"food dining hawker centres restaurants cafes near Mandai Estate, Mandai, Singapore",ChIJGxiR2ZYT2jEREX4llNf_UrE,Mandai Wildlife WEST,"20 Mandai Lake Rd, Mandai Wildlife Reserve, Singapore 729825",4.7,590,"[""establishment"", ""point_of_interest"", ""tourist_attraction""]",1.408012,103.7804473,True
Mandai,Mandai Estate,shopping,shopping groceries malls supermarkets markets,"shopping groceries malls supermarkets markets near Mandai Estate, Mandai, Singapore",ChIJjXeDH3oU2jERBV22OV1TW9A,Chong Pang City (Shopping Belt),"Block 126 Yishun Street 11, #01-427, Singapore 760126",4.4,2308,"[""establishment"", ""food"", ""point_of_interest"", ""restaurant"", ""shopping_mall""]",1.4305711,103.8272411,True
Mandai,Mandai Estate,shopping,shopping groceries malls supermarkets markets,"shopping groceries malls supermarkets markets near Mandai Estate, Mandai, Singapore",ChIJk32Wj2ET2jERlCt-VO4D4IY,Sembawang Mart,"511 Canberra Rd, Singapore 750511",3.9,815,"[""establishment"", ""point_of_interest"", ""shopping_mall""]",1.453728,103.8196335,True
Mandai,Mandai Estate,shopping,shopping groceries malls supermarkets markets,"shopping groceries malls supermarkets markets near Mandai Estate, Mandai, Singapore",ChIJqXtKrnIT2jER7Gg-cMTC1PE,Woodlands Mart,"768 Woodlands Ave 6, Singapore 730768",4.1,2689,"[""establishment"", ""point_of_interest"", ""shopping_mall""]",1.4454883,103.79799,True
Mandai,Mandai Estate,shopping,shopping groceries malls supermarkets markets,"shopping groceries malls supermarkets markets near Mandai Estate, Mandai, Singapore",ChIJg0iEvagT2jERLpza72gaJ08,Causeway Point,"1 Woodlands Sq, Singapore 738099",4.3,13829,"[""establishment"", ""point_of_interest"", ""shopping_mall""]",1.4360933,103.7859471,True
Mandai,Mandai Estate,shopping,shopping groceries malls supermarkets markets,"shopping groceries malls supermarkets markets near Mandai Estate, Mandai, Singapore",ChIJn1iEdKQb2jERjI5fTMJ7CSQ,Margaret Market,"38 Margaret Dr, Singapore 141038",4.0,222,"[""establishment"", ""point_of_interest""]",1.2977375,103.8043387,True
Mandai,Mandai Estate,shopping,shopping groceries malls supermarkets markets,"shopping groceries malls supermarkets markets near Mandai Estate, Mandai, Singapore",ChIJAQAQzRQU2jERLmj7diPcCTI,Wisteria Mall,"598 Yishun Ring Rd, Singapore 768698",4.0,1663,"[""establishment"", ""food"", ""grocery_or_supermarket"", ""point_of_interest"", ""shopping_mall"", ""store"", ""supermarket""]",1.4183525,103.8411119,True
Mandai,Mandai Estate,shopping,shopping groceries malls supermarkets markets,"shopping groceries malls supermarkets markets near Mandai Estate, Mandai, Singapore",ChIJJ6SpJdwZ2jER3cMcWGFXnTc,"Little Farms Market, Tanglin Mall (Grocery store)","163 Tanglin Rd, #02-136, Singapore 247933",4.6,273,"[""cafe"", ""establishment"", ""food"", ""grocery_or_supermarket"", ""point_of_interest"", ""restaurant"", ""store""]",1.3050246,103.8235685,True
Mandai,Mandai Estate,shopping,shopping groceries malls supermarkets markets,"shopping groceries malls supermarkets markets near Mandai Estate, Mandai, Singapore",ChIJkQR7C28U2jERWkPSjhSX7Rk,FairPrice Northpoint City,"1 North Point Drive, South Wing, B2-103/104/105/106/107 Northpoint City, Singapore 768019",4.3,1602,"[""establishment"", ""food"", ""grocery_or_supermarket"", ""point_of_interest"", ""store"", ""supermarket""]",1.4283237,103.8361483,True
Mandai,Mandai Estate,shopping,shopping groceries malls supermarkets markets,"shopping groceries malls supermarkets markets near Mandai Estate, Mandai, Singapore",ChIJTyWXW4EZ2jERvzrznx6-XSc,"Little Farms Market, Valley Point (Grocery store)","491 River Valley Rd, #01-20, Singapore 248371",4.5,862,"[""establishment"", ""food"", ""grocery_or_supermarket"", ""point_of_interest"", ""store""]",1.2931219,103.8269124,True
Mandai,Mandai Estate,shopping,shopping groceries malls supermarkets markets,"shopping groceries malls supermarkets markets near Mandai Estate, Mandai, Singapore",ChIJSZQvzO8R2jER3y3YPr6U1bQ,Limbang Shopping Centre,"Choa Chu Kang Street 51, #532 533, Singapore 680534",3.8,1625,"[""establishment"", ""point_of_interest"", ""shopping_mall""]",1.3922447,103.7432453,True
Mandai,Mandai Estate,shopping,shopping groceries malls supermarkets markets,"shopping groceries malls supermarkets markets near Mandai Estate, Mandai, Singapore",ChIJp0dC1NsT2jERgCxSHeSVzrY,Sheng Siong Supermarket,"573 Woodlands Drive 16, #02-01 Woodlands Glen, Singapore 730573",4.5,657,"[""establishment"", ""food"", ""grocery_or_supermarket"", ""point_of_interest"", ""store"", ""supermarket""]",1.4309488,103.7985447,True
Mandai,Mandai Estate,shopping,shopping groceries malls supermarkets markets,"shopping groceries malls supermarkets markets near Mandai Estate, Mandai, Singapore",ChIJM7Kvx3QZ2jER7umUFjan98g,Fajar Shopping Centre,"445 Fajar Rd, Singapore 670445",3.8,1833,"[""establishment"", ""point_of_interest"", ""shopping_mall""]",1.3838672,103.7705214,True
Mandai,Mandai Estate,shopping,shopping groceries malls supermarkets markets,"shopping groceries malls supermarkets markets near Mandai Estate, Mandai, Singapore",ChIJK52N1cUR2jERUTiO_ETnynU,One Holland Village,"7 Holland Vlg Wy, Singapore 275748",4.4,768,"[""establishment"", ""point_of_interest"", ""shopping_mall""]",1.311462,103.7937523,True
Mandai,Mandai Estate,shopping,shopping groceries malls supermarkets markets,"shopping groceries malls supermarkets markets near Mandai Estate, Mandai, Singapore",ChIJdxoTP6wT2jERQV-7uYXBgXI,Sheng Siong Supermarket,"4 Woodlands Street 12, #02-61, Singapore 738623",4.3,583,"[""establishment"", ""food"", ""grocery_or_supermarket"", ""point_of_interest"", ""store"", ""supermarket""]",1.4333206,103.7798555,True
Mandai,Mandai Estate,shopping,shopping groceries malls supermarkets markets,"shopping groceries malls supermarkets markets near Mandai Estate, Mandai, Singapore",ChIJT8tGlrMZ2jERayt-D2HOn_g,Thai Supermarket @ Aperia Mall,"12 Kallang Ave, #01-20 Aperia Mall, Singapore 339511",4.3,891,"[""establishment"", ""food"", ""grocery_or_supermarket"", ""point_of_interest"", ""store"", ""supermarket""]",1.3096539,103.8642831,True
Mandai,Mandai Estate,shopping,shopping groceries malls supermarkets markets,"shopping groceries malls supermarkets markets near Mandai Estate, Mandai, Singapore",ChIJL3h_-fMR2jERaA6mW3u-wNU,YewTee Point,"21 Choa Chu Kang North 6, Singapore 689578",4.1,2743,"[""establishment"", ""point_of_interest"", ""shopping_mall""]",1.39716,103.7468352,True
Mandai,Mandai Estate,shopping,shopping groceries malls supermarkets markets,"shopping groceries malls supermarkets markets near Mandai Estate, Mandai, Singapore",ChIJHYe2MX0T2jER6vve5JwvRvw,Sun Plaza,"30 Sembawang Dr, Singapore 757713",4.0,6097,"[""establishment"", ""point_of_interest"", ""shopping_mall""]",1.4481945,103.8196247,True
Mandai,Mandai Estate,shopping,shopping groceries malls supermarkets markets,"shopping groceries malls supermarkets markets near Mandai Estate, Mandai, Singapore",ChIJ14BXzDsT2jERaRYCDuj0c94,Sheng Siong Supermarket,"785E Woodlands Rise, #01-01, Singapore 735785",4.5,700,"[""establishment"", ""food"", ""grocery_or_supermarket"", ""point_of_interest"", ""store"", ""supermarket""]",1.4468632,103.8055899,True
Mandai,Mandai Estate,shopping,shopping groceries malls supermarkets markets,"shopping groceries malls supermarkets markets near Mandai Estate, Mandai, Singapore",ChIJk_idN3oU2jEReqhHxnv3lgI,Chong Pang Food Centre,"Block 105 Yishun Ring Rd, Singapore 760105",4.1,8604,"[""establishment"", ""food"", ""point_of_interest"", ""restaurant""]",1.4318039,103.8281477,True
Mandai,Mandai Estate,shopping,shopping groceries malls supermarkets markets,"shopping groceries malls supermarkets markets near Mandai Estate, Mandai, Singapore",ChIJTW4fr5wT2jEReGufQu0QfWQ,Vista Point,"548 Woodlands Drive 44, Singapore 730548",4.2,1249,"[""establishment"", ""point_of_interest"", ""shopping_mall""]",1.4313837,103.7938289,True
Mandai,Mandai Estate,recreation,recreation sports gyms swimming community clubs,"recreation sports gyms swimming community clubs near Mandai Estate, Mandai, Singapore",ChIJYe_UNiYV2jERlvWhqzwZneA,Bukit Canberra Sport Centre,"21 Canberra Link, Singapore 756973",4.4,75,"[""establishment"", ""point_of_interest""]",1.449033,103.8231799,True
Mandai,Mandai Estate,recreation,recreation sports gyms swimming community clubs,"recreation sports gyms swimming community clubs near Mandai Estate, Mandai, Singapore",ChIJV5hnA6wT2jERqD4CwNu0SpM,Woodlands Sport Centre,"2 Woodlands Street 12, Singapore 738599",4.1,2050,"[""establishment"", ""gym"", ""health"", ""point_of_interest"", ""stadium""]",1.434104,103.779798,True
Mandai,Mandai Estate,recreation,recreation sports gyms swimming community clubs,"recreation sports gyms swimming community clubs near Mandai Estate, Mandai, Singapore",ChIJHaFvfZgV2jER7Y7GcRY7kFk,Bukit Canberra ActiveSG Gym,"21 Canberra Link, Singapore 756973",3.8,200,"[""establishment"", ""gym"", ""health"", ""point_of_interest""]",1.4473162,103.8235641,True
Mandai,Mandai Estate,recreation,recreation sports gyms swimming community clubs,"recreation sports gyms swimming community clubs near Mandai Estate, Mandai, Singapore",ChIJ_WX9ue0R2jER865IJyACAoc,Choa Chu Kang Sport Centre,"1 Choa Chu Kang Street 53, Singapore 689236",4.2,959,"[""establishment"", ""gym"", ""health"", ""point_of_interest"", ""stadium""]",1.3910172,103.7482599,True
Mandai,Mandai Estate,recreation,recreation sports gyms swimming community clubs,"recreation sports gyms swimming community clubs near Mandai Estate, Mandai, Singapore",ChIJicZGWGkT2jERp9eMMlGkrLQ,Woodlands ActiveSG Gym,"3 Woodlands Street 13, Singapore 738600",4.0,61,"[""establishment"", ""gym"", ""health"", ""point_of_interest""]",1.4345985,103.7795611,True
Mandai,Mandai Estate,recreation,recreation sports gyms swimming community clubs,"recreation sports gyms swimming community clubs near Mandai Estate, Mandai, Singapore",ChIJs45bbr0R2jERwByR91EdWqw,Senja-Cashew Community Club,"101 Bukit Panjang Rd, Singapore 679910",4.3,1262,"[""establishment"", ""point_of_interest""]",1.381403,103.764651,True
Mandai,Mandai Estate,recreation,recreation sports gyms swimming community clubs,"recreation sports gyms swimming community clubs near Mandai Estate, Mandai, Singapore",ChIJ8bahiasT2jERqn8gbGDhwE8,SwimSafer Classes For Kids at Woodlands,"3 Woodlands Street 13, Singapore 738600",4.1,178,"[""establishment"", ""health"", ""point_of_interest"", ""school""]",1.4344994,103.7795368,True
Mandai,Mandai Estate,recreation,recreation sports gyms swimming community clubs,"recreation sports gyms swimming community clubs near Mandai Estate, Mandai, Singapore",ChIJ8yMt54sQ2jERjBRZb9swlqY,Temasek Club,"131 Rifle Range Rd, Singapore 588406",4.3,1464,"[""establishment"", ""point_of_interest""]",1.3463976,103.7805251,True
Mandai,Mandai Estate,recreation,recreation sports gyms swimming community clubs,"recreation sports gyms swimming community clubs near Mandai Estate, Mandai, Singapore",ChIJE2JYEvQT2jERWjxQ8t7lN98,Sembawang Country Club,"249 Sembawang Rd, Singapore 758352",4.2,849,"[""amusement_park"", ""establishment"", ""point_of_interest""]",1.4172148,103.8155584,True
Mandai,Mandai Estate,recreation,recreation sports gyms swimming community clubs,"recreation sports gyms swimming community clubs near Mandai Estate, Mandai, Singapore",ChIJualWQwAT2jER7hH4uHJRMXA,Woodlands Swimming Pool Female Coach | O² Fins ⭐ FREE Trial Class & Starter Kit upon signup. 88991519,"3 Woodlands Street 13, Singapore 738600",5.0,108,"[""establishment"", ""health"", ""point_of_interest"", ""school""]",1.4347677,103.7796039,True
Mandai,Mandai Estate,recreation,recreation sports gyms swimming community clubs,"recreation sports gyms swimming community clubs near Mandai Estate, Mandai, Singapore",ChIJ3cOxS-sQ2jERyNrQlDV0mOM,The British Club,"73 Bukit Tinggi Rd, Singapore 289761",4.5,641,"[""establishment"", ""point_of_interest""]",1.345869,103.792638,True
Mandai,Mandai Estate,recreation,recreation sports gyms swimming community clubs,"recreation sports gyms swimming community clubs near Mandai Estate, Mandai, Singapore",ChIJYZMTHQAT2jERWVe4Cd9_xrI,Mandai Rainforest Resort Gym,"60 Mandai Lake Rd, Level 2 Mandai Rainforest Resort by Banyan Tree, Singapore 729979",1.0,1,"[""establishment"", ""gym"", ""health"", ""point_of_interest""]",1.4068299,103.790126,True
Mandai,Mandai Estate,recreation,recreation sports gyms swimming community clubs,"recreation sports gyms swimming community clubs near Mandai Estate, Mandai, Singapore",ChIJq6qqmhEU2jER0yE06FDEo-U,Nee Soon South Community Club,"30 Yishun Street 81, Singapore 768455",4.1,354,"[""establishment"", ""point_of_interest""]",1.4149934,103.8348043,True
Mandai,Mandai Estate,recreation,recreation sports gyms swimming community clubs,"recreation sports gyms swimming community clubs near Mandai Estate, Mandai, Singapore",ChIJq1ymIRMT2jER1q1qMrhZpiY,Woodlands Recreation Centre,"200 Woodlands Industrial Pk E7, Singapore 757177",4.3,730,"[""establishment"", ""point_of_interest""]",1.4507013,103.7969076,True
Mandai,Mandai Estate,recreation,recreation sports gyms swimming community clubs,"recreation sports gyms swimming community clubs near Mandai Estate, Mandai, Singapore",ChIJq6qquv8S2jERFxNiPdcRSiY,Marsiling Community Club,"100 Admiralty Rd, Singapore 739980",4.1,595,"[""establishment"", ""point_of_interest""]",1.4408695,103.7737248,True
Mandai,Mandai Estate,recreation,recreation sports gyms swimming community clubs,"recreation sports gyms swimming community clubs near Mandai Estate, Mandai, Singapore",ChIJ9-wMbKkT2jERJojJzLw7pdA,Woodlands Sport Hall,"2 Woodlands Street 12, Singapore 738620",4.0,70,"[""establishment"", ""gym"", ""health"", ""point_of_interest""]",1.4343111,103.7796959,True
Mandai,Mandai Estate,recreation,recreation sports gyms swimming community clubs,"recreation sports gyms swimming community clubs near Mandai Estate, Mandai, Singapore",ChIJNXybHwgT2jER6Iq_DK6z-yQ,Woodlands Community Club,"1 Woodlands Street 81, Singapore 738526",4.2,987,"[""establishment"", ""point_of_interest""]",1.4398396,103.7883289,True
Mandai,Mandai Estate,recreation,recreation sports gyms swimming community clubs,"recreation sports gyms swimming community clubs near Mandai Estate, Mandai, Singapore",ChIJ4-iWlw8U2jERbtvdchPy4-o,Yishun Sport Hall,"101 Yishun Ave 1, Singapore 769130",4.0,250,"[""establishment"", ""point_of_interest""]",1.4121111,103.8313335,True
Mandai,Mandai Estate,recreation,recreation sports gyms swimming community clubs,"recreation sports gyms swimming community clubs near Mandai Estate, Mandai, Singapore",ChIJkeX4YFsa2jERDRq9DzW0FHI,ACJC Sports Complex,"25 Dover Cl E, Singapore 139745",4.1,51,"[""establishment"", ""point_of_interest""]",1.301924,103.7863617,True
Mandai,Mandai Estate,recreation,recreation sports gyms swimming community clubs,"recreation sports gyms swimming community clubs near Mandai Estate, Mandai, Singapore",ChIJQcBfzOkT2jERbEoywXVGmOI,Swim Hub,"3 Woodlands Street 13, Singapore 738600",4.0,4,"[""establishment"", ""point_of_interest""]",1.4347382,103.7795187,True
Mandai,Mandai Estate,nature,parks gardens nature waterfront park connectors,"parks gardens nature waterfront park connectors near Mandai Estate, Mandai, Singapore",ChIJied_ZdIT2jERfFB2io7NbV0,Central Catchment Park Connector,"Mandai Rd, Singapore",4.5,547,"[""establishment"", ""point_of_interest""]",1.4105867,103.7783568,True
Mandai,Mandai Estate,nature,parks gardens nature waterfront park connectors,"parks gardens nature waterfront park connectors near Mandai Estate, Mandai, Singapore",ChIJi090zPwS2jERiJCqFWoP8Z4,Woodlands Waterfront Park,"Admiralty Rd W, Singapore 759956",4.5,3993,"[""establishment"", ""park"", ""point_of_interest"", ""tourist_attraction""]",1.4530529,103.7804801,True
Mandai,Mandai Estate,nature,parks gardens nature waterfront park connectors,"parks gardens nature waterfront park connectors near Mandai Estate, Mandai, Singapore",ChIJ4QhPDSMT2jER-K6cnYYSNZw,Ulu Sembawang Park Connector,"403R Jln Ulu Sembawang, Singapore 779563",4.4,108,"[""establishment"", ""park"", ""point_of_interest""]",1.422046,103.7928186,True
Mandai,Mandai Estate,nature,parks gardens nature waterfront park connectors,"parks gardens nature waterfront park connectors near Mandai Estate, Mandai, Singapore",ChIJE-Q_WsUT2jERQKIxuGU9mGU,Mandai Park Connector,Singapore,4.2,34,"[""establishment"", ""park"", ""point_of_interest""]",1.4105744,103.779128,True
Mandai,Mandai Estate,nature,parks gardens nature waterfront park connectors,"parks gardens nature waterfront park connectors near Mandai Estate, Mandai, Singapore",ChIJBfm8PQAT2jERAhOyYquGt7M,Mandai Boardwalk,"80 Mandai Lake Rd, Mandai Wildlife Reserve, Singapore 729826",4.6,432,"[""establishment"", ""park"", ""point_of_interest""]",1.4056235,103.7911718,True
Mandai,Mandai Estate,nature,parks gardens nature waterfront park connectors,"parks gardens nature waterfront park connectors near Mandai Estate, Mandai, Singapore",ChIJkyCpkWcT2jER1Nsl0ZvOI4Q,Bird Paradise,"20 Mandai Lake Rd, Mandai Wildlife WEST, Singapore 729825",4.7,9599,"[""establishment"", ""park"", ""point_of_interest"", ""tourist_attraction"", ""zoo""]",1.4071539,103.7812684,True
Mandai,Mandai Estate,nature,parks gardens nature waterfront park connectors,"parks gardens nature waterfront park connectors near Mandai Estate, Mandai, Singapore",ChIJob735_oR2jER9np2yFqDAdA,Mandai Trail,"Bukit Timah Expy, Singapore",4.8,35,"[""establishment"", ""point_of_interest""]",1.3981092,103.7749632,True
Mandai,Mandai Estate,nature,parks gardens nature waterfront park connectors,"parks gardens nature waterfront park connectors near Mandai Estate, Mandai, Singapore",ChIJMxZeJ5sT2jERG3KCuLiIsjw,Woodlands Park Connector (SLE),Singapore,4.7,9,"[""establishment"", ""park"", ""point_of_interest""]",1.4254469,103.7905053,True
Mandai,Mandai Estate,nature,parks gardens nature waterfront park connectors,"parks gardens nature waterfront park connectors near Mandai Estate, Mandai, Singapore",ChIJGzodYQYR2jERBKbEaoMOfg8,Chestnut Nature Park,"Chestnut Ave, Singapore 679514",4.5,1588,"[""establishment"", ""park"", ""point_of_interest"", ""tourist_attraction""]",1.3760246,103.7810719,True
Mandai,Mandai Estate,nature,parks gardens nature waterfront park connectors,"parks gardens nature waterfront park connectors near Mandai Estate, Mandai, Singapore",ChIJRzglD-wR2jERgCmyEeAecXI,Choa Chu Kang Park,"Choa Chu Kang Dr, Singapore 688845",4.3,1912,"[""establishment"", ""park"", ""point_of_interest"", ""tourist_attraction""]",1.3874864,103.7474293,True
Mandai,Mandai Estate,nature,parks gardens nature waterfront park connectors,"parks gardens nature waterfront park connectors near Mandai Estate, Mandai, Singapore",ChIJpe5vTGYV2jEReK-nqDGW0JI,Hampstead Wetlands Park,"1 Baker St, Singapore 799977",4.3,381,"[""establishment"", ""park"", ""point_of_interest""]",1.4094026,103.8693039,True
Mandai,Mandai Estate,nature,parks gardens nature waterfront park connectors,"parks gardens nature waterfront park connectors near Mandai Estate, Mandai, Singapore",ChIJq_5RjPUQ2jERQZR7bzih7tw,Hindhede Nature Park,"Hindhede Dr, Singapore",4.5,970,"[""establishment"", ""park"", ""point_of_interest"", ""tourist_attraction""]",1.3491093,103.7754308,True
Mandai,Mandai Estate,nature,parks gardens nature waterfront park connectors,"parks gardens nature waterfront park connectors near Mandai Estate, Mandai, Singapore",ChIJn_BWwVUS2jERyHkVTD_-_vw,Marsiling Park,"Woodlands Centre Rd, Singapore 738930",4.2,1911,"[""establishment"", ""park"", ""point_of_interest"", ""tourist_attraction""]",1.4378367,103.7699507,True
Mandai,Mandai Estate,nature,parks gardens nature waterfront park connectors,"parks gardens nature waterfront park connectors near Mandai Estate, Mandai, Singapore",ChIJ_6g8kisX2jERaGrSixd_xbM,Windsor Nature Park,"30 Venus Dr, Singapore 573858",4.6,1759,"[""establishment"", ""park"", ""point_of_interest"", ""tourist_attraction""]",1.3566265,103.8214319,True
Mandai,Mandai Estate,nature,parks gardens nature waterfront park connectors,"parks gardens nature waterfront park connectors near Mandai Estate, Mandai, Singapore",ChIJH6JsiVUR2jERcH6ybOVyhbs,Springleaf Nature Park,"1230 Upper Thomson Rd, Singapore 787129",4.4,646,"[""establishment"", ""park"", ""point_of_interest""]",1.4011345,103.8185457,True
Mandai,Mandai Estate,nature,parks gardens nature waterfront park connectors,"parks gardens nature waterfront park connectors near Mandai Estate, Mandai, Singapore",ChIJxZfX_9gT2jERknwK8es7IHU,River Wonders,"80 Mandai Lake Rd, Singapore 729826",4.5,12325,"[""aquarium"", ""establishment"", ""park"", ""point_of_interest"", ""tourist_attraction"", ""zoo""]",1.4038498,103.7906676,True
Mandai,Mandai Estate,nature,parks gardens nature waterfront park connectors,"parks gardens nature waterfront park connectors near Mandai Estate, Mandai, Singapore",ChIJW0wCIAcR2jERAEOR0GhMljA,Zhenghua Park,"273 Bangkit Rd, Singapore 670276",4.3,566,"[""establishment"", ""park"", ""point_of_interest"", ""tourist_attraction""]",1.3771337,103.7763826,True
Mandai,Mandai Estate,nature,parks gardens nature waterfront park connectors,"parks gardens nature waterfront park connectors near Mandai Estate, Mandai, Singapore",ChIJW08LC5oU2jER6b7cHRVBP6Q,Simpang Kiri Park Connector,"Sembawang Rd, Singapore 758495",4.4,153,"[""establishment"", ""park"", ""point_of_interest"", ""tourist_attraction""]",1.4529108,103.8324722,True
Mandai,Mandai Estate,nature,parks gardens nature waterfront park connectors,"parks gardens nature waterfront park connectors near Mandai Estate, Mandai, Singapore",ChIJt_SUIbsT2jERcmX0AYkpiMg,Ulu Sembawang PCN (Mandai Rd),"Jln Ulu Sembawang, Singapore",4.4,71,"[""establishment"", ""park"", ""point_of_interest""]",1.4126059,103.7882632,True
Mandai,Mandai Estate,nature,parks gardens nature waterfront park connectors,"parks gardens nature waterfront park connectors near Mandai Estate, Mandai, Singapore",ChIJywjk7i8V2jERP6UhBhji4eU,Khatib Bongsu Park Connector,"346 Yishun Ave 11, Singapore 760346",4.6,12,"[""establishment"", ""park"", ""point_of_interest""]",1.429097,103.8431386,True
Mandai,Mandai West,education,education facilities schools childcare libraries,"education facilities schools childcare libraries near Mandai West, Mandai, Singapore",ChIJTXdxQk4b2jER4HdHnRNjvLY,HV Little Library,"2 Holland Ave, Block 2, Singapore 271002",4.9,64,"[""establishment"", ""library"", ""point_of_interest""]",1.3095115,103.7956789,True
Mandai,Mandai West,education,education facilities schools childcare libraries,"education facilities schools childcare libraries near Mandai West, Mandai, Singapore",ChIJgSLBhIAQ2jER03pM4hD-5EY,Tay Eng Soon Library,"535A Clementi Rd, Singapore 599490 Clementi Rd, Singapore 599490",4.4,7,"[""establishment"", ""library"", ""point_of_interest""]",1.3298003,103.7757296,True
Mandai,Mandai West,education,education facilities schools childcare libraries,"education facilities schools childcare libraries near Mandai West, Mandai, Singapore",ChIJ-cuboDAa2jERf6hKqh96UC0,Queenstown Library,"53 Margaret Dr, Singapore 149297",4.6,422,"[""establishment"", ""library"", ""point_of_interest""]",1.2986449,103.8051823,True
Mandai,Mandai West,education,education facilities schools childcare libraries,"education facilities schools childcare libraries near Mandai West, Mandai, Singapore",ChIJI8r3ofMb2jERIjPaEQhAVuA,"Agora Colearning (Preschool, Play School, Enrichment, Student Care)","HarbourFront Centre, 1 Maritime Square, #04-01 Lobby C, Singapore 099253",4.9,138,"[""establishment"", ""point_of_interest"", ""school""]",1.2632359,103.8201359,True
Mandai,Mandai West,education,education facilities schools childcare libraries,"education facilities schools childcare libraries near Mandai West, Mandai, Singapore",ChIJ-b9b7goa2jERaNDixhYc6Qw,Learning Vision Hwa Chong,"673 Bukit Timah Rd, Hall D Hwa Chong Institution Boarding School, Singapore 269735",4.9,25,"[""establishment"", ""point_of_interest"", ""school""]",1.3249853,103.7997397,True
Mandai,Mandai West,education,education facilities schools childcare libraries,"education facilities schools childcare libraries near Mandai West, Mandai, Singapore",ChIJKaGsJKUZ2jERxa8yhKrdPfI,National Library / Lee Kong Chian Reference Library,"100 Victoria St, Singapore 188064",4.6,1765,"[""establishment"", ""library"", ""point_of_interest""]",1.2975884,103.8543081,True
Mandai,Mandai West,education,education facilities schools childcare libraries,"education facilities schools childcare libraries near Mandai West, Mandai, Singapore",ChIJL2b6iToa2jERLPjNN7hKfIE,Children's Cove Preschool,"58 Jln Penjara, Singapore 149382",4.7,103,"[""establishment"", ""point_of_interest"", ""school""]",1.2993345,103.8071035,True
Mandai,Mandai West,education,education facilities schools childcare libraries,"education facilities schools childcare libraries near Mandai West, Mandai, Singapore",ChIJp4_y7ccR2jERSt3nPw7Te_E,Little Footprints Preschool @ ITE West,"1 Choa Chu Kang Grv, Singapore 688236",4.9,44,"[""establishment"", ""point_of_interest"", ""school""]",1.3760208,103.752942,True
Mandai,Mandai West,education,education facilities schools childcare libraries,"education facilities schools childcare libraries near Mandai West, Mandai, Singapore",ChIJAQBALo4a2jERvRLiVO2P_1U,Clementi Library,"3155 Commonwealth Avenue West #05-13/14/15 The Clementi Mall, Singapore 129588",4.2,325,"[""establishment"", ""library"", ""point_of_interest""]",1.3147165,103.7640704,True
Mandai,Mandai West,education,education facilities schools childcare libraries,"education facilities schools childcare libraries near Mandai West, Mandai, Singapore",ChIJeV9wMDAa2jERjOejs1wCWXE,"Rainbow Centre, Singapore","501 Margaret Dr, Singapore 149306",3.8,24,"[""establishment"", ""point_of_interest"", ""school""]",1.2974572,103.8085667,True
Mandai,Mandai West,education,education facilities schools childcare libraries,"education facilities schools childcare libraries near Mandai West, Mandai, Singapore",ChIJ1fYfwGAa2jERy7f1JLymou0,SP - Library & FabLab,"500 Dover Rd, Singapore 139651",4.2,34,"[""establishment"", ""library"", ""point_of_interest""]",1.3087569,103.7799417,True
Mandai,Mandai West,education,education facilities schools childcare libraries,"education facilities schools childcare libraries near Mandai West, Mandai, Singapore",ChIJ2739TgoP2jERlpS4Fef772Y,Library and Information Services Centre (NIE),"1 Nanyang Walk, Singapore 637616",4.6,28,"[""establishment"", ""library"", ""point_of_interest""]",1.348661,103.677635,True
Mandai,Mandai West,education,education facilities schools childcare libraries,"education facilities schools childcare libraries near Mandai West, Mandai, Singapore",ChIJoYeYhwga2jERj3zUHj2k3d4,Lian Wah Library,"609A Bukit Timah Rd, Singapore 269711",5.0,2,"[""establishment"", ""point_of_interest""]",1.3243861,103.8095032,True
Mandai,Mandai West,education,education facilities schools childcare libraries,"education facilities schools childcare libraries near Mandai West, Mandai, Singapore",ChIJBYGvEQAV2jER6vbbOEyIvVk,Play & Learn Community library corner,"137 Yishun Ring Rd, Singapore 760137",,0,"[""establishment"", ""library"", ""point_of_interest""]",1.4320036,103.8300215,True
Mandai,Mandai West,education,education facilities schools childcare libraries,"education facilities schools childcare libraries near Mandai West, Mandai, Singapore",ChIJnYM95Z0X2jER_N8y5iFtqqA,Kidz Treehouse,"21 Serangoon North Ave 4, Singapore 555855",4.6,42,"[""establishment"", ""point_of_interest""]",1.3728523,103.8745871,True
Mandai,Mandai West,education,education facilities schools childcare libraries,"education facilities schools childcare libraries near Mandai West, Mandai, Singapore",ChIJXUcW3pgb2jERZIyrnp5n5Wk,C J Koh Law Library,"20 College Ave E, Singapore 138529",4.5,15,"[""establishment"", ""library"", ""point_of_interest""]",1.3071359,103.7725613,True
Mandai,Mandai West,education,education facilities schools childcare libraries,"education facilities schools childcare libraries near Mandai West, Mandai, Singapore",ChIJf5_pqVIS2jERAkF9nM8cvqk,Little Muslim Readers (Woodlands),"11 Woodlands Cl, Singapore 737853",5.0,1,"[""establishment"", ""point_of_interest""]",1.4343653,103.8024411,True
Mandai,Mandai West,education,education facilities schools childcare libraries,"education facilities schools childcare libraries near Mandai West, Mandai, Singapore",ChIJqVqJA6YT2jERen84koMFzGM,Woodlands Library,"900 S Woodlands Dr, #01-03 Civic Centre, Singapore 730900",4.3,488,"[""establishment"", ""library"", ""point_of_interest""]",1.4349053,103.78678,True
Mandai,Mandai West,education,education facilities schools childcare libraries,"education facilities schools childcare libraries near Mandai West, Mandai, Singapore",ChIJw8IVMqk92jERhPm5ecCjtU8,Brave Feats Student Care (Bedok),"21 Bedok North Street 1, #02-02 Common Ground Civics Centre, Singapore 469659",5.0,33,"[""establishment"", ""point_of_interest""]",1.3269455,103.9308431,True
Mandai,Mandai West,education,education facilities schools childcare libraries,"education facilities schools childcare libraries near Mandai West, Mandai, Singapore",ChIJ5-Dtl-kR2jERllI9-1NpYVY,Choa Chu Kang Library,"21 Choa Chu Kang Avenue 4 #04-01/02 and #05-06, Lot One Shopper’s Mall, Singapore 689812",4.3,280,"[""establishment"", ""library"", ""point_of_interest""]",1.384977,103.7452205,True
Mandai,Mandai West,transport,public transport MRT LRT bus stops,"public transport MRT LRT bus stops near Mandai West, Mandai, Singapore",ChIJD6i8UnoT2jERH9M2oeqpdw0,Mandai Bus Depot,"310 Mandai Rd, Singapore 779404",3.9,27,"[""establishment"", ""point_of_interest""]",1.4166276,103.7988281,True
Mandai,Mandai West,transport,public transport MRT LRT bus stops,"public transport MRT LRT bus stops near Mandai West, Mandai, Singapore",ChIJl88aFcAT2jERItREYfgqTDE,Mandai Depot,"320 Mandai Rd, Singapore 779405",3.9,86,"[""establishment"", ""point_of_interest""]",1.4172688,103.7995004,True
Mandai,Mandai West,transport,public transport MRT LRT bus stops,"public transport MRT LRT bus stops near Mandai West, Mandai, Singapore",ChIJZSNU3iMS2jERd4XUG6ROV3w,Aft Mandai Est,Singapore,4.5,6,"[""establishment"", ""point_of_interest"", ""transit_station""]",1.4061307,103.7563449,True
Mandai,Mandai West,transport,public transport MRT LRT bus stops,"public transport MRT LRT bus stops near Mandai West, Mandai, Singapore",ChIJ40kM3CMS2jER2uPYx5827i8,Opp Mandai Est,Singapore,5.0,6,"[""establishment"", ""point_of_interest"", ""transit_station""]",1.4067735,103.755998,True
Mandai,Mandai West,transport,public transport MRT LRT bus stops,"public transport MRT LRT bus stops near Mandai West, Mandai, Singapore",ChIJH3t41-sT2jERDTWQCtUctAw,Aft Mandai Ave,Singapore,4.3,4,"[""establishment"", ""point_of_interest"", ""transit_station""]",1.415984,103.8020509,True
Mandai,Mandai West,transport,public transport MRT LRT bus stops,"public transport MRT LRT bus stops near Mandai West, Mandai, Singapore",ChIJn7frpyMS2jERJjpP3Qp2RM8,Bef Mandai Rd,Singapore,4.0,3,"[""establishment"", ""point_of_interest"", ""transit_station""]",1.4095435,103.7556006,True
Mandai,Mandai West,transport,public transport MRT LRT bus stops,"public transport MRT LRT bus stops near Mandai West, Mandai, Singapore",ChIJA0mdVFQT2jERDavDriJiyUQ,Tower Transit Singapore Pte Ltd,"310 Mandai Rd, Singapore 779404",2.2,23,"[""establishment"", ""point_of_interest""]",1.4185039,103.7980791,True
Mandai,Mandai West,transport,public transport MRT LRT bus stops,"public transport MRT LRT bus stops near Mandai West, Mandai, Singapore",ChIJmfd-s9IT2jERAkNeAuUvIuk,Mandai Camp 2,Singapore,4.4,7,"[""establishment"", ""point_of_interest"", ""transit_station""]",1.410479,103.775475,True
Mandai,Mandai West,transport,public transport MRT LRT bus stops,"public transport MRT LRT bus stops near Mandai West, Mandai, Singapore",ChIJmTEjztMT2jER9BFLh7GbK54,Mandai Wildlife WEST,Singapore,3.0,1,"[""establishment"", ""point_of_interest"", ""transit_station""]",1.4086,103.78029,True
Mandai,Mandai West,transport,public transport MRT LRT bus stops,"public transport MRT LRT bus stops near Mandai West, Mandai, Singapore",ChIJ7_fOrtkT2jERHYoWSOW967A,S'pore Zoo,Singapore,4.3,28,"[""bus_station"", ""establishment"", ""point_of_interest"", ""transit_station""]",1.404624,103.78936,True
Mandai,Mandai West,transport,public transport MRT LRT bus stops,"public transport MRT LRT bus stops near Mandai West, Mandai, Singapore",ChIJHdRlpyMS2jERIfIliVZYOlk,Aft Mandai Rd,Singapore,,0,"[""establishment"", ""point_of_interest"", ""transit_station""]",1.4102207,103.7559253,True
Mandai,Mandai West,transport,public transport MRT LRT bus stops,"public transport MRT LRT bus stops near Mandai West, Mandai, Singapore",ChIJSxBzJO8T2jEReiOCGtBI75A,Opp Mandai Crematorium,Singapore,4.3,4,"[""establishment"", ""point_of_interest"", ""transit_station""]",1.412944,103.805374,True
Mandai,Mandai West,transport,public transport MRT LRT bus stops,"public transport MRT LRT bus stops near Mandai West, Mandai, Singapore",ChIJ80ix5Gga2jERdXgSC68O6Xs,Ghim Moh Ter,Singapore,4.5,11,"[""establishment"", ""point_of_interest"", ""transit_station""]",1.3110525,103.7893395,True
Mandai,Mandai West,transport,public transport MRT LRT bus stops,"public transport MRT LRT bus stops near Mandai West, Mandai, Singapore",ChIJdbrkeBIU2jERsQIAy-echaA,Khatib MRT Station (NS14) Exit A Pick Up Point,Singapore,4.3,13,"[""establishment"", ""point_of_interest"", ""transit_station""]",1.41756,103.83324,True
Mandai,Mandai West,transport,public transport MRT LRT bus stops,"public transport MRT LRT bus stops near Mandai West, Mandai, Singapore",ChIJox37CGEa2jERvtedS0eQ6FA,Dover Stn Exit A,Singapore,4.6,7,"[""establishment"", ""point_of_interest"", ""transit_station""]",1.311234,103.778381,True
Mandai,Mandai West,transport,public transport MRT LRT bus stops,"public transport MRT LRT bus stops near Mandai West, Mandai, Singapore",ChIJp53xctIT2jERGJ8byruYVk0,Aft Mandai Lake Rd,Singapore,,0,"[""establishment"", ""point_of_interest"", ""transit_station""]",1.4109211,103.7794483,True
Mandai,Mandai West,transport,public transport MRT LRT bus stops,"public transport MRT LRT bus stops near Mandai West, Mandai, Singapore",ChIJ2TeHBu4T2jERbQx0fA4Z5oI,Opp Mandai Crematorium & Columbarium,Singapore,2.6,5,"[""establishment"", ""point_of_interest"", ""transit_station""]",1.415571,103.809494,True
Mandai,Mandai West,transport,public transport MRT LRT bus stops,"public transport MRT LRT bus stops near Mandai West, Mandai, Singapore",ChIJs1aS9Gka2jERf5Yy6qKs94Y,Buona Vista Ter,Singapore,3.1,11,"[""establishment"", ""point_of_interest"", ""transit_station""]",1.30917,103.792366,True
Mandai,Mandai West,transport,public transport MRT LRT bus stops,"public transport MRT LRT bus stops near Mandai West, Mandai, Singapore",ChIJk612VukT2jERm9bvdqimkPg,Bef Mandai Ave,Singapore,,0,"[""establishment"", ""point_of_interest"", ""transit_station""]",1.415823,103.8038731,True
Mandai,Mandai West,transport,public transport MRT LRT bus stops,"public transport MRT LRT bus stops near Mandai West, Mandai, Singapore",ChIJF3jxEtIT2jER8zD6_2V3B44,Bef Mandai Lake Rd,Singapore,5.0,1,"[""establishment"", ""point_of_interest"", ""transit_station""]",1.4105811,103.7806267,True
Mandai,Mandai West,food,food dining hawker centres restaurants cafes,"food dining hawker centres restaurants cafes near Mandai West, Mandai, Singapore",ChIJnXGjYQAT2jER0Yr-hNsuzcI,Sentinel Foodhall,"20 Mandai Lake Rd, Bird Paradise at the Mandai Wildlife Reserve, Singapore 729825",4.4,165,"[""establishment"", ""food"", ""point_of_interest"", ""restaurant""]",1.4097285,103.7827883,True
Mandai,Mandai West,food,food dining hawker centres restaurants cafes,"food dining hawker centres restaurants cafes near Mandai West, Mandai, Singapore",ChIJq_KaoxET2jERyYIxb7dC-8Y,Planter's Shed,"60 Mandai Lake Rd, Level B1 Rainforest Resort by Banyan Tree, Singapore 729979",4.3,111,"[""establishment"", ""food"", ""point_of_interest"", ""restaurant""]",1.4071032,103.7907476,True
Mandai,Mandai West,food,food dining hawker centres restaurants cafes,"food dining hawker centres restaurants cafes near Mandai West, Mandai, Singapore",ChIJrZaADQAT2jERG5ctP3kcB8Y,Food Republic Mandai Wildlife Reserve,"80 Mandai Lake Rd, #01-01/02 Mandai Wildlife EAST, Singapore 729826",3.4,69,"[""establishment"", ""food"", ""point_of_interest""]",1.4041388,103.7900508,True
Mandai,Mandai West,food,food dining hawker centres restaurants cafes,"food dining hawker centres restaurants cafes near Mandai West, Mandai, Singapore",ChIJfXJo3JIT2jERBwVMR8HEbms,Food Central,"20 Mandai Lake Rd, Bird Paradise at the Mandai Wildlife Reserve, Singapore 729825",4.3,415,"[""establishment"", ""food"", ""point_of_interest""]",1.4050912,103.780918,True
Mandai,Mandai West,food,food dining hawker centres restaurants cafes,"food dining hawker centres restaurants cafes near Mandai West, Mandai, Singapore",ChIJdZupgcsb2jERP1Byeb2I-24,Alexandra Village Food Centre,"120 Bukit Merah Lane 1, Singapore 150120",4.2,6383,"[""establishment"", ""food"", ""point_of_interest"", ""restaurant""]",1.2863397,103.8045184,True
Mandai,Mandai West,food,food dining hawker centres restaurants cafes,"food dining hawker centres restaurants cafes near Mandai West, Mandai, Singapore",ChIJebuu92kT2jERtBQ6OGhKwH8,Penguin Cove Restaurant,"20 Mandai Lake Rd, Bird Paradise at the Mandai Wildlife Reserve, Singapore 729825",4.3,251,"[""establishment"", ""food"", ""point_of_interest"", ""restaurant""]",1.4065452,103.7826085,True
Mandai,Mandai West,food,food dining hawker centres restaurants cafes,"food dining hawker centres restaurants cafes near Mandai West, Mandai, Singapore",ChIJgUxbod4T2jER7OICXNgcMKU,Crimson Restaurant,"20 Mandai Lake Rd, Bird Paradise at the Mandai Wildlife Reserve, Singapore 729825",4.8,973,"[""establishment"", ""food"", ""point_of_interest"", ""restaurant""]",1.4044484,103.780802,True
