{"type": "FeatureCollection", "features": [{"type": "Feature", "geometry": {"type": "Point", "coordinates": [103.8403767, 1.3027978]}, "properties": {"addr:housenumber": "51", "amenity": "school", "name": "ACC EduHub", "@id": "node/521081225"}}, {"type": "Feature", "geometry": {"type": "Point", "coordinates": [103.8696897, 1.387266]}, "properties": {"addr:unit": "02-09", "amenity": "school", "contact:phone": "+6562555060", "name": "Hua Language Centre", "opening_hours": "Mo-Fr 11:00-21:00; Sa-Su 09:00-18:00", "wheelchair": "yes", "@id": "node/1703872641"}}, {"type": "Feature", "geometry": {"type": "Point", "coordinates": [103.8696218, 1.3872695]}, "properties": {"addr:unit": "02-10", "amenity": "school", "contact:phone": "+65 6762 7783", "name": "Jan & Elly English Language School", "opening_hours": "Mo-Fr 12:00-21:00; Sa-Su 09:00-18:00", "wheelchair": "yes", "@id": "node/1703872645"}}, {"type": "Feature", "geometry": {"type": "Point", "coordinates": [103.8379257, 1.3386291]}, "properties": {"amenity": "school", "@id": "node/1800164471"}}, {"type": "Feature", "geometry": {"type": "Point", "coordinates": [103.8490994, 1.3800986]}, "properties": {"addr:city": "Singapore", "addr:housenumber": "180", "addr:postcode": "569830", "addr:street": "Ang Mo Kio Avenue 8", "alt_name": "NYP", "amenity": "school", "contact:phone": "+6564515115", "contact:website": "http://www.nyp.edu.sg/", "designation": "Polytechnic", "name": "Nanyang Polytechnic", "name:zh": "南洋理工学院", "@id": "node/2259614601"}}, {"type": "Feature", "geometry": {"type": "Point", "coordinates": [103.8563216, 1.3775869]}, "properties": {"addr:housename": "ITE College Central", "addr:housenumber": "2", "addr:postcode": "567720", "addr:street": "Ang Mo Kio Drive", "amenity": "school", "name": "ITE College Central", "name:ms": "Institut Pendidikan Teknikal Kolej Pusat", "name:zh": "工艺教育学院中区学院", "@id": "node/2309322675"}}, {"type": "Feature", "geometry": {"type": "Point", "coordinates": [103.6834422, 1.3304504]}, "properties": {"amenity": "school", "name": "SAFTI Military Institute", "wikidata": "Q7388536", "wikipedia": "en:SAFTI Military Institute", "@id": "node/2656671581"}}, {"type": "Feature", "geometry": {"type": "Point", "coordinates": [103.8204181, 1.406648]}, "properties": {"amenity": "school", "name": "Madrasah At-Tahzibiah Al-Islamiah", "@id": "node/2678378796"}}, {"type": "Feature", "geometry": {"type": "Point", "coordinates": [103.8180784, 1.2822628]}, "properties": {"addr:city": "Singapore", "addr:country": "SG", "addr:housename": "Eager Beaver Schoolhouse", "addr:housenumber": "3500A", "addr:postcode": "159838", "addr:street": "Bukit Merah Central", "amenity": "school", "email": "eb2@eb.sg", "fax": "+65 6377 1435", "name": "Eager Beaver Schoolhouse @ Bukit Merah Central", "opening_hours": "Mo-Fr 07:00-19:00; Sa 07:00-14:00", "operator": "Eager Beaver Group Pte Ltd.", "phone": "+65 6377 3619", "website": "http://www.eb.sg/", "@id": "node/3750596338"}}, {"type": "Feature", "geometry": {"type": "Point", "coordinates": [103.8474726, 1.2817516]}, "properties": {"addr:city": "Singapore", "addr:country": "SG", "addr:housenumber": "105", "addr:postcode": "069925", "addr:street": "Amoy Street", "amenity": "school", "email": "info.academy@citikids.com.sg", "name": "Citikids Academy", "phone": "+65 6220 9282", "website": "http://citikids.com.sg/", "@id": "node/3758967880"}}, {"type": "Feature", "geometry": {"type": "Point", "coordinates": [103.8917376, 1.3111407]}, "properties": {"amenity": "school", "name": "Chin Lien Bible Seminary", "@id": "node/4033006542"}}, {"type": "Feature", "geometry": {"type": "Point", "coordinates": [103.6823534, 1.3473411]}, "properties": {"addr:housenumber": "65", "addr:postcode": "637460", "addr:street": "Nanyang Drive", "amenity": "school", "name": "Air Traffic Management Research Institute", "opening_hours": "Mo-Fr 08:30-17:45", "website": "http://atmri.ntu.edu.sg", "@id": "node/4208133205"}}, {"type": "Feature", "geometry": {"type": "Point", "coordinates": [103.8460419, 1.3176739]}, "properties": {"addr:street": "Essex Road", "amenity": "school", "name": "SJIJ", "opening_hours": "Mo-Su 10:00-12:00", "wheelchair": "yes", "@id": "node/4232045591"}}, {"type": "Feature", "geometry": {"type": "Point", "coordinates": [103.8249617, 1.2909395]}, "properties": {"addr:housenumber": "2", "addr:postcode": "159919", "addr:street": "Alexandra Road", "amenity": "school", "name": "Little Skool-House Delta House", "phone": "+6569042129", "@id": "node/4392986689"}}, {"type": "Feature", "geometry": {"type": "Point", "coordinates": [103.7979765, 1.3048653]}, "properties": {"amenity": "school", "name": "Big Bubble Dive Centre", "name:en": "Big Bubble Dive Centre", "@id": "node/4437432391"}}, {"type": "Feature", "geometry": {"type": "Point", "coordinates": [103.8593653, 1.3035327]}, "properties": {"amenity": "school", "name": "The Dive Company", "name:en": "The Dive Company", "@id": "node/4437447103"}}, {"type": "Feature", "geometry": {"type": "Point", "coordinates": [103.8815789, 1.3155564]}, "properties": {"addr:street": "Ajunied Road", "amenity": "school", "name": "Sunny Cove LLP Dive School", "name:en": "Sunny Cove LLP Dive School", "source": "Kaart Ground Survey 2017", "@id": "node/4437490297"}}, {"type": "Feature", "geometry": {"type": "Point", "coordinates": [103.7934627, 1.3016693]}, "properties": {"addr:city": "Singapore", "addr:housenumber": "3", "addr:postcode": "138623", "addr:street": "Biopolis Drive", "amenity": "school", "name": "MindChamps PreSchool @ Biopolis", "operator": "MindChamps", "@id": "node/4631679471"}}, {"type": "Feature", "geometry": {"type": "Point", "coordinates": [103.875052, 1.3500698]}, "properties": {"addr:housenumber": "417", "addr:postcode": "550417", "addr:street": "Serangoon Central", "amenity": "school", "name": "SparkleTots Pre-school", "@id": "node/4801195521"}}, {"type": "Feature", "geometry": {"type": "Point", "coordinates": [103.7597575, 1.3131754]}, "properties": {"addr:housenumber": "60", "addr:postcode": "127790", "addr:street": "West Coast Lane", "amenity": "school", "email": "ashinjayatissa@gmail.com", "name": "Thit Sar Parami", "phone": "+65 6524 6344", "website": "http://thitsarparamisociety.com", "@id": "node/4875506021"}}, {"type": "Feature", "geometry": {"type": "Point", "coordinates": [103.8318682, 1.3077267]}, "properties": {"addr:city": "Singapore", "addr:floor": "3", "addr:housenumber": "8", "addr:street": "Claymore Hill", "addr:unit": "1", "amenity": "school", "name": "General Assembly", "opening_hours": "Mo-Fr 08:30-22:00, Sa 09:00-17:00", "operator": "General Assembly", "@id": "node/4879546374"}}, {"type": "Feature", "geometry": {"type": "Point", "coordinates": [103.719728, 1.3373631]}, "properties": {"amenity": "school", "name": "Pro-Teach Education", "name:en": "Pro-Teach Education", "@id": "node/4999308121"}}, {"type": "Feature", "geometry": {"type": "Point", "coordinates": [103.9049886, 1.3061535]}, "properties": {"amenity": "school", "name": "Raymond Studio", "@id": "node/5414652930"}}, {"type": "Feature", "geometry": {"type": "Point", "coordinates": [103.9070331, 1.3075331]}, "properties": {"amenity": "school", "name": "Staccato Music School", "@id": "node/5414652969"}}, {"type": "Feature", "geometry": {"type": "Point", "coordinates": [103.7941745, 1.2964558]}, "properties": {"amenity": "school", "name": "Centre Stage School of the Arts", "website": "http://www.centre-stage.com/", "@id": "node/5610129659"}}, {"type": "Feature", "geometry": {"type": "Point", "coordinates": [103.8484435, 1.3373271]}, "properties": {"addr:postcode": "319579", "amenity": "school", "name": "PSB Academy STEM Campus", "name:en": "PSB Academy STEM Campus", "website": "https://www.psb-academy.edu.sg/", "@id": "node/5809722253"}}, {"type": "Feature", "geometry": {"type": "Point", "coordinates": [103.8416396, 1.4332012]}, "properties": {"addr:city": "Singapore", "addr:housenumber": "iMatter Learning Centre", "addr:postcode": "768897", "addr:street": "18 Yishun Avenue 9 #02-48", "amenity": "school", "description": "iMatter Learning Centre provides tuition and enrichment programmes for students in Yishun in primary, secondary and JC levels. iMatter Learning Centre offers subjects in English, Math, Science, Chinese and General Paper. ", "email": "info@imatter.com.sg", "name": "iMatter Learning Centre", "phone": "+65 3159 0934", "website": "https://imatter.com.sg", "@id": "node/5867550483"}}, {"type": "Feature", "geometry": {"type": "Point", "coordinates": [103.7836142, 1.2957549]}, "properties": {"amenity": "school", "name": "Faculty of Dentistry", "name:ms": "Fakulti Pergigian", "name:zh": "牙科学院", "@id": "node/5889956922"}}, {"type": "Feature", "geometry": {"type": "Point", "coordinates": [103.8357575, 1.3010033]}, "properties": {"amenity": "school", "level": "4", "name": "MADDspace", "@id": "node/6356102180"}}, {"type": "Feature", "geometry": {"type": "Point", "coordinates": [103.8690631, 1.3421391]}, "properties": {"amenity": "school", "name": "Singapore Power Training Institute", "@id": "node/6408191823"}}, {"type": "Feature", "geometry": {"type": "Point", "coordinates": [103.8204705, 1.2650858]}, "properties": {"amenity": "school", "level": "2", "name": "I Can Read", "wheelchair": "yes", "@id": "node/6549175945"}}, {"type": "Feature", "geometry": {"type": "Point", "coordinates": [103.8204957, 1.2649537]}, "properties": {"amenity": "school", "level": "2", "name": "Heguru Method Learning Centre", "wheelchair": "yes", "@id": "node/6549175977"}}, {"type": "Feature", "geometry": {"type": "Point", "coordinates": [103.8414605, 1.2803337]}, "properties": {"addr:city": "Singapore", "addr:country": "SG", "addr:housenumber": "41", "addr:postcode": "089146", "addr:street": "Keong Saik Road", "amenity": "school", "email": "enquiries@focusmusic.com.sg", "fax": "+65 64381257", "name": "Focus Music", "phone": "+65 64381256", "website": "https://www.focusmusic.com.sg/", "@id": "node/6565840216"}}, {"type": "Feature", "geometry": {"type": "Point", "coordinates": [103.9018483, 1.4062209]}, "properties": {"amenity": "school", "level": "1", "name": "Heguru Education Centre", "@id": "node/6639726980"}}, {"type": "Feature", "geometry": {"type": "Point", "coordinates": [103.8325514, 1.3071636]}, "properties": {"amenity": "school", "name": "NPS International School", "@id": "node/6723230386"}}, {"type": "Feature", "geometry": {"type": "Point", "coordinates": [103.8470822, 1.2892813]}, "properties": {"amenity": "school", "level": "2", "name": "3dsense Media School", "operator:type": "private", "@id": "node/6780648696"}}, {"type": "Feature", "geometry": {"type": "Point", "coordinates": [103.9191042, 1.3252259]}, "properties": {"amenity": "school", "full_name": "Land Transport Authority Academy", "name": "LTA Rail Academy", "@id": "node/6844598763"}}, {"type": "Feature", "geometry": {"type": "Point", "coordinates": [103.8423226, 1.2470486]}, "properties": {"addr:unit": "#01-17", "amenity": "school", "email": "info@quips.edu.sg", "name": "Quayside Isle Preparatory School", "phone": "+65 6235 7527", "website": "https://www.quips.edu.sg/", "@id": "node/7148565670"}}, {"type": "Feature", "geometry": {"type": "Point", "coordinates": [103.8421784, 1.2466333]}, "properties": {"addr:unit": "#01-15", "amenity": "school", "email": "sentosa@invictus.school", "name": "Invictus International School", "phone": "+65 6694 5088", "website": "https://www.sentosa.invictus.school/", "@id": "node/7148565678"}}, {"type": "Feature", "geometry": {"type": "Point", "coordinates": [103.8266078, 1.2864237]}, "properties": {"amenity": "school", "level": "3", "name": "HiArt", "@id": "node/8460232065"}}, {"type": "Feature", "geometry": {"type": "Point", "coordinates": [103.8279807, 1.2862383]}, "properties": {"amenity": "school", "level": "1", "name": "Confucius Mandarin Institute", "name:zh": "孔子书院", "@id": "node/8460232068"}}, {"type": "Feature", "geometry": {"type": "Point", "coordinates": [103.8279814, 1.2863194]}, "properties": {"amenity": "school", "level": "1", "name": "Stalford Learning Centre", "@id": "node/8460232070"}}, {"type": "Feature", "geometry": {"type": "Point", "coordinates": [103.828089, 1.2862248]}, "properties": {"amenity": "school", "level": "1", "name": "Kent Ridge Education", "@id": "node/8460232071"}}, {"type": "Feature", "geometry": {"type": "Point", "coordinates": [103.8290983, 1.286091]}, "properties": {"amenity": "school", "level": "1", "name": "AGrader Learning Centre", "@id": "node/8460300249"}}, {"type": "Feature", "geometry": {"type": "Point", "coordinates": [103.87399, 1.348775]}, "properties": {"alt_name": "DAS Serangoon Learning Centre", "amenity": "school", "level": "0", "name": "Dyslexia Association of Singapore Serangoon Learning Centre", "@id": "node/8496084411"}}, {"type": "Feature", "geometry": {"type": "Point", "coordinates": [103.847908, 1.3717566]}, "properties": {"amenity": "school", "level": "1", "name": "Artlette", "school": "art", "@id": "node/8556333490"}}, {"type": "Feature", "geometry": {"type": "Point", "coordinates": [103.8285461, 1.3062686]}, "properties": {"amenity": "school", "level": "3", "name": "Julia Gabriel Centre", "@id": "node/8566563490"}}, {"type": "Feature", "geometry": {"type": "Point", "coordinates": [103.8502117, 1.333447]}, "properties": {"amenity": "school", "description": "teaches programming for ages 7-16", "name": "Computhink", "@id": "node/8627982673"}}, {"type": "Feature", "geometry": {"type": "Point", "coordinates": [103.9020743, 1.4169341]}, "properties": {"amenity": "school", "level": "2", "name": "Tree Art", "@id": "node/9269072796"}}, {"type": "Feature", "geometry": {"type": "Point", "coordinates": [103.902145, 1.4167637]}, "properties": {"addr:unit": "06", "amenity": "school", "level": "2", "name": "Play Facto School", "@id": "node/9269072802"}}, {"type": "Feature", "geometry": {"type": "Point", "coordinates": [103.8361818, 1.352923]}, "properties": {"addr:unit": "05", "amenity": "school", "description": "specializing in communication and public speaking", "level": "0", "name": "J Carter Centre", "@id": "node/9271015953"}}, {"type": "Feature", "geometry": {"type": "Point", "coordinates": [103.7836366, 1.336727]}, "properties": {"amenity": "school", "level": "0", "name": "Happy Art Loft", "shop": "craft", "@id": "node/9331327384"}}, {"type": "Feature", "geometry": {"type": "Point", "coordinates": [103.862368, 1.3024208]}, "properties": {"addr:unit": "26", "amenity": "school", "description": "conducts coding classes", "education": "school", "level": "1", "max_age": "15", "min_age": "8", "name": "Code Bright", "@id": "node/9574586562"}}, {"type": "Feature", "geometry": {"type": "Point", "coordinates": [103.816058, 1.2842802]}, "properties": {"amenity": "school", "name": "Acetek baking school", "@id": "node/9674875220"}}, {"type": "Feature", "geometry": {"type": "Point", "coordinates": [103.9016351, 1.3040597]}, "properties": {"addr:unit": "27/28", "amenity": "school", "description": "learning centre for chess", "level": "1", "name": "Chess Academy (Singapore)", "sport": "chess", "@id": "node/9710656516"}}, {"type": "Feature", "geometry": {"type": "Point", "coordinates": [103.9040726, 1.3048359]}, "properties": {"addr:unit": "02", "amenity": "school", "level": "-1", "name": "Art Zillions", "@id": "node/9710728210"}}, {"type": "Feature", "geometry": {"type": "Point", "coordinates": [103.9029959, 1.3037821]}, "properties": {"amenity": "school", "description": "art school for young children", "level": "2", "name": "Art Zone", "@id": "node/9710736633"}}, {"type": "Feature", "geometry": {"type": "Point", "coordinates": [103.8963174, 1.3931066]}, "properties": {"alt_name": "DAS Sengkang Learning Centre", "amenity": "school", "name": "Dyslexia Association Of Singapore Sengkang Learning Centre", "start_date": "2011-09-06", "@id": "node/9852383494"}}, {"type": "Feature", "geometry": {"type": "Point", "coordinates": [103.6816202, 1.3461885]}, "properties": {"amenity": "school", "@id": "node/9882332360"}}, {"type": "Feature", "geometry": {"type": "Point", "coordinates": [103.855961, 1.2899202]}, "properties": {"addr:unit": "20", "amenity": "school", "level": "1", "name": "Hiart", "@id": "node/10015152434"}}, {"type": "Feature", "geometry": {"type": "Point", "coordinates": [103.9059361, 1.4103158]}, "properties": {"addr:unit": "03", "amenity": "school", "level": "3", "name": "Artary Academy of Children's Art", "@id": "node/10102513982"}}, {"type": "Feature", "geometry": {"type": "Point", "coordinates": [103.9549587, 1.3788187]}, "properties": {"amenity": "school", "name": "Happy Fish Swim School", "@id": "node/10218223461"}}, {"type": "Feature", "geometry": {"type": "Point", "coordinates": [103.7816726, 1.2959872]}, "properties": {"amenity": "school", "name": "Yong Loo Lin School of Medicine", "name:ms": "Sekolah Perubatan Yong Loo Lin", "name:zh": "杨潞龄医学院", "@id": "node/10696385536"}}, {"type": "Feature", "geometry": {"type": "Point", "coordinates": [103.7751337, 1.3033535]}, "properties": {"amenity": "school", "name": "Maya Angelou House (UWCSEA Dover Campus)", "name:zh": "曼德拉2号屋 （UWCSEA 杜佛校园）", "@id": "node/10701809841"}}, {"type": "Feature", "geometry": {"type": "Point", "coordinates": [103.7751516, 1.3029402]}, "properties": {"amenity": "school", "name": "Nelson Mandela House (UWCSEA Dover Campus)", "name:zh": "曼德拉1号屋 （UWCSEA 杜佛校园）", "@id": "node/10722581179"}}, {"type": "Feature", "geometry": {"type": "Point", "coordinates": [103.7756836, 1.3025636]}, "properties": {"amenity": "school", "name": "Kurt Hahn House (UWCSEA Dover Campus)", "name:zh": "哈恩屋 （UWCSEA 杜佛校园）", "@id": "node/10722581180"}}, {"type": "Feature", "geometry": {"type": "Point", "coordinates": [103.8965304, 1.316476]}, "properties": {"amenity": "school", "name": "culinary studio", "@id": "node/10804191705"}}, {"type": "Feature", "geometry": {"type": "Point", "coordinates": [103.7721852, 1.2960133]}, "properties": {"amenity": "school", "name": "Asia Research Institute", "name:zh": "亚洲研究所", "@id": "node/10831778552"}}, {"type": "Feature", "geometry": {"type": "Point", "coordinates": [103.8531014, 1.2989463]}, "properties": {"addr:city": "Singapore", "addr:housenumber": "111", "addr:postcode": "188969", "addr:street": "Middle Road", "amenity": "school", "name": "JDMIS - Jewellery Design and Management International School", "name:zh": "珠宝设计与管理国际学校", "website": "https://jdmis.edu.sg", "@id": "node/11077889420"}}, {"type": "Feature", "geometry": {"type": "Point", "coordinates": [103.8656621, 1.3147324]}, "properties": {"amenity": "school", "name": "Aeroviation", "website": "https://aeroviation.com/", "@id": "node/11905621669"}}, {"type": "Feature", "geometry": {"type": "Point", "coordinates": [103.8410997, 1.2784252]}, "properties": {"addr:country": "SG", "addr:housenumber": "132", "addr:postcode": "088859", "addr:street": "Neil Road", "amenity": "school", "name": "Anatta Culinary Academy", "website": "https://www.anattaca.sg/", "@id": "node/12059302313"}}, {"type": "Feature", "geometry": {"type": "Point", "coordinates": [103.8156657, 1.2981978]}, "properties": {"amenity": "school", "@id": "node/12369840688"}}, {"type": "Feature", "geometry": {"type": "Point", "coordinates": [103.8953197, 1.3705239]}, "properties": {"addr:unit": "35", "amenity": "school", "level": "1", "name": "Fun With Abacus", "name:zh": "珠心算", "@id": "node/12406515174"}}, {"type": "Feature", "geometry": {"type": "Point", "coordinates": [103.8866876, 1.3967425]}, "properties": {"addr:unit": "02", "amenity": "school", "level": "0", "name": "Muz Art", "@id": "node/12514084389"}}, {"type": "Feature", "geometry": {"type": "Point", "coordinates": [103.9442822, 1.3460475]}, "properties": {"amenity": "school", "name": "AGrader Learning Centre", "website": "https://www.agrader.sg/", "@id": "node/12541117503"}}, {"type": "Feature", "geometry": {"type": "Point", "coordinates": [103.8477978, 1.2993145]}, "properties": {"amenity": "school", "description": "campus that occupies the entire floor", "level": "4", "name": "PSB Academy Cathay Campus", "@id": "node/12850170664"}}, {"type": "Feature", "geometry": {"type": "Point", "coordinates": [103.6819359, 1.3467748]}, "properties": {"addr:city": "Singapore", "addr:housenumber": "61", "addr:postcode": "637335", "addr:street": "Nanyang Drive Academic Building North ABN-B4b-10", "amenity": "school", "name": "NTU FACTS @ ABN", "operator": "Nanyang Technological University, Singapore", "operator:type": "university", "website": "https://www.ntu.edu.sg/facts", "@id": "node/13016888171"}}, {"type": "Feature", "geometry": {"type": "Point", "coordinates": [103.682934, 1.3463868]}, "properties": {"addr:city": "Singapore", "addr:housenumber": "50", "addr:postcode": "639798", "addr:street": "Nanyang Drive Block N4.1-B4-10,", "amenity": "school", "name": "NTU FACTS @ N4.1", "operator": "Nanyang Technological University, Singapore", "operator:type": "university", "website": "https://www.ntu.edu.sg/facts", "@id": "node/13016896891"}}, {"type": "Feature", "geometry": {"type": "Point", "coordinates": [103.8421081, 1.3782307]}, "properties": {"addr:city": "Singapore", "addr:country": "SG", "addr:housenumber": "3063", "addr:postcode": "569868", "addr:street": "Ang Mo Kio Avenue 5", "amenity": "school", "email": "yckss@moe.edu.sg", "fax": "+65 6552 2927", "name": "Yio Chu Kang Secondary School", "name:ms": "Sekolah Menengah Yio Chu Kang", "name:zh": "永康中学", "phone": "+65 6456 0669", "school": "secondary", "website": "https://yiochukangsec.moe.edu.sg/", "wikidata": "Q8053780", "wikipedia": "en:Yio Chu Kang Secondary School", "@id": "way/32395928"}}, {"type": "Feature", "geometry": {"type": "Point", "coordinates": [103.843232, 1.3765506]}, "properties": {"addr:city": "Singapore", "addr:country": "SG", "addr:housenumber": "200", "addr:postcode": "569878", "addr:street": "Ang Mo Kio Avenue 5", "amenity": "school", "name": "Mayflower Primary School", "name:ms": "Sekolah Rendah Mayflower", "name:zh": "美华小学", "school": "primary", "@id": "way/32396187"}}, {"type": "Feature", "geometry": {"type": "Point", "coordinates": [103.8871411, 1.390712]}, "properties": {"addr:city": "Singapore", "addr:country": "SG", "addr:housenumber": "31", "addr:postcode": "544969", "addr:street": "Anchorvale Drive", "amenity": "school", "email": "anchorgreen_ps@moe.edu.sg", "fax": "+65 6315 9825", "name": "Anchor Green Primary School", "name:ms": "Sekolah Rendah Anchor Green", "name:zh": "安泰小学", "phone": "+65 6886 1356", "school": "primary", "website": "https://anchorgreenpri.moe.edu.sg/", "@id": "way/32695945"}}, {"type": "Feature", "geometry": {"type": "Point", "coordinates": [103.8900465, 1.3893207]}, "properties": {"addr:city": "Singapore", "addr:country": "SG", "addr:housenumber": "20", "addr:postcode": "545079", "addr:street": "Anchorvale Link", "amenity": "school", "contact:facebook": "https://www.facebook.com/nanchiauhighschool", "email": "nchs@moe.edu.sg", "fax": "+65 6489 7970", "name": "Nan Chiau High School", "name:ms": "Sekolah Tinggi Nan Chiau", "name:zh": "南侨中学", "phone": "+65 6489 7971", "school": "secondary", "website": "https://nchs.edu.sg/", "wikidata": "Q6962187", "wikipedia": "en:Nan Chiau High School", "@id": "way/32696131"}}, {"type": "Feature", "geometry": {"type": "Point", "coordinates": [103.8910425, 1.3920268]}, "properties": {"addr:city": "Singapore", "addr:country": "SG", "addr:housenumber": "50", "addr:postcode": "545080", "addr:street": "Anchorvale Link", "amenity": "school", "contact:facebook": "https://www.facebook.com/nanchiauprisch", "email": "ncps@moe.edu.sg", "fax": "+65 6489 7906", "name": "Nan Chiau Primary School", "name:ms": "Sekolah Rendah Nan Chiau", "name:zh": "南侨小学", "phone": "+65 6489 7905", "school": "primary", "website": "https://ncps.moe.edu.sg/", "wikidata": "Q6962188", "wikipedia": "en:Nan Chiau Primary School", "@id": "way/32696166"}}, {"type": "Feature", "geometry": {"type": "Point", "coordinates": [103.8976889, 1.3731641]}, "properties": {"addr:city": "Singapore", "addr:country": "SG", "addr:housenumber": "1257", "addr:postcode": "534793", "addr:street": "Upper Serangoon Road", "amenity": "school", "name": "CHIJ (Our Lady of the Nativity) Primary School", "name:ms": "Sekolah Rendah CHIJ (Our Lady of the Nativity)", "name:zh": "圣婴女校(圣母圣诞)", "school": "primary", "@id": "way/32696401"}}, {"type": "Feature", "geometry": {"type": "Point", "coordinates": [103.894746, 1.3777795]}, "properties": {"addr:city": "Singapore", "addr:country": "SG", "addr:housenumber": "61", "addr:postcode": "538787", "addr:street": "Hougang Avenue 8", "amenity": "school", "email": "punggol_ps@moe.edu.sg", "fax": "+65 6387 7793", "name": "Punggol Primary School", "name:ms": "Sekolah Rendah Punggol", "name:zh": "榜鹅小学", "phone": "+65 6385 0762", "school": "primary", "website": "https://punggolpri.moe.edu.sg/", "@id": "way/32696453"}}, {"type": "Feature", "geometry": {"type": "Point", "coordinates": [103.8781431, 1.3907839]}, "properties": {"addr:city": "Singapore", "addr:country": "SG", "addr:housenumber": "21", "addr:postcode": "797702", "addr:street": "Fernvale Link", "amenity": "school", "name": "Pei Hwa Secondary School", "name:en": "Pei Hwa Secondary School", "name:ms": "Sekolah Menengah Pei Hwa", "name:zh": "培华中学", "school": "secondary", "wikidata": "Q7160881", "wikipedia": "en:Pei Hwa Secondary School", "@id": "way/32726404"}}, {"type": "Feature", "geometry": {"type": "Point", "coordinates": [103.8750521, 1.3899033]}, "properties": {"addr:city": "Singapore", "addr:country": "SG", "addr:housenumber": "7", "addr:postcode": "797635", "addr:street": "Fernvale Road", "amenity": "school", "name": "MINDS Fernvale Gardens School", "name:zh": "MINDS 芬微园学校", "@id": "way/32726831"}}, {"type": "Feature", "geometry": {"type": "Point", "coordinates": [103.8741691, 1.3899831]}, "properties": {"addr:city": "Singapore", "addr:country": "SG", "addr:housenumber": "1", "addr:postcode": "797701", "addr:street": "Fernvale Lane", "amenity": "school", "name": "Fernvale Primary School", "name:ms": "Sekolah Rendah Fernvale", "name:zh": "丰伟小学", "school": "primary", "@id": "way/32726864"}}, {"type": "Feature", "geometry": {"type": "Point", "coordinates": [103.9003255, 1.3966683]}, "properties": {"addr:city": "Singapore", "addr:country": "SG", "addr:housenumber": "51", "addr:postcode": "545083", "addr:street": "Compassvale Crescent", "amenity": "school", "contact:facebook": "https://www.facebook.com/CompassvaleSecondarySchool/", "email": "cvss@moe.edu.sg", "fax": "+65 6881 5998", "name": "Compassvale Secondary School", "name:ms": "Sekolah Menengah Compassvale", "name:zh": "康柏中学", "phone": "+65 6881 5047", "school": "secondary", "website": "https://compassvalesec.moe.edu.sg/", "wikidata": "Q43080717", "wikipedia": "en:Compassvale Secondary School", "@id": "way/32727635"}}, {"type": "Feature", "geometry": {"type": "Point", "coordinates": [103.8980112, 1.3944653]}, "properties": {"addr:city": "Singapore", "addr:country": "SG", "addr:housenumber": "21", "addr:postcode": "545091", "addr:street": "Compassvale Street", "amenity": "school", "contact:facebook": "https://www.facebook.com/compassvalepri", "email": "cvps@moe.edu.sg", "fax": "+65 6388 2798", "name": "Compassvale Primary School", "name:ms": "Sekolah Rendah Compassvale", "name:zh": "康柏小学", "phone": "+65 6388 2819", "school": "primary", "website": "https://compassvalepri.moe.edu.sg/", "wikidata": "Q5156146", "wikipedia": "en:Compassvale Primary School", "@id": "way/32727708"}}, {"type": "Feature", "geometry": {"type": "Point", "coordinates": [103.9045274, 1.3936298]}, "properties": {"addr:city": "Singapore", "addr:country": "SG", "addr:housenumber": "80", "addr:postcode": "545092", "addr:street": "Rivervale Drive", "amenity": "school", "contact:instagram": "rivervaleps", "education": "school", "email": "rivervale_ps@moe.edu.sg", "fax": "+65 6388 7449", "name": "Rivervale Primary School", "name:ms": "Sekolah Rendah Rivervale", "name:zh": "立伟小学", "phone": "+65 6388 7450", "school": "primary", "website": "https://rivervalepri.moe.edu.sg/", "wheelchair": "yes", "@id": "way/32727828"}}, {"type": "Feature", "geometry": {"type": "Point", "coordinates": [103.8993476, 1.3893857]}, "properties": {"addr:city": "Singapore", "addr:country": "SG", "addr:housenumber": "21", "addr:postcode": "545166", "addr:street": "Compassvale Walk", "amenity": "school", "email": "skps@moe.edu.sg", "fax": "+65 6384 0839", "grades": "1-6", "name": "Seng Kang Primary School", "name:ms": "Sekolah Rendah Seng Kang", "name:zh": "成康小学", "operator": "Ministry of Education", "operator:type": "government", "phone": "+65 6384 0809", "school": "primary", "start_date": "1997-12-12", "website": "https://sengkangpri.moe.edu.sg/", "@id": "way/32728272"}}, {"type": "Feature", "geometry": {"type": "Point", "coordinates": [103.8986895, 1.3864764]}, "properties": {"addr:city": "Singapore", "addr:country": "SG", "addr:housenumber": "10", "addr:postcode": "545090", "addr:street": "Compassvale Lane", "amenity": "school", "contact:facebook": "https://www.facebook.com/Seng-Kang-Secondary-School-Singapore-171552316218345/", "email": "skss@moe.edu.sg", "fax": "+65 6388 7254", "name": "Seng Kang Secondary School", "name:ms": "Sekolah Menengah Seng Kang", "name:zh": "成康中学", "phone": "+65 6388 7258", "school": "secondary", "start_date": "1999-03-12", "website": "https://sengkangsec.moe.edu.sg/", "wikidata": "Q7450521", "wikipedia": "en:Sengkang Secondary School", "@id": "way/32728299"}}, {"type": "Feature", "geometry": {"type": "Point", "coordinates": [103.9025017, 1.3918581]}, "properties": {"addr:city": "Singapore", "addr:country": "SG", "addr:housenumber": "62", "addr:postcode": "548595", "addr:street": "Seng Kang East Way", "amenity": "school", "email": "chijsjcs@moe.edu.sg", "fax": "+65 6489 7589", "name": "CHIJ St Joseph's Convent", "name:zh": "圣婴女中(圣若瑟)", "phone": "+65 6489 7580", "school": "secondary", "start_date": "2000", "website": "https://chijstjosephsconvent.moe.edu.sg/", "wikidata": "Q5011152", "wikimedia_commons": "Category:CHIJ Saint Joseph's Convent", "wikipedia": "en:CHIJ Saint Joseph's Convent", "@id": "way/32728476"}}, {"type": "Feature", "geometry": {"type": "Point", "coordinates": [103.9036578, 1.3874499]}, "properties": {"addr:city": "Singapore", "addr:country": "SG", "addr:housenumber": "1", "addr:postcode": "545088", "addr:street": "Rivervale Street", "amenity": "school", "contact:facebook": "https://www.facebook.com/northspringpri", "email": "nsps@moe.edu.sg", "fax": "+65 6385 1044", "name": "North Spring Primary School", "name:ms": "Sekolah Rendah North Spring", "name:zh": "北源小学", "phone": "+65 6881 6887", "school": "primary", "website": "https://northspringpri.moe.edu.sg/", "@id": "way/32728594"}}, {"type": "Feature", "geometry": {"type": "Point", "coordinates": [103.9090566, 1.402324]}, "properties": {"addr:city": "Singapore", "addr:country": "SG", "addr:housenumber": "51", "addr:postcode": "828870", "addr:street": "Edgefield Plains", "amenity": "school", "email": "punggol_ss@moe.edu.sg", "fax": "+65 6489 7859", "name": "Punggol Secondary School", "name:ms": "Sekolah Menengah Punggol", "name:zh": "培道中学", "phone": "+65 6489 7851", "school": "secondary", "website": "https://punggolsec.moe.edu.sg/", "wikidata": "Q7260162", "wikipedia": "en:Punggol Secondary School", "@id": "way/32759699"}}, {"type": "Feature", "geometry": {"type": "Point", "coordinates": [103.9074912, 1.400343]}, "properties": {"addr:city": "Singapore", "addr:country": "SG", "addr:housenumber": "41", "addr:postcode": "828869", "addr:street": "Edgefield Plains", "amenity": "school", "name": "Edgefield Primary School", "name:ms": "Sekolah Rendah Edgefield", "name:zh": "育德小学", "school": "primary", "wikidata": "Q18639601", "wikipedia": "en:Edgefield Primary School", "@id": "way/32760470"}}, {"type": "Feature", "geometry": {"type": "Point", "coordinates": [103.9115953, 1.397641]}, "properties": {"addr:city": "Singapore", "addr:country": "SG", "addr:housenumber": "51", "addr:postcode": "828866", "addr:street": "Edgedale Plains", "amenity": "school", "contact:facebook": "https://www.facebook.com/GreendaleSec/", "email": "greendale_ss@moe.edu.sg", "fax": "+65 6315 8420", "name": "Greendale Secondary School", "name:ms": "Sekolah Menengah Greendale", "name:zh": "绿苑中学", "phone": "+65 6315 8616", "school": "secondary", "website": "https://greendalesec.moe.edu.sg/", "wikidata": "Q5603820", "wikimedia_commons": "Category:Greendale Secondary School", "wikipedia": "en:Greendale Secondary School", "@id": "way/32760523"}}, {"type": "Feature", "geometry": {"type": "Point", "coordinates": [103.9126886, 1.3961931]}, "properties": {"addr:city": "Singapore", "addr:country": "SG", "addr:housenumber": "50", "addr:postcode": "828848", "addr:street": "Edgedale Plains", "amenity": "school", "email": "greendale_ps@moe.edu.sg", "fax": "+65 6886 1419", "name": "Greendale Primary School", "name:ms": "Sekolah Rendah Greendale", "name:zh": "绿苑小学", "phone": "+65 6886 1413", "school": "primary", "start_date": "2008-01-01", "website": "https://greendalepri.moe.edu.sg/", "@id": "way/32760566"}}, {"type": "Feature", "geometry": {"type": "Point", "coordinates": [103.9088373, 1.3948921]}, "properties": {"addr:city": "Singapore", "addr:country": "SG", "addr:housenumber": "21", "addr:postcode": "828867", "addr:street": "Edgedale Plains", "amenity": "school", "email": "meetoh_sch@moe.edu.sg", "fax": "+65 6489 3243", "name": "Mee Toh School", "name:zh": "弥陀学校", "phone": "+65 6489 3326", "school": "primary", "website": "https://meetoh.moe.edu.sg/", "@id": "way/32760647"}}, {"type": "Feature", "geometry": {"type": "Point", "coordinates": [103.8957577, 1.3716518]}, "properties": {"addr:city": "Singapore", "addr:country": "SG", "addr:housenumber": "1191", "addr:postcode": "534786", "addr:street": "Upper Serangoon Road", "amenity": "school", "name": "Holy Innocents' High School", "name:en": "Holy Innocents' High School", "name:ms": "Sekolah Tinggi Holy Innocent", "name:zh": "圣婴中学", "school": "secondary", "source": "Kaart Ground Survey 2017", "wikidata": "Q5885649", "wikipedia": "en:Holy Innocents' High School", "@id": "way/32775084"}}, {"type": "Feature", "geometry": {"type": "Point", "coordinates": [103.8854633, 1.3778503]}, "properties": {"addr:city": "Singapore", "addr:country": "SG", "addr:housenumber": "1", "addr:postcode": "538720", "addr:street": "Hougang Street 51", "amenity": "school", "email": "admin_yckps@moe.edu.sg", "fax": "+65 6385 5915", "name": "Yio Chu Kang Primary School", "name:ms": "Sekolah Rendah Yio Chu Kang", "name:zh": "杨厝港小学", "phone": "+65 6385 1365", "school": "primary", "website": "https://yiochukangpri.moe.edu.sg/", "@id": "way/32852772"}}, {"type": "Feature", "geometry": {"type": "Point", "coordinates": [103.8824349, 1.3780728]}, "properties": {"addr:city": "Singapore", "addr:country": "SG", "addr:housenumber": "2", "addr:postcode": "534256", "addr:street": "Hougang Street 93", "amenity": "school", "email": "hougang_ss@moe.edu.sg", "fax": "+65 6385 2015", "name": "Hougang Secondary School", "name:en": "Hougang Secondary School", "name:ms": "Sekolah Menengah Hougang", "name:zh": "后港中学", "phone": "+65 6385 1990", "school": "secondary", "website": "https://hougangsec.moe.edu.sg/", "wikidata": "Q5912819", "wikipedia": "en:Hougang Secondary School", "@id": "way/32852785"}}, {"type": "Feature", "geometry": {"type": "Point", "coordinates": [103.8894116, 1.374336]}, "properties": {"addr:city": "Singapore", "addr:country": "SG", "addr:housenumber": "52", "addr:postcode": "538786", "addr:street": "Hougang Avenue 8", "amenity": "school", "name": "Montfort Junior School", "name:en": "Montfort Junior School", "name:ms": "Sekolah Montfort Junior", "name:zh": "蒙福小学", "school": "primary", "@id": "way/32852978"}}, {"type": "Feature", "geometry": {"type": "Point", "coordinates": [103.889047, 1.3739512]}, "properties": {"addr:city": "Singapore", "addr:country": "SG", "addr:housenumber": "50", "addr:postcode": "538785", "addr:street": "Hougang Avenue 8", "amenity": "school", "name": "Monfort Secondary School", "name:ms": "Sekolah Menengah Monfort", "name:zh": "蒙福中学", "school": "secondary", "wikidata": "Q6905579", "wikipedia": "en:Montfort Secondary School", "@id": "way/32853100"}}, {"type": "Feature", "geometry": {"type": "Point", "coordinates": [103.8897774, 1.394985]}, "properties": {"addr:city": "Singapore", "addr:country": "SG", "addr:housenumber": "71", "addr:postcode": "544799", "addr:street": "Anchorvale Link", "amenity": "school", "email": "springdale_ps@moe.edu.sg", "name": "Springdale Primary School", "name:ms": "Sekolah Rendah Springdale", "name:zh": "康德小学", "phone": "+65 6315 7600", "school": "primary", "website": "https://springdalepri.moe.edu.sg/", "@id": "way/33570266"}}, {"type": "Feature", "geometry": {"type": "Point", "coordinates": [103.8819439, 1.3265382]}, "properties": {"addr:city": "Singapore", "addr:housenumber": "1", "addr:postcode": "387621", "addr:street": "Sallim Road", "amenity": "school", "name": "Canossa Catholic Primary School", "name:ms": "Sekolah Rendah Canossa Catholic", "name:zh": "嘉诺撒天主教小学", "@id": "way/33792877"}}, {"type": "Feature", "geometry": {"type": "Point", "coordinates": [103.8816058, 1.3245401]}, "properties": {"addr:city": "Singapore", "addr:country": "SG", "addr:housenumber": "2", "addr:postcode": "387724", "addr:street": "Mattar Road", "amenity": "school", "name": "MacPherson Primary School", "name:ms": "Sekolah Rendah MacPherson", "name:zh": "柏盛小学", "school": "primary", "@id": "way/33793291"}}, {"type": "Feature", "geometry": {"type": "Point", "coordinates": [103.9656279, 1.354152]}, "properties": {"addr:city": "Singapore", "addr:housenumber": "11", "addr:postcode": "507657", "addr:street": "Upper Changi Road North", "amenity": "school", "fax": "+65 6778 0801", "name": "The Japanese Primary School", "name:ms": "Sekolah Rendah Jepun", "name:zh": "日本人小学", "phone": "+65 6775 3366", "website": "https://www.sjs.edu.sg/", "@id": "way/34403420"}}, {"type": "Feature", "geometry": {"type": "Point", "coordinates": [103.7509721, 1.3934393]}, "properties": {"addr:city": "Singapore", "addr:country": "SG", "addr:housenumber": "50", "addr:postcode": "689621", "addr:street": "Choa Chu Kang North 5", "amenity": "school", "barrier": "fence", "name": "Regent Secondary School", "name:ms": "Sekolah Menengah Regent", "name:zh": "励正中学", "school": "secondary", "@id": "way/35310232"}}, {"type": "Feature", "geometry": {"type": "Point", "coordinates": [103.8414171, 1.3845887]}, "properties": {"amenity": "school", "name": "Anderson Primary School", "name:ms": "Sekolah Rendah Anderson", "name:zh": "安德逊小学", "@id": "way/37410451"}}, {"type": "Feature", "geometry": {"type": "Point", "coordinates": [103.9113191, 1.3308902]}, "properties": {"addr:city": "Singapore", "addr:country": "SG", "addr:housenumber": "50", "addr:postcode": "479239", "addr:street": "Bedok Reservoir Road", "amenity": "school", "name": "Telok Kurau Primary School", "name:ms": "Sekolah Rendah Telok Kurau", "name:zh": "德乐小学", "school": "primary", "@id": "way/41425634"}}, {"type": "Feature", "geometry": {"type": "Point", "coordinates": [103.9102912, 1.3346964]}, "properties": {"addr:city": "Singapore", "addr:country": "SG", "addr:housenumber": "20", "addr:postcode": "419612", "addr:street": "Jalan Damai", "amenity": "school", "@id": "way/41761743"}}, {"type": "Feature", "geometry": {"type": "Point", "coordinates": [103.7708588, 1.3689773]}, "properties": {"addr:city": "Singapore", "addr:country": "SG", "addr:housenumber": "58", "addr:postcode": "679301", "addr:street": "Chestnut Drive", "amenity": "school", "barrier": "wall", "contact:facebook": "https://www.facebook.com/profile.php?id=61563783204213", "contact:instagram": "https://www.instagram.com/theperseschoolsingapore", "email": "contact@perse.com.sg", "name": "The Perse School", "phone": "+65 6233 2183", "school": "secondary", "website": "https://perse.com.sg/", "@id": "way/43634803"}}, {"type": "Feature", "geometry": {"type": "Point", "coordinates": [103.9176972, 1.3065233]}, "properties": {"addr:city": "Singapore", "addr:country": "SG", "addr:housenumber": "346", "addr:postcode": "449150", "addr:street": "Marine Terrace", "amenity": "school", "name": "CHIJ Katong Convent School", "name:zh": "加东修道院女校", "school": "secondary", "wheelchair": "yes", "@id": "way/44133235"}}, {"type": "Feature", "geometry": {"type": "Point", "coordinates": [103.935007, 1.3758964]}, "properties": {"addr:city": "Singapore", "addr:country": "SG", "addr:housenumber": "20", "addr:postcode": "518798", "addr:street": "Pasir Ris Street 71", "amenity": "school", "name": "Meridian Primary School", "name:ms": "Sekolah Rendah Meridian", "name:zh": "美廉小学", "school": "primary", "@id": "way/44309727"}}, {"type": "Feature", "geometry": {"type": "Point", "coordinates": [103.9110889, 1.3050887]}, "properties": {"amenity": "school", "check_date": "2026-02-04", "name": "Tao Nan School", "name:ms": "Sekolah Tao Nan", "name:zh": "道南学校", "wheelchair": "yes", "wikidata": "Q25247355", "wikimedia_commons": "Category:Tao Nan School", "wikipedia": "en:Tao Nan School", "@id": "way/44348628"}}, {"type": "Feature", "geometry": {"type": "Point", "coordinates": [103.9004578, 1.305332]}, "properties": {"addr:city": "Singapore", "addr:country": "SG", "addr:housenumber": "10", "addr:postcode": "437259", "addr:street": "Seraya Road", "amenity": "school", "name": "Tanjong Katong Primary School", "name:ms": "Sekolah Rendah Tanjong Katong", "name:zh": "丹绒加东小学", "school": "primary", "wheelchair": "yes", "wikidata": "Q7683384", "wikipedia": "en:Tanjong Katong Primary School", "@id": "way/44348773"}}, {"type": "Feature", "geometry": {"type": "Point", "coordinates": [103.8916399, 1.305495]}, "properties": {"addr:city": "Singapore", "addr:country": "SG", "addr:housenumber": "50", "addr:postcode": "439012", "addr:street": "Goodman Road", "amenity": "school", "name": "Chung Cheng High School (Main)", "name:ms": "Sekolah Tinggi Chung Cheng", "name:zh": "中正中学(总校)", "school": "secondary", "wikidata": "Q5116274", "wikimedia_commons": "Category:Chung Cheng High School (Main)", "wikipedia": "en:Chung Cheng High School (Main)", "@id": "way/44352803"}}, {"type": "Feature", "geometry": {"type": "Point", "coordinates": [103.8964251, 1.3079543]}, "properties": {"addr:city": "Singapore", "addr:country": "SG", "addr:housenumber": "20", "addr:postcode": "439272", "addr:street": "Dunman Road", "amenity": "school", "name": "Tanjong Katong Girls' School", "name:zh": "丹绒加东女校", "school": "secondary", "wikidata": "Q7683385", "wikipedia": "en:Tanjong Katong Girls' School", "@id": "way/44352821"}}, {"type": "Feature", "geometry": {"type": "Point", "coordinates": [103.8821785, 1.2994205]}, "properties": {"addr:city": "Singapore", "addr:housenumber": "10", "addr:postcode": "436895", "addr:street": "Tanjong Rhu Road", "amenity": "school", "name": "Dunman High School", "name:en": "Dunman High School", "name:ms": "Sekolah Tinggi Dunman", "name:zh": "德明政府中学", "outdoor_seating": "no", "wikidata": "Q5315486", "wikimedia_commons": "Category:Dunman High School", "wikipedia": "en:Dunman High School", "@id": "way/46337829"}}, {"type": "Feature", "geometry": {"type": "Point", "coordinates": [103.8878432, 1.3111762]}, "properties": {"addr:city": "Singapore", "addr:country": "SG", "addr:housenumber": "350", "addr:postcode": "399772", "addr:street": "Guillemard Road", "amenity": "school", "name": "Kong Hwa School", "name:zh": "光华学校", "school": "primary", "wikidata": "Q6429127", "wikimedia_commons": "Category:Kong Hwa School", "wikipedia": "en:Kong Hwa School", "@id": "way/46340465"}}, {"type": "Feature", "geometry": {"type": "Point", "coordinates": [103.9168599, 1.3086215]}, "properties": {"addr:city": "Singapore", "addr:country": "SG", "addr:housenumber": "490", "addr:postcode": "429058", "addr:street": "East Coast Road", "amenity": "school", "barrier": "wall", "education": "school", "name": "Saint Patrick's School", "name:zh": "圣伯特理中学", "school": "secondary", "@id": "way/46432164"}}, {"type": "Feature", "geometry": {"type": "Point", "coordinates": [103.9026516, 1.3116869]}, "properties": {"addr:city": "Singapore", "addr:country": "SG", "addr:housenumber": "51", "addr:postcode": "427072", "addr:street": "Koon Seng Road", "amenity": "school", "name": "Haig Girl's School", "name:zh": "海格女校", "school": "primary", "@id": "way/46436461"}}, {"type": "Feature", "geometry": {"type": "Point", "coordinates": [103.8294845, 1.3115483]}, "properties": {"addr:city": "Singapore", "addr:country": "SG", "addr:housenumber": "20", "addr:postcode": "259978", "addr:street": "Anderson Road", "amenity": "school", "@id": "way/46612321"}}, {"type": "Feature", "geometry": {"type": "Point", "coordinates": [103.8014479, 1.2801106]}, "properties": {"amenity": "school", "name": "SP Jain Center of Management", "name:zh": "SP Jain 全球管理学院", "@id": "way/46650001"}}, {"type": "Feature", "geometry": {"type": "Point", "coordinates": [103.7886096, 1.283163]}, "properties": {"access": "permissive", "addr:city": "Singapore", "addr:housenumber": "70", "addr:street": "South Buona Vista Road", "amenity": "school", "name": "National Community Leadership Institute", "name:zh": "国家社区领袖学院", "source": "Kaart Ground Survey 2017", "@id": "way/46650507"}}, {"type": "Feature", "geometry": {"type": "Point", "coordinates": [103.824279, 1.2750248]}, "properties": {"addr:city": "Singapore", "addr:country": "SG", "addr:housenumber": "1", "addr:postcode": "099840", "addr:street": "Bukit Purmei Avenue", "amenity": "school", "name": "Radin Mas Primary School", "name:ms": "Sekolah Rendah Radin Mas", "name:zh": "拉丁马士小学", "school": "primary", "wikidata": "Q7280547", "wikipedia": "en:Radin Mas Primary School", "@id": "way/46818743"}}, {"type": "Feature", "geometry": {"type": "Point", "coordinates": [103.9346312, 1.3336291]}, "properties": {"addr:city": "Singapore", "addr:country": "SG", "addr:housenumber": "350", "addr:postcode": "469719", "addr:street": "Bedok North Avenue 3", "amenity": "school", "name": "Red Swastika School", "name:zh": "卍慈学校", "school": "primary", "@id": "way/46819601"}}, {"type": "Feature", "geometry": {"type": "Point", "coordinates": [103.9203001, 1.3354501]}, "properties": {"addr:city": "Singapore", "addr:country": "SG", "addr:housenumber": "50", "addr:postcode": "479225", "addr:street": "Bedok Reservoir Crescent", "amenity": "school", "name": "AWWA School @ Bedok", "school": "primary", "website": "https://www.moe.gov.sg/schoolfinder/schooldetail?schoolname=awwa-school-bedok", "@id": "way/46819604"}}, {"type": "Feature", "geometry": {"type": "Point", "coordinates": [103.9269038, 1.3374626]}, "properties": {"addr:city": "Singapore", "addr:country": "SG", "addr:housenumber": "4800", "addr:postcode": "479229", "addr:street": "Bedok Reservoir Road", "amenity": "school", "name": "Damai Secondary School", "name:en": "Damai Secondary School", "name:ms": "Sekolah Menengah Damai", "name:zh": "康柏中学", "school": "secondary", "wikidata": "Q5211923", "wikipedia": "en:Damai Secondary School", "@id": "way/46819606"}}, {"type": "Feature", "geometry": {"type": "Point", "coordinates": [103.932574, 1.3341631]}, "properties": {"addr:city": "Singapore", "addr:country": "SG", "addr:housenumber": "56", "addr:postcode": "469623", "addr:street": "Bedok North Street 3", "amenity": "school", "name": "Yu Neng Primary School", "name:ms": "Sekolah Rendah Yu Neng", "name:zh": "育能小学", "school": "primary", "@id": "way/46819608"}}, {"type": "Feature", "geometry": {"type": "Point", "coordinates": [103.9352387, 1.333992]}, "properties": {"addr:city": "Singapore", "addr:country": "SG", "addr:housenumber": "360", "addr:postcode": "469722", "addr:street": "Bedok North Avenue 3", "amenity": "school", "name": "Bedok Green Secondary School", "name:ms": "Sekolah Menengah Bedok Green", "name:zh": "育青中学", "school": "secondary", "@id": "way/46819609"}}, {"type": "Feature", "geometry": {"type": "Point", "coordinates": [103.9318825, 1.3297137]}, "properties": {"addr:city": "Singapore", "addr:country": "SG", "addr:housenumber": "307", "addr:postcode": "469680", "addr:street": "Bedok North Road", "amenity": "school", "name": "Fengshan Primary School", "name:ms": "Sekolah Rendah Fengshan", "name:zh": "凤山小学", "school": "primary", "@id": "way/46819615"}}, {"type": "Feature", "geometry": {"type": "Point", "coordinates": [103.9523316, 1.3399698]}, "properties": {"addr:city": "Singapore", "addr:country": "SG", "addr:housenumber": "11", "addr:postcode": "529896", "addr:street": "Simei Street 3", "amenity": "school", "name": "Changkat Primary School", "name:ms": "Sekolah Rendah Changkat", "name:zh": "尚育小学", "school": "primary", "@id": "way/46821370"}}, {"type": "Feature", "geometry": {"type": "Point", "coordinates": [103.9530604, 1.3405162]}, "properties": {"addr:city": "Singapore", "addr:country": "SG", "addr:housenumber": "23", "addr:postcode": "529894", "addr:street": "Simei Street 3", "amenity": "school", "name": "Changkat Changi Secondary School", "name:ms": "Sekolah Menengah Changkat Changi", "name:zh": "尚育中学", "school": "secondary", "wikidata": "Q40715204", "wikipedia": "en:Changkat Changi Secondary School", "@id": "way/46821371"}}, {"type": "Feature", "geometry": {"type": "Point", "coordinates": [103.9418653, 1.3302335]}, "properties": {"addr:city": "Singapore", "addr:country": "SG", "addr:housenumber": "600", "addr:postcode": "487012", "addr:street": "Upper Changi Road", "amenity": "school", "name": "Anglican High School", "name:ms": "Sekolah Tinggi Anglican", "name:zh": "圣公会中学", "school": "secondary", "wikidata": "Q4763530", "wikimedia_commons": "Category:Anglican High School, Singapore", "wikipedia": "en:Anglican High School, Singapore", "@id": "way/46821390"}}, {"type": "Feature", "geometry": {"type": "Point", "coordinates": [103.9383951, 1.3155731]}, "properties": {"addr:city": "Singapore", "addr:housenumber": "5", "addr:postcode": "466781", "addr:street": "Sennett Road", "amenity": "school", "name": "Singapore Hokkien Huay Kuan", "name:zh": "新加坡福建会馆", "operator": "Singapore Hokkein Huay Kuan", "@id": "way/46929097"}}, {"type": "Feature", "geometry": {"type": "Point", "coordinates": [103.9457619, 1.3174631]}, "properties": {"addr:city": "Singapore", "addr:country": "SG", "addr:housenumber": "501", "addr:postcode": "479239", "addr:street": "Bedok South Avenue 3", "amenity": "school", "name": "Temasek Primary School", "name:ms": "Sekolah Rendah Temasek", "name:zh": "淡马锡小学", "school": "primary", "@id": "way/46929098"}}, {"type": "Feature", "geometry": {"type": "Point", "coordinates": [103.9474864, 1.3162003]}, "properties": {"addr:city": "Singapore", "addr:country": "SG", "addr:housenumber": "600", "addr:postcode": "465561", "addr:street": "Upper East Coast Road", "amenity": "school", "name": "Temasek Secondary School", "name:ms": "Sekolah Menengah Temasek", "name:zh": "淡马锡中学", "school": "secondary", "wikidata": "Q7698000", "wikipedia": "en:Temasek Secondary School", "@id": "way/46929099"}}, {"type": "Feature", "geometry": {"type": "Point", "coordinates": [103.8516085, 1.302824]}, "properties": {"addr:city": "Singapore", "addr:country": "SG", "addr:housenumber": "1", "addr:postcode": "187940", "addr:street": "McNally Street", "amenity": "school", "building": "school", "building:colour": "#7B7F7A", "building:levels": "5", "name": "Lasalle College of the Arts (McNally Campus)", "name:en": "Lasalle College of the Arts (McNally Campus)", "name:zh": "拉萨尔艺术学院", "name:zh-Hans": "拉萨尔艺术学院", "name:zh-Hant": "拉薩爾藝術學院", "operator": "La Salle", "operator:type": "religious", "operator:wikidata": "Q138579", "start_date": "2007", "website": "https://lasalle.edu.sg/", "wheelchair": "yes", "wikidata": "Q6457112", "wikipedia": "en:LASALLE College of the Arts", "@id": "way/48035415"}}, {"type": "Feature", "geometry": {"type": "Point", "coordinates": [103.820915, 1.4452668]}, "properties": {"addr:city": "Singapore", "addr:country": "SG", "addr:housenumber": "10", "addr:postcode": "757715", "addr:street": "Sembawang Drive", "amenity": "school", "name": "Sembawang Primary School", "name:ms": "Sekolah Rendah Sembawang", "name:zh": "胜宝旺小学", "school": "primary", "@id": "way/48577785"}}, {"type": "Feature", "geometry": {"type": "Point", "coordinates": [103.8224156, 1.4521442]}, "properties": {"addr:city": "Singapore", "addr:country": "SG", "addr:housenumber": "10", "addr:postcode": "757702", "addr:street": "Wellington Circle", "amenity": "school", "name": "Wellington Primary School", "name:ms": "Sekolah Rendah Wellington", "name:zh": "伟林小学", "school": "primary", "@id": "way/48673272"}}, {"type": "Feature", "geometry": {"type": "Point", "coordinates": [103.8166689, 1.4456635]}, "properties": {"addr:city": "Singapore", "addr:country": "SG", "addr:housenumber": "30", "addr:postcode": "757704", "addr:street": "Sembawang Crescent", "amenity": "school", "name": "Sembawang Secondary School", "name:ms": "Sekolah Menengah Sembawang", "name:zh": "胜宝旺中学", "school": "secondary", "wikidata": "Q7449159", "wikipedia": "en:Sembawang Secondary School", "@id": "way/48732469"}}, {"type": "Feature", "geometry": {"type": "Point", "coordinates": [103.8155826, 1.4508595]}, "properties": {"addr:city": "Singapore", "addr:country": "SG", "addr:housenumber": "21", "addr:postcode": "757714", "addr:street": "Admiralty Drive", "amenity": "school", "email": "canberra_ps@moe.edu.sg", "fax": "+65 6758 7312", "name": "Canberra Primary School", "name:ms": "Sekolah Rendah Canberra", "name:zh": "康培小学", "phone": "+65 6759 7433", "school": "primary", "website": "https://canberrapri.moe.edu.sg/", "wikidata": "Q5031278", "@id": "way/48958596"}}, {"type": "Feature", "geometry": {"type": "Point", "coordinates": [103.8055542, 1.2809276]}, "properties": {"addr:city": "Singapore", "addr:housenumber": "21", "addr:postcode": "109355", "addr:street": "Preston Road", "amenity": "school", "grades": "0-12", "internet_access": "wlan", "name": "ISS International School", "name:zh": "ISS国际学校", "phone": "+65 64754188", "religion": "none", "website": "https://www.iss.edu.sg/", "wikidata": "Q5974512", "wikipedia": "en:ISS International School", "@id": "way/54032310"}}, {"type": "Feature", "geometry": {"type": "Point", "coordinates": [103.8142483, 1.4537099]}, "properties": {"addr:city": "Singapore", "addr:country": "SG", "addr:housenumber": "51", "addr:postcode": "757699", "addr:street": "Sembawang Drive", "amenity": "school", "name": "Canberra Secondary School", "name:ms": "Sekolah Menengah Canberra", "name:zh": "康培中学", "school": "secondary", "wikidata": "Q24939557", "wikipedia": "en:Canberra Secondary School", "@id": "way/62204072"}}, {"type": "Feature", "geometry": {"type": "Point", "coordinates": [103.8392866, 1.438792]}, "properties": {"addr:city": "Singapore", "addr:country": "SG", "addr:housenumber": "170", "addr:postcode": "768959", "addr:street": "Yishun Avenue 6", "amenity": "school", "name": "Chongfu Primary School", "name:ms": "Sekolah Rendah Chongfu", "name:zh": "崇福学校", "school": "primary", "@id": "way/69546571"}}, {"type": "Feature", "geometry": {"type": "Point", "coordinates": [103.8408429, 1.4359086]}, "properties": {"addr:city": "Singapore", "addr:country": "SG", "addr:housenumber": "3", "addr:postcode": "768578", "addr:street": "Yishun Street 22", "amenity": "school", "name": "Northland Secondary School", "name:ms": "Sekolah Menengah Northland", "name:zh": "德景中学", "school": "secondary", "@id": "way/69546572"}}, {"type": "Feature", "geometry": {"type": "Point", "coordinates": [103.7966546, 1.4285314]}, "properties": {"addr:city": "Singapore", "addr:country": "SG", "addr:housenumber": "3", "addr:postcode": "738990", "addr:street": "Woodlands Avenue 6", "amenity": "school", "name": "Woodgrove Secondary School", "name:ms": "Sekolah Menengah Woodgrove", "name:zh": "林景中學", "school": "secondary", "wikidata": "Q8032689", "wikipedia": "en:Woodgrove Secondary School", "@id": "way/71074934"}}, {"type": "Feature", "geometry": {"type": "Point", "coordinates": [103.9551281, 1.3745712]}, "properties": {"addr:city": "Singapore", "addr:country": "SG", "addr:housenumber": "9", "addr:postcode": "519421", "addr:street": "Pasir Ris Drive 6", "amenity": "school", "contact:facebook": "https://www.facebook.com/iloveHSC/", "contact:instagram": "https://www.instagram.com/haisingcatholic/", "contact:phone": "+65 6582 7864", "contact:website": "http://haisingcatholic.moe.edu.sg/", "fax": "+65 6582 2543", "name": "Hai Sing Catholic School", "name:zh": "海星天主教中学", "school": "secondary", "wikidata": "Q60431501", "@id": "way/74499850"}}, {"type": "Feature", "geometry": {"type": "Point", "coordinates": [103.8449843, 1.3547674]}, "properties": {"addr:city": "Singapore", "addr:country": "SG", "addr:housenumber": "9", "addr:postcode": "579767", "addr:street": "Bishan Street 22", "amenity": "school", "check_date": "2023-01-02", "denomination": "catholic", "fee": "yes", "name": "Catholic High School", "name:ms": "Sekolah Tinggi Catholic", "name:zh": "公教中学", "operator:type": "public", "religion": "christian", "wikidata": "Q5053176", "wikimedia_commons": "Category:Catholic High School, Singapore", "wikipedia": "en:Catholic High School, Singapore", "@id": "way/74694899"}}, {"type": "Feature", "geometry": {"type": "Point", "coordinates": [103.8101086, 1.3201615]}, "properties": {"addr:city": "Singapore", "addr:country": "SG", "addr:housenumber": "111", "addr:postcode": "259240", "addr:street": "Farrer Road", "amenity": "school", "denomination": "anglican", "landuse": "education", "name": "St. Margaret's School (Secondary)", "name:ms": "Sekolah Menengah St Margaret's", "name:zh": "圣玛格烈中学", "religion": "christian", "school": "secondary", "website": "https://www.stmargaretssec.moe.edu.sg/", "wikidata": "Q7589874", "wikipedia": "en:St. Margaret's Secondary School", "@id": "way/74721118"}}, {"type": "Feature", "geometry": {"type": "Point", "coordinates": [103.7648269, 1.306524]}, "properties": {"addr:city": "Singapore", "addr:country": "SG", "addr:housenumber": "170", "addr:postcode": "127443", "addr:street": "West Coast Road", "amenity": "school", "name": "Grace Orchard School", "name:zh": "扩大恩园学校", "school": "primary", "website": "https://go.edu.sg/", "@id": "way/74860020"}}, {"type": "Feature", "geometry": {"type": "Point", "coordinates": [103.8021125, 1.3003138]}, "properties": {"addr:city": "Singapore", "addr:country": "SG", "addr:housenumber": "2A", "addr:postcode": "149295", "addr:street": "Margaret Drive", "amenity": "school", "barrier": "fence", "name": "Queensway Secondary School", "name:ms": "Sekolah Menengah Queensway", "name:zh": "女皇道中学", "school": "secondary", "@id": "way/75068661"}}, {"type": "Feature", "geometry": {"type": "Point", "coordinates": [103.7599991, 1.3835715]}, "properties": {"addr:city": "Singapore", "addr:country": "SG", "addr:housenumber": "31", "addr:postcode": "677742", "addr:street": "Senja Road", "amenity": "school", "barrier": "fence", "name": "West View Primary School", "name:ms": "Sekolah Rendah West View", "name:zh": "维新小学", "school": "primary", "@id": "way/75299822"}}, {"type": "Feature", "geometry": {"type": "Point", "coordinates": [103.7668605, 1.3377699]}, "properties": {"addr:city": "Singapore", "addr:country": "SG", "addr:housenumber": "111", "addr:postcode": "598112", "addr:street": "Lorong Kismis", "amenity": "school", "name": "Bukit Timah Primary School", "name:ms": "Sekolah Rendah Bukit Timah", "name:zh": "武吉知马小学", "school": "primary", "@id": "way/75313101"}}, {"type": "Feature", "geometry": {"type": "Point", "coordinates": [103.8132046, 1.293269]}, "properties": {"addr:city": "Singapore", "addr:country": "SG", "addr:housenumber": "1", "addr:postcode": "148800", "addr:street": "Strathmore Road", "amenity": "school", "name": "Queenstown Secondary School", "name:ms": "Sekolah Menengah Queenstown", "name:zh": "女皇镇中学", "school": "secondary", "wikidata": "Q7271107", "wikipedia": "en:Queenstown Secondary School", "@id": "way/75394079"}}, {"type": "Feature", "geometry": {"type": "Point", "coordinates": [103.7016903, 1.3427476]}, "properties": {"addr:city": "Singapore", "addr:country": "SG", "addr:housenumber": "11", "addr:postcode": "648354", "addr:street": "Jurong West Street 65", "amenity": "school", "name": "Boon Lay Secondary School", "name:ms": "Sekolah Menengah Boon Lay", "name:zh": "文礼中学", "school": "secondary", "wikidata": "Q4943567", "wikipedia": "en:Boon Lay Secondary School", "@id": "way/75417909"}}, {"type": "Feature", "geometry": {"type": "Point", "coordinates": [103.8907059, 1.3571859]}, "properties": {"addr:city": "Singapore", "addr:country": "SG", "addr:housenumber": "47", "addr:postcode": "538884", "addr:street": "Hougang Avenue 1", "amenity": "school", "name": "Yuying Secondary School", "name:ms": "Sekolah Menengah Yuying", "name:zh": "育英中学", "school": "secondary", "source": "Kaart Ground Survey 2017", "wikidata": "Q8062230", "wikipedia": "en:Yuying Secondary School", "@id": "way/75616909"}}, {"type": "Feature", "geometry": {"type": "Point", "coordinates": [103.7677644, 1.3163012]}, "properties": {"addr:city": "Singapore", "addr:country": "SG", "addr:housenumber": "15", "addr:postcode": "129857", "addr:street": "Clementi Avenue 5", "amenity": "school", "name": "Pei Tong Primary School", "name:ms": "Sekolah Rendah Pei Tong", "name:zh": "培童小学", "school": "primary", "@id": "way/77183299"}}, {"type": "Feature", "geometry": {"type": "Point", "coordinates": [103.8591059, 1.348288]}, "properties": {"addr:city": "Singapore", "addr:country": "SG", "addr:housenumber": "1", "addr:postcode": "556818", "addr:street": "Lorong Chuan", "amenity": "school", "education": "school", "name": "Australian International School Singapore", "name:ms": "Sekolah Antarabangsa Australia Singapura", "name:zh": "澳大利亚国际学校", "operator": "Cognita", "website": "https://www.ais.com.sg/", "wikidata": "Q4824340", "wikipedia": "en:Australian International School Singapore", "@id": "way/79159430"}}, {"type": "Feature", "geometry": {"type": "Point", "coordinates": [103.9508967, 1.3513678]}, "properties": {"addr:city": "Singapore", "addr:country": "SG", "addr:housenumber": "3", "addr:postcode": "529393", "addr:street": "Tampines Street 21", "amenity": "school", "name": "Yumin Primary School", "name:ms": "Sekolah Rendah Yumin", "name:zh": "育民小学", "school": "primary", "@id": "way/82008870"}}, {"type": "Feature", "geometry": {"type": "Point", "coordinates": [103.9509136, 1.3505294]}, "properties": {"addr:city": "Singapore", "addr:country": "SG", "addr:housenumber": "1", "addr:postcode": "529392", "addr:street": "Tampines Street 21", "amenity": "school", "name": "Chongzheng Primary School", "name:ms": "Sekolah Rendah Chongzheng", "name:zh": "崇正小学", "school": "primary", "wikidata": "Q5104695", "wikipedia": "en:Chongzheng Primary School", "@id": "way/82008871"}}, {"type": "Feature", "geometry": {"type": "Point", "coordinates": [103.9619289, 1.3529319]}, "properties": {"addr:city": "Singapore", "addr:country": "SG", "addr:housenumber": "31", "addr:postcode": "529258", "addr:street": "Tampines Street 33", "amenity": "school", "fax": "+65 6786 6649", "name": "East Spring Primary School", "name:ms": "Sekolah Rendah East Spring", "name:zh": "东源小学", "phone": "+65 6786 6192", "school": "primary", "@id": "way/83358044"}}, {"type": "Feature", "geometry": {"type": "Point", "coordinates": [103.9608365, 1.3565687]}, "properties": {"addr:city": "Singapore", "addr:country": "SG", "addr:housenumber": "30", "addr:postcode": "529231", "addr:street": "Tampines Street 34", "amenity": "school", "name": "East Spring Secondary School", "name:ms": "Sekolah Menengah East Spring", "name:zh": "东源中学", "school": "primary", "wikidata": "Q30645049", "wikipedia": "en:East Spring Secondary School", "@id": "way/83367684"}}, {"type": "Feature", "geometry": {"type": "Point", "coordinates": [103.9560495, 1.3613443]}, "properties": {"addr:city": "Singapore", "addr:country": "SG", "addr:housenumber": "21", "addr:postcode": "529093", "addr:street": "Tampines Street 45", "amenity": "school", "name": "Dunman Secondary School", "name:ms": "Sekolah Menengah Dunman", "name:zh": "徳明中学", "school": "secondary", "wikidata": "Q5315488", "wikipedia": "en:Dunman Secondary School", "@id": "way/83697468"}}, {"type": "Feature", "geometry": {"type": "Point", "coordinates": [103.948497, 1.3543602]}, "properties": {"addr:city": "Singapore", "addr:country": "SG", "addr:housenumber": "390", "addr:postcode": "529400", "addr:street": "Tampines Street 21", "amenity": "school", "name": "Pasir Ris Secondary School", "name:ms": "Sekolah Menengah Pasir Ris", "name:zh": "思励中学", "school": "secondary", "wikidata": "Q7142177", "wikipedia": "en:Pasir Ris Secondary School", "@id": "way/85548627"}}, {"type": "Feature", "geometry": {"type": "Point", "coordinates": [103.9490653, 1.3607047]}, "properties": {"addr:city": "Singapore", "addr:country": "SG", "addr:housenumber": "30", "addr:postcode": "529565", "addr:street": "Tampines Avenue 9", "amenity": "school", "name": "Tampines North Primary School", "name:ms": "Sekolah Rendah Tampines North", "name:zh": "淡滨尼北小学", "school": "primary", "@id": "way/85551237"}}, {"type": "Feature", "geometry": {"type": "Point", "coordinates": [103.9440135, 1.3503059]}, "properties": {"addr:city": "Singapore", "addr:country": "SG", "addr:housenumber": "250", "addr:postcode": "529426", "addr:street": "Tampines Street 12", "amenity": "school", "name": "Tampines Primary School", "name:ms": "Sekolah Rendah Tampines", "name:zh": "淡滨尼小学", "school": "primary", "wikidata": "Q7681803", "wikipedia": "en:Tampines Primary School", "@id": "way/85584524"}}, {"type": "Feature", "geometry": {"type": "Point", "coordinates": [103.8622137, 1.3495798]}, "properties": {"addr:city": "Singapore", "addr:country": "SG", "addr:housenumber": "220", "addr:postcode": "556742", "addr:street": "Lorong Chuan", "amenity": "school", "name": "St Gabriel's Primary School", "name:ms": "Sekolah Rendah St. Gabriel's", "name:zh": "圣加俾尔小学", "school": "primary", "source": "Bing", "@id": "way/93855422"}}, {"type": "Feature", "geometry": {"type": "Point", "coordinates": [103.6989454, 1.3447051]}, "properties": {"addr:city": "Singapore", "addr:country": "SG", "addr:housenumber": "1", "addr:postcode": "649223", "addr:street": "Jurong West Street 72", "amenity": "school", "email": "wgps@moe.edu.sg", "name": "West Grove Primary School", "name:ms": "Sekolah Rendah West Grove", "name:zh": "伟群小学", "phone": "+65 6267 9234", "school": "primary", "website": "https://westgrovepri.moe.edu.sg/", "wikidata": "Q47461939", "@id": "way/94715847"}}, {"type": "Feature", "geometry": {"type": "Point", "coordinates": [103.7269242, 1.3473771]}, "properties": {"addr:city": "Singapore", "addr:country": "SG", "addr:housenumber": "5", "addr:postcode": "649410", "addr:street": "Jurong West Street 41", "amenity": "school", "landuse": "education", "name": "Fuhua Secondary School", "name:ms": "Sekolah Menengah Fuhua", "name:zh": "辅华中学", "website": "https://www.fuhuasec.moe.edu.sg/", "wikidata": "Q5507323", "wikipedia": "en:Fuhua Secondary School", "@id": "way/95607076"}}, {"type": "Feature", "geometry": {"type": "Point", "coordinates": [103.7129718, 1.3429463]}, "properties": {"addr:city": "Singapore", "addr:country": "SG", "addr:housenumber": "20", "addr:postcode": "649930", "addr:street": "Boon Lay Drive", "amenity": "school", "name": "Boon Lay Garden Primary School", "name:ms": "Sekolah Rendah Boon Lay Garden", "name:zh": "文园小学", "school": "primary", "@id": "way/95938637"}}, {"type": "Feature", "geometry": {"type": "Point", "coordinates": [103.7006062, 1.3471858]}, "properties": {"addr:city": "Singapore", "addr:country": "SG", "addr:housenumber": "1", "addr:postcode": "649188", "addr:street": "Jurong West Street 73", "amenity": "school", "name": "Westwood Primary School", "name:en": "Westwood Primary School", "name:ms": "Sekolah Rendah Westwood", "name:zh": "维林小学", "name:zh-Hans": "维林小学", "name:zh-Hant": "維林小學", "school": "primary", "@id": "way/95939634"}}, {"type": "Feature", "geometry": {"type": "Point", "coordinates": [103.7093769, 1.3435696]}, "properties": {"addr:city": "Singapore", "addr:housenumber": "6", "addr:postcode": "649961", "addr:street": "Boon Lay Avenue", "amenity": "school", "email": "rvhs@moe.edu.sg", "fax": "+65 6567 7351", "landuse": "education", "name": "River Valley High School", "name:en": "River Valley High School", "name:ms": "Sekolah Tinggi River Valley", "name:zh": "立化中学", "phone": "+65 6567 8115", "website": "https://rivervalleyhigh.moe.edu.sg/", "wikidata": "Q7337923", "wikimedia_commons": "Category:River Valley High School", "wikipedia": "en:River Valley High School, Singapore", "@id": "way/96151955"}}, {"type": "Feature", "geometry": {"type": "Point", "coordinates": [103.7216251, 1.3520909]}, "properties": {"addr:city": "Singapore", "addr:country": "SG", "addr:housenumber": "60", "addr:postcode": "649371", "addr:street": "Jurong West Street 42", "amenity": "school", "name": "Hua Yi Secondary School", "name:en": "Hua Yi Secondary School", "name:ms": "Sekolah Menengah Hua Yi", "name:zh": "华义中学", "school": "secondary", "wikidata": "Q5924913", "wikimedia_commons": "Category:Hua Yi Secondary School", "wikipedia": "en:Hua Yi Secondary School", "@id": "way/96170913"}}, {"type": "Feature", "geometry": {"type": "Point", "coordinates": [103.7024026, 1.3356177]}, "properties": {"addr:city": "Singapore", "addr:country": "SG", "addr:housenumber": "61", "addr:postcode": "648348", "addr:street": "Jurong West Street 65", "amenity": "school", "education": "school", "name": "Jurong West Secondary School", "name:ms": "Sekolah Menengah Jurong West", "name:zh": "裕廊西中学", "school": "secondary", "@id": "way/96323567"}}, {"type": "Feature", "geometry": {"type": "Point", "coordinates": [103.7735335, 1.3131224]}, "properties": {"addr:city": "Singapore", "addr:country": "SG", "addr:housenumber": "1", "addr:postcode": "138572", "addr:street": "Technology Drive", "amenity": "school", "name": "School of Science and Technology, Singapore", "name:zh": "新科技中学", "phone": "+65 6571 7200", "school": "secondary", "website": "https://www.sst.edu.sg/", "wikidata": "Q7432566", "wikimedia_commons": "Category:School of Science and Technology, Singapore", "wikipedia": "en:School of Science and Technology, Singapore", "@id": "way/96764382"}}, {"type": "Feature", "geometry": {"type": "Point", "coordinates": [103.6996461, 1.3367797]}, "properties": {"addr:housenumber": "20", "addr:postcode": "648200", "addr:street": "Jurong West Street 61", "amenity": "school", "name": "Frontier Primary School", "name:en": "Frontier Primary School", "name:ms": "Sekolah Rendah Frontier", "name:ta": "ஃபரண்டியர் தொடக்கப்பள்ளி", "name:zh": "先锋小学", "operator": "Ministry of Education", "school": "primary", "@id": "way/97802179"}}, {"type": "Feature", "geometry": {"type": "Point", "coordinates": [103.7940541, 1.4417443]}, "properties": {"addr:city": "Singapore", "addr:country": "SG", "addr:housenumber": "11", "addr:postcode": "738489", "addr:street": "Woodlands Street 83", "amenity": "school", "name": "Evergreen Secondary School", "name:ms": "Sekolah Menengah Evergreen", "name:zh": "永青中学", "school": "secondary", "wikidata": "Q40284833", "wikipedia": "en:Evergreen Secondary School", "@id": "way/97943693"}}, {"type": "Feature", "geometry": {"type": "Point", "coordinates": [103.7077381, 1.3514791]}, "properties": {"addr:city": "Singapore", "addr:country": "SG", "addr:housenumber": "31", "addr:postcode": "648347", "addr:street": "Jurong West Street 24", "amenity": "school", "barrier": "fence", "name": "Corporation Primary School", "name:ms": "Sekolah Rendah Corporation", "name:zh": "徳行小学", "school": "primary", "@id": "way/98284884"}}, {"type": "Feature", "geometry": {"type": "Point", "coordinates": [103.6989865, 1.3393245]}, "properties": {"addr:city": "Singapore", "addr:country": "SG", "addr:housenumber": "30", "addr:postcode": "609476", "addr:street": "Jurong West Street 61", "amenity": "school", "name": "Jurong West Primary School", "name:ms": "Sekolah Rendah Jurong West", "name:zh": "裕廊西小学", "school": "primary", "wikidata": "Q6315394", "wikipedia": "en:Jurong West Primary School", "@id": "way/98476350"}}, {"type": "Feature", "geometry": {"type": "Point", "coordinates": [103.6880541, 1.3387151]}, "properties": {"addr:city": "Singapore", "addr:country": "SG", "addr:housenumber": "31", "addr:postcode": "649037", "addr:street": "Jurong West Street 91", "amenity": "school", "name": "Juying Primary School", "name:ms": "Sekolah Rendah Juying", "name:zh": "聚英小学", "wikidata": "Q6319183", "wikipedia": "en:Juying Primary School", "@id": "way/100154052"}}, {"type": "Feature", "geometry": {"type": "Point", "coordinates": [103.7735372, 1.3098808]}, "properties": {"addr:city": "Singapore", "addr:country": "SG", "addr:housenumber": "1020", "addr:postcode": "139657", "addr:street": "Dover Road", "amenity": "school", "name": "New Town Secondary School", "name:ms": "Sekolah Menengah New Town", "name:zh": "光伟中学", "school": "secondary", "source": "Kaart Ground Survey 2017", "wikidata": "Q7012150", "wikimedia_commons": "Category:New Town Secondary School", "wikipedia": "en:New Town Secondary School", "@id": "way/104660986"}}, {"type": "Feature", "geometry": {"type": "Point", "coordinates": [103.7224022, 1.3468875]}, "properties": {"addr:city": "Singapore", "addr:country": "SG", "addr:housenumber": "5", "addr:postcode": "649410", "addr:street": "Jurong West Street 41", "amenity": "school", "name": "Yuhua Secondary School", "name:ms": "Sekolah Menengah Yuhua", "name:zh": "裕华中学", "wikidata": "Q48729876", "wikipedia": "en:Yuhua Secondary School", "@id": "way/107842707"}}, {"type": "Feature", "geometry": {"type": "Point", "coordinates": [103.7214036, 1.3471927]}, "properties": {"addr:city": "Singapore", "addr:country": "SG", "addr:housenumber": "8", "addr:postcode": "649332", "addr:street": "Jurong West Street 51", "amenity": "school", "name": "Shuqun Primary School", "name:ms": "Sekolah Rendah Shuqun", "name:zh": "树群小学", "school": "primary", "@id": "way/107842711"}}, {"type": "Feature", "geometry": {"type": "Point", "coordinates": [103.6943225, 1.3479915]}, "properties": {"addr:city": "Singapore", "addr:country": "SG", "addr:housenumber": "21", "addr:postcode": "649075", "addr:street": "Jurong West Street 81", "amenity": "school", "branch": "Nanyang Campus", "name": "One World International School", "name:en": "One World International School", "@id": "way/107935438"}}, {"type": "Feature", "geometry": {"type": "Point", "coordinates": [103.7017814, 1.3536576]}, "properties": {"addr:city": "Singapore", "addr:country": "SG", "addr:housenumber": "11", "addr:postcode": "648350", "addr:street": "Jurong West Street 25", "amenity": "school", "name": "Westwood Secondary School", "name:ms": "Sekolah Menengah Westwood", "name:zh": "维林中学", "school": "secondary", "wikidata": "Q7432594", "wikipedia": "en:Westwood Secondary School (Singapore)", "@id": "way/108111251"}}, {"type": "Feature", "geometry": {"type": "Point", "coordinates": [103.7330556, 1.3487533]}, "properties": {"addr:city": "Singapore", "addr:country": "SG", "addr:housenumber": "320", "addr:postcode": "609476", "addr:street": "Jurong East Street 32", "amenity": "school", "name": "Jurong Primary School", "name:ms": "Sekolah Rendah Jurong", "name:zh": "裕廊小学", "school": "primary", "@id": "way/108233589"}}, {"type": "Feature", "geometry": {"type": "Point", "coordinates": [103.7185856, 1.3467144]}, "properties": {"addr:city": "Singapore", "addr:country": "SG", "addr:housenumber": "6", "addr:postcode": "649295", "addr:street": "Jurong West Street 52", "amenity": "school", "name": "Rulang Primary School", "name:ms": "Sekolah Rendah Rulang", "name:zh": "孺廊小学", "school": "primary", "@id": "way/108449367"}}, {"type": "Feature", "geometry": {"type": "Point", "coordinates": [103.8904949, 1.3581823]}, "properties": {"addr:city": "Singapore", "addr:country": "SG", "addr:housenumber": "45", "addr:postcode": "538882", "addr:street": "Hougang Avenue 1", "amenity": "school", "name": "Xinghua Primary School", "name:ms": "Sekolah Rendah Xinghua", "name:zh": "醒华小学", "school": "primary", "source": "Kaart Ground Survey 2017", "@id": "way/108601970"}}, {"type": "Feature", "geometry": {"type": "Point", "coordinates": [103.7409591, 1.3426574]}, "properties": {"addr:city": "Singapore", "addr:country": "SG", "addr:housenumber": "158", "addr:postcode": "609558", "addr:street": "Jurong East Street 24", "amenity": "school", "email": "yuhua_ps@moe.edu.sg", "fax": "+65 6564 8278", "name": "Yuhua Primary School", "name:ms": "Sekolah Rendah Yuhua", "name:zh": "裕华小学", "phone": "+65 6560 5062", "school": "primary", "website": "https://yuhuapri.moe.edu.sg/", "@id": "way/108757206"}}, {"type": "Feature", "geometry": {"type": "Point", "coordinates": [103.9510303, 1.3253794]}, "properties": {"addr:city": "Singapore", "addr:country": "SG", "addr:housenumber": "1", "addr:postcode": "468585", "addr:street": "Jalan Langgar Bedok", "amenity": "school", "name": "Bedok South Secondary School", "name:ms": "Sekolah Menengah Bedok South", "name:zh": "尚义中学", "school": "secondary", "wikidata": "Q4879347", "wikipedia": "en:Bedok South Secondary School", "@id": "way/111083558"}}, {"type": "Feature", "geometry": {"type": "Point", "coordinates": [103.8129616, 1.2859387]}, "properties": {"addr:city": "Singapore", "addr:country": "SG", "addr:housenumber": "10", "addr:postcode": "159050", "addr:street": "Lengkok Bahru", "amenity": "school", "education": "school", "name": "Bukit Merah Secondary School", "name:ms": "Sekolah Menengah Bukit Merah", "name:zh": "红山中学", "school": "secondary", "wikidata": "Q4986923", "wikipedia": "en:Bukit Merah Secondary School", "@id": "way/111151595"}}, {"type": "Feature", "geometry": {"type": "Point", "coordinates": [103.7996854, 1.2997615]}, "properties": {"addr:city": "Singapore", "addr:country": "SG", "addr:housenumber": "300", "addr:postcode": "148812", "addr:street": "Tanglin Halt Road", "amenity": "school", "name": "New Town Primary School", "name:ms": "Sekolah Rendah New Town", "name:zh": "光道小学", "school": "primary", "@id": "way/111280134"}}, {"type": "Feature", "geometry": {"type": "Point", "coordinates": [103.9434704, 1.3249361]}, "properties": {"addr:city": "Singapore", "addr:country": "SG", "addr:housenumber": "6", "addr:postcode": "469293", "addr:street": "Bedok South Avenue 3", "amenity": "school", "check_date": "2024-09-20", "name": "Bedok View Secondary School", "name:en": "Bedok View Secondary School", "name:ms": "Sekolah Menengah Bedok View", "name:zh": "务德中学", "school": "secondary", "wikidata": "Q4879349", "wikipedia": "en:Bedok View Secondary School", "@id": "way/111294071"}}, {"type": "Feature", "geometry": {"type": "Point", "coordinates": [103.7198738, 1.341651]}, "properties": {"addr:city": "Singapore", "addr:country": "SG", "addr:housenumber": "103", "addr:postcode": "618654", "addr:street": "Yuan Ching Road", "amenity": "school", "name": "Yuan Ching Secondary School", "name:ms": "Sekolah Menengah Yuan Ching", "name:zh": "毅道中学", "school": "secondary", "@id": "way/111497027"}}, {"type": "Feature", "geometry": {"type": "Point", "coordinates": [103.7179609, 1.3383879]}, "properties": {"addr:city": "Singapore", "addr:country": "SG", "addr:housenumber": "161", "addr:postcode": "618310", "addr:street": "Corporation Walk", "amenity": "school", "name": "Lakeside Primary School", "name:ms": "Sekolah Rendah Lakeside", "name:zh": "湖滨小学", "school": "primary", "@id": "way/111497029"}}, {"type": "Feature", "geometry": {"type": "Point", "coordinates": [103.7456789, 1.319718]}, "properties": {"addr:city": "Singapore", "addr:country": "SG", "addr:housenumber": "698", "addr:postcode": "608784", "addr:street": "West Coast Road", "amenity": "school", "name": "Commonwealth Secondary School", "name:ms": "Sekolah Menengah Commonwealth", "name:zh": "立才中学", "old_name": "Tanglin Integrated Vocational Secondary School", "school": "secondary", "wikidata": "Q5153853", "wikipedia": "en:Commonwealth Secondary School", "@id": "way/111497030"}}, {"type": "Feature", "geometry": {"type": "Point", "coordinates": [103.7239562, 1.3304664]}, "properties": {"addr:city": "Singapore", "addr:country": "SG", "addr:housenumber": "31", "addr:postcode": "618652", "addr:street": "Yuan Ching Road", "amenity": "school", "name": "Jurong Secondary School", "name:ms": "Sekolah Menengah Jurong", "name:zh": "裕廊中学", "school": "secondary", "wikidata": "Q6315382", "wikipedia": "en:Jurong Secondary School", "@id": "way/111497048"}}, {"type": "Feature", "geometry": {"type": "Point", "coordinates": [103.8022612, 1.3304736]}, "properties": {"addr:city": "Singapore", "addr:country": "SG", "addr:housenumber": "2", "addr:postcode": "288683", "addr:street": "Linden Drive", "amenity": "school", "name": "Nanyang Girls' High School", "name:ms": "Sekolah Tinggi Perempuan Nanyang", "name:zh": "南洋女子中学校", "school": "secondary", "wikidata": "Q6964465", "wikimedia_commons": "Category:Nanyang Girls' High School", "wikipedia": "en:Nanyang Girls' High School", "@id": "way/111512139"}}, {"type": "Feature", "geometry": {"type": "Point", "coordinates": [103.8426371, 1.3554934]}, "properties": {"addr:city": "Singapore", "addr:country": "SG", "addr:housenumber": "30", "addr:postcode": "579747", "addr:street": "Bishan Street 24", "amenity": "school", "check_date": "2023-01-01", "name": "Whitley Secondary School", "name:ms": "Sekolah Menengah Whitley", "name:zh": "惠厉中学", "operator:type": "public", "school": "secondary", "website": "https://www.whitleysec.moe.edu.sg", "wikidata": "Q7996573", "wikipedia": "en:Whitley Secondary School", "@id": "way/111588366"}}, {"type": "Feature", "geometry": {"type": "Point", "coordinates": [103.8599845, 1.324255]}, "properties": {"amenity": "school", "name": "Bendemeer Secondary badminton court", "name:zh": "明智中学羽球场", "operator": "Bendemeer School", "operator:type": "government", "@id": "way/111983687"}}, {"type": "Feature", "geometry": {"type": "Point", "coordinates": [103.9378199, 1.323975]}, "properties": {"addr:city": "Singapore", "addr:country": "SG", "addr:housenumber": "1", "addr:postcode": "469317", "addr:street": "Bedok South Avenue 2", "amenity": "school", "name": "Bedok Green Primary School", "name:ms": "Sekolah Rendah Bedok Green", "name:zh": "育青小学", "school": "primary", "@id": "way/116692358"}}, {"type": "Feature", "geometry": {"type": "Point", "coordinates": [103.8330328, 1.3649956]}, "properties": {"addr:city": "Singapore", "addr:country": "SG", "addr:housenumber": "2", "addr:postcode": "575565", "addr:street": "Sin Ming Walk", "amenity": "school", "@id": "way/117041287"}}, {"type": "Feature", "geometry": {"type": "Point", "coordinates": [103.8295307, 1.3663028]}, "properties": {"addr:city": "Singapore", "addr:country": "SG", "addr:housenumber": "10", "addr:postcode": "575566", "addr:street": "Sin Ming Walk", "amenity": "school", "name": "Peirce Secondary School", "name:ms": "Sekolah Menengah Peirce", "name:zh": "培雅中学", "school": "secondary", "wikidata": "Q30645081", "wikipedia": "en:Peirce Secondary School", "@id": "way/117041307"}}, {"type": "Feature", "geometry": {"type": "Point", "coordinates": [103.8542379, 1.3602434]}, "properties": {"addr:city": "Singapore", "addr:country": "SG", "addr:housenumber": "3", "addr:postcode": "569730", "addr:street": "Ang Mo Kio Avenue 10", "amenity": "school", "email": "townsvilleps@moe.edu.sg", "fax": "+65 6457 0141", "name": "Townsville Primary School", "name:ms": "Sekolah Rendah Townsville", "name:zh": "城景小学", "phone": "+65 6457 4345", "school": "primary", "website": "https://townsvillepri.moe.edu.sg/", "@id": "way/117055169"}}, {"type": "Feature", "geometry": {"type": "Point", "coordinates": [103.8547114, 1.3504664]}, "properties": {"addr:city": "Singapore", "addr:country": "SG", "addr:housenumber": "10", "addr:postcode": "579795", "addr:street": "Bishan Street 13", "amenity": "school", "denomination": "presbyterian", "education": "school", "name": "Kuo Chuan Presybterian Secondary School", "name:ms": "Sekolah Menengah Kuo Chuan Presbyterian", "name:zh": "国专长老会中学", "school": "secondary", "wikidata": "Q6445213", "wikipedia": "en:Kuo Chuan Presbyterian Secondary School", "@id": "way/117055173"}}, {"type": "Feature", "geometry": {"type": "Point", "coordinates": [103.8696957, 1.3485748]}, "properties": {"addr:city": "Singapore", "addr:country": "SG", "addr:housenumber": "13", "addr:postcode": "556123", "addr:street": "Serangoon Avenue 3", "amenity": "school", "barrier": "fence", "name": "Zhonghua Secondary School", "name:ms": "Sekolah Menengah Zhonghua", "name:zh": "中华中学", "school": "secondary", "wikidata": "Q8070934", "wikipedia": "en:Zhonghua Secondary School", "@id": "way/117159027"}}, {"type": "Feature", "geometry": {"type": "Point", "coordinates": [103.8386665, 1.4164252]}, "properties": {"addr:country": "SG", "addr:housenumber": "7", "addr:postcode": "769028", "addr:street": "Yishun Avenue 4", "amenity": "school", "name": "Naval Base Primary School", "name:ms": "Sekolah Rendah Naval Base", "name:zh": "军港小学", "school": "primary", "@id": "way/117177840"}}, {"type": "Feature", "geometry": {"type": "Point", "coordinates": [103.8382112, 1.4158041]}, "properties": {"addr:city": "Singapore", "addr:country": "SG", "addr:housenumber": "10", "addr:postcode": "768454", "addr:street": "Yishun Street 81", "amenity": "school", "name": "Orchid Park Secondary School", "name:ms": "Sekolah Menengah Orchid Park", "name:zh": "兰景中学", "school": "secondary", "wikidata": "Q7100286", "wikipedia": "en:Orchid Park Secondary School", "@id": "way/117177976"}}, {"type": "Feature", "geometry": {"type": "Point", "coordinates": [103.8405864, 1.4212265]}, "properties": {"addr:city": "Singapore", "addr:country": "SG", "addr:housenumber": "15", "addr:postcode": "769026", "addr:street": "Yishun Avenue 4", "amenity": "school", "name": "Northland Primary School", "name:ms": "Sekolah Rendah Northland", "name:zh": "新华小学", "school": "primary", "wheelchair": "limited", "@id": "way/117178420"}}, {"type": "Feature", "geometry": {"type": "Point", "coordinates": [103.8371868, 1.4190464]}, "properties": {"addr:city": "Singapore", "addr:country": "SG", "addr:housenumber": "11", "addr:postcode": "768547", "addr:street": "Yishun Street 61", "amenity": "school", "name": "Chung Cheng High School (Yishun)", "name:ms": "Sekolah Tinggi Chung Cheng (Yishun)", "name:zh": "中正中学 (义顺)", "school": "secondary", "@id": "way/117179805"}}, {"type": "Feature", "geometry": {"type": "Point", "coordinates": [103.837259, 1.4201343]}, "properties": {"addr:city": "Singapore", "addr:housenumber": "15", "addr:postcode": "768548", "addr:street": "Yishun Street 61", "amenity": "school", "name": "Rainbow Centre - Yishun Park School", "name:zh": "彩虹中心义顺公园学校", "@id": "way/117180674"}}, {"type": "Feature", "geometry": {"type": "Point", "coordinates": [103.8304738, 1.4178033]}, "properties": {"addr:country": "SG", "addr:housenumber": "651", "addr:postcode": "768687", "addr:street": "Yishun Ring Road", "amenity": "school", "name": "Peiying Primary School", "name:ms": "Sekolah Rendah Peiying", "name:zh": "培英小学", "school": "primary", "wikidata": "Q7160986", "wikipedia": "en:Peiying Primary School", "@id": "way/117182139"}}, {"type": "Feature", "geometry": {"type": "Point", "coordinates": [103.8309864, 1.4192025]}, "properties": {"addr:city": "Singapore", "addr:country": "SG", "addr:housenumber": "901", "addr:postcode": "768689", "addr:street": "Yishun Ring Road", "amenity": "school", "name": "Naval Base Secondary School", "name:ms": "Sekolah Menengah Naval Base", "name:zh": "军港中学", "school": "secondary", "@id": "way/117182141"}}, {"type": "Feature", "geometry": {"type": "Point", "coordinates": [103.878799, 1.3727063]}, "properties": {"addr:city": "Singapore", "addr:country": "SG", "addr:housenumber": "11", "addr:postcode": "547532", "addr:street": "Lor Napiri", "amenity": "school", "email": "school@awwa.org.sg", "fax": "+65 6511 5281", "name": "AWWA Sch", "phone": "+65 6511 5280", "website": "http://edu.awwa.org.sg/", "@id": "way/117325075"}}, {"type": "Feature", "geometry": {"type": "Point", "coordinates": [103.7561374, 1.3116958]}, "properties": {"amenity": "school", "name": "The Japanese Secondary School", "name:ms": "Sekolah Menengah The Japanese", "name:zh": "日本中学", "@id": "way/120430149"}}, {"type": "Feature", "geometry": {"type": "Point", "coordinates": [103.8742241, 1.3346962]}, "properties": {"addr:city": "Singapore", "addr:country": "SG", "addr:housenumber": "1", "addr:postcode": "349692", "addr:street": "Cedar Avenue", "amenity": "school", "name": "Cedar Girls' Secondary School", "name:ms": "Sekolah Menengah Cedar Girls'", "name:zh": "四德女子中学", "school": "secondary", "wikidata": "Q5056685", "wikipedia": "en:Cedar Girls' Secondary School", "@id": "way/122670626"}}, {"type": "Feature", "geometry": {"type": "Point", "coordinates": [103.7504182, 1.3645731]}, "properties": {"addr:city": "Singapore", "addr:country": "SG", "addr:housenumber": "3", "addr:postcode": "659322", "addr:street": "Bukit Batok Street 34", "amenity": "school", "name": "Swiss Cottage Secondary School", "name:ms": "Sekolah Menengah Swiss Cottage", "name:zh": "瑞士村中学", "school": "secondary", "wikidata": "Q7658860", "wikipedia": "en:Swiss Cottage Secondary School", "@id": "way/123034974"}}, {"type": "Feature", "geometry": {"type": "Point", "coordinates": [103.8973467, 1.3083742]}, "properties": {"addr:city": "Singapore", "addr:country": "SG", "addr:housenumber": "130", "addr:postcode": "438796", "addr:street": "Haig Road", "amenity": "school", "name": "Tanjong Katong Secondary School", "name:ms": "Sekolah Menengah Tanjong Katong", "name:zh": "丹绒加东中学", "school": "secondary", "wikidata": "Q7683386", "wikipedia": "en:Tanjong Katong Secondary School", "@id": "way/124121128"}}, {"type": "Feature", "geometry": {"type": "Point", "coordinates": [103.7881756, 1.4420658]}, "properties": {"addr:city": "Singapore", "addr:country": "SG", "addr:housenumber": "5", "addr:postcode": "738525", "addr:street": "Woodlands Street 81", "amenity": "school", "name": "Qihua Primary School", "name:ms": "Sekolah Rendah Qihua", "name:zh": "启化小学", "school": "primary", "@id": "way/125489108"}}, {"type": "Feature", "geometry": {"type": "Point", "coordinates": [103.9130704, 1.3999837]}, "properties": {"addr:city": "Singapore", "addr:country": "SG", "addr:housenumber": "61", "addr:postcode": "828819", "addr:street": "Edgedale Plains", "amenity": "school", "email": "horizon_ps@moe.edu.sg", "fax": "+65 6752 3971", "name": "Horizon Primary School", "name:ms": "Sekolah Rendah Horizon", "name:zh": "励众小学", "phone": "+65 6753 5411", "school": "primary", "website": "https://horizonpri.moe.edu.sg/", "@id": "way/128766707"}}, {"type": "Feature", "geometry": {"type": "Point", "coordinates": [103.7745946, 1.425308]}, "properties": {"addr:street": "Woodlands Ave 1", "amenity": "school", "name": "Singapore American School", "name:zh": "新加坡美国学校", "website": "https://www.sas.edu.sg/", "wikidata": "Q7522875", "wikipedia": "en:Singapore American School", "@id": "way/144375613"}}, {"type": "Feature", "geometry": {"type": "Point", "coordinates": [103.8027252, 1.4458666]}, "properties": {"addr:city": "Singapore", "addr:country": "SG", "addr:housenumber": "31", "addr:postcode": "737916", "addr:street": "Woodlands Crescent", "amenity": "school", "name": "Admiralty Secondary School", "name:ms": "Sekolah Menengah Admiralty", "name:zh": "美雅中学", "school": "secondary", "wikidata": "Q4683782", "wikipedia": "en:Admiralty Secondary School", "@id": "way/146745903"}}, {"type": "Feature", "geometry": {"type": "Point", "coordinates": [103.8522713, 1.341513]}, "properties": {"addr:city": "Singapore", "addr:country": "SG", "addr:housenumber": "1", "addr:postcode": "318990", "addr:street": "Toa Payoh North", "amenity": "school", "name": "Beatty Secondary School", "name:ms": "Sekolah Menengah Beatty", "name:zh": "培德中学", "school": "secondary", "wikidata": "Q4877314", "wikipedia": "en:Beatty Secondary School", "@id": "way/148408734"}}, {"type": "Feature", "geometry": {"type": "Point", "coordinates": [103.791751, 1.3452742]}, "properties": {"addr:city": "Singapore", "addr:housenumber": "72", "addr:postcode": "289760", "addr:street": "Bukit Tinggi Road", "amenity": "school", "email": "information.bt@chatsworth.com.sg", "fax": "+65 6463 3202", "grades": "0-12", "name": "Chatsworth International School Singapore (Bukit Timah Campus))", "phone": "+65 6463 3201", "website": "https://international.chatsworth.com.sg/", "wikidata": "Q5087818", "wikipedia": "en:Chatsworth International School", "@id": "way/151711030"}}, {"type": "Feature", "geometry": {"type": "Point", "coordinates": [103.851917, 1.3719344]}, "properties": {"addr:housenumber": "5", "addr:postcode": "569228", "addr:street": "Ang Mo Kio Street 52", "amenity": "school", "name": "Jing Shan Primary School", "name:en": "Jing Shan Primary School", "name:ms": "Sekolah Rendah Jing Shan", "name:zh": "静山小学", "school": "primary", "@id": "way/153582306"}}, {"type": "Feature", "geometry": {"type": "Point", "coordinates": [103.8517111, 1.3750031]}, "properties": {"addr:city": "Singapore", "addr:country": "SG", "addr:housenumber": "10", "addr:postcode": "569206", "addr:street": "Ang Mo Kio Street 53", "amenity": "school", "name": "Anderson Secondary School", "name:ms": "Sekolah Menengah Anderson", "name:zh": "安德逊中学", "school": "secondary", "wikidata": "Q4754186", "wikipedia": "en:Anderson Secondary School", "@id": "way/153582552"}}, {"type": "Feature", "geometry": {"type": "Point", "coordinates": [103.8520621, 1.3666114]}, "properties": {"addr:city": "Singapore", "addr:country": "SG", "addr:housenumber": "1", "addr:postcode": "569277", "addr:street": "Ang Mo Kio Street 42", "amenity": "school", "name": "Deyi Secondary School", "name:en": "Deyi Secondary School", "name:ms": "Sekolah Menengah Deyi", "name:zh": "德义中学", "school": "secondary", "wikidata": "Q5268533", "wikipedia": "en:Deyi Secondary School", "@id": "way/153585212"}}, {"type": "Feature", "geometry": {"type": "Point", "coordinates": [103.8047763, 1.4400699]}, "properties": {"addr:city": "Singapore", "addr:country": "SG", "addr:housenumber": "11", "addr:postcode": "737942", "addr:street": "Woodlands Drive 62", "amenity": "school", "name": "Greenwood Primary School", "name:ms": "Sekolah Rendah Greenwood", "name:zh": "学林小学", "school": "primary", "@id": "way/154154913"}}, {"type": "Feature", "geometry": {"type": "Point", "coordinates": [103.800576, 1.4362395]}, "properties": {"addr:city": "Singapore", "addr:country": "SG", "addr:housenumber": "10", "addr:postcode": "738239", "addr:street": "Woodlands Ring Road", "amenity": "school", "email": "wrss@moe.edu.sg", "fax": "+65 6364 3713", "name": "Woodlands Ring Secondary School", "name:ms": "Sekolah Menengah Woodlands Ring", "name:zh": "辅廉中学", "phone": "+65 6364 3712", "school": "secondary", "website": "https://woodlandsringsec.moe.edu.sg", "wikidata": "Q8032957", "wikipedia": "en:Woodlands Ring Secondary School", "@id": "way/154154934"}}, {"type": "Feature", "geometry": {"type": "Point", "coordinates": [103.7902499, 1.4328975]}, "properties": {"addr:city": "Singapore", "addr:country": "SG", "addr:housenumber": "2", "addr:postcode": "738079", "addr:street": "Woodlands Drive 14", "amenity": "school", "name": "Woodgrove Primary School", "name:ms": "Sekolah Rendah Woodgrove", "name:zh": "林景小学", "school": "primary", "@id": "way/154155161"}}, {"type": "Feature", "geometry": {"type": "Point", "coordinates": [103.7978093, 1.4343141]}, "properties": {"addr:city": "Singapore", "addr:country": "SG", "addr:housenumber": "11", "addr:postcode": "738240", "addr:street": "Woodlands Ring Road", "amenity": "school", "name": "Woodlands Ring Primary School", "name:ms": "Sekolah Rendah Woodlands Ring", "name:zh": "辅廉小学", "school": "primary", "@id": "way/154155361"}}, {"type": "Feature", "geometry": {"type": "Point", "coordinates": [103.8003302, 1.4430232]}, "properties": {"addr:city": "Singapore", "addr:country": "SG", "addr:housenumber": "11", "addr:postcode": "738907", "addr:street": "Woodlands Circle", "amenity": "school", "name": "Admiralty Primary School", "name:ms": "Sekolah Rendah Admiralty", "name:zh": "美雅小学", "school": "primary", "@id": "way/154157142"}}, {"type": "Feature", "geometry": {"type": "Point", "coordinates": [103.7939873, 1.4520078]}, "properties": {"amenity": "school", "name": "Singapore Safety Driving Centre", "@id": "way/154158313"}}, {"type": "Feature", "geometry": {"type": "Point", "coordinates": [103.7947132, 1.4438482]}, "properties": {"addr:city": "Singapore", "addr:country": "SG", "addr:housenumber": "31", "addr:postcode": "738908", "addr:street": "Woodlands Circle", "amenity": "school", "name": "Evergreen Primary School", "name:ms": "Sekolah Rendah Evergreen", "name:zh": "永青小学", "school": "primary", "@id": "way/154158816"}}, {"type": "Feature", "geometry": {"type": "Point", "coordinates": [103.7857619, 1.4327562]}, "properties": {"addr:city": "Singapore", "addr:country": "SG", "addr:housenumber": "61", "addr:postcode": "739067", "addr:street": "Woodlands Avenue 1", "amenity": "school", "name": "Si Ling Primary School", "name:ms": "Sekolah Rendah Si Ling", "name:zh": "士林小学", "school": "primary", "@id": "way/154159529"}}, {"type": "Feature", "geometry": {"type": "Point", "coordinates": [103.7772903, 1.4302769]}, "properties": {"amenity": "school", "name": "Fuchun Secondary School", "name:ms": "Sekolah Menengah Fuchun", "name:zh": "福春中学", "wikidata": "Q5506954", "wikipedia": "en:Fuchun Secondary School", "@id": "way/154162061"}}, {"type": "Feature", "geometry": {"type": "Point", "coordinates": [103.7782401, 1.430277]}, "properties": {"addr:city": "Singapore", "addr:country": "SG", "addr:housenumber": "23", "addr:postcode": "739063", "addr:street": "Woodlands Avenue 1", "amenity": "school", "name": "Fuchun Primary School", "name:ms": "Sekolah Rendah Fuchun", "name:zh": "福春小学", "school": "primary", "@id": "way/154162192"}}, {"type": "Feature", "geometry": {"type": "Point", "coordinates": [103.790745, 1.4292036]}, "properties": {"addr:city": "Singapore", "addr:country": "SG", "addr:housenumber": "80", "addr:postcode": "737888", "addr:street": "Woodlands Drive 17", "amenity": "school", "education": "school", "name": "Innova Primary School", "name:ms": "Sekolah Rendah Innova", "name:zh": "星烁小学", "school": "primary", "@id": "way/154168269"}}, {"type": "Feature", "geometry": {"type": "Point", "coordinates": [103.7889583, 1.4273272]}, "properties": {"addr:city": "Singapore", "addr:country": "SG", "addr:housenumber": "1", "addr:postcode": "737913", "addr:street": "Champions Way", "amenity": "school", "education": "school", "name": "Singapore Sports School", "name:zh": "新加坡体育学校", "school": "sports", "wikidata": "Q7523127", "wikimedia_commons": "Category:Singapore Sports School", "wikipedia": "en:Singapore Sports School", "@id": "way/154168457"}}, {"type": "Feature", "geometry": {"type": "Point", "coordinates": [103.7930548, 1.4267733]}, "properties": {"addr:city": "Singapore", "addr:country": "SG", "addr:housenumber": "20", "addr:postcode": "737924", "addr:street": "Woodlands Drive 17", "amenity": "school", "name": "Christ Church Secondary School", "name:ms": "Sekolah Menengah Christ Church", "name:zh": "基督堂中学", "school": "secondary", "wikidata": "Q5108824", "wikipedia": "en:Christ Church Secondary School", "@id": "way/154169603"}}, {"type": "Feature", "geometry": {"type": "Point", "coordinates": [103.7745172, 1.4400396]}, "properties": {"addr:city": "Singapore", "addr:country": "SG", "addr:housenumber": "11", "addr:postcode": "739111", "addr:street": "Marsiling Road", "amenity": "school", "barrier": "fence", "education": "school", "name": "Woodlands Secondary School", "name:ms": "Sekolah Menengah Woodlands", "name:zh": "辅仁中学", "school": "secondary", "wikidata": "Q8032963", "wikipedia": "en:Woodlands Secondary School", "@id": "way/154249622"}},