planning_area,subzone,poi_dimension,place_query_type,search_query,place_id,place_name,formatted_address,rating,user_ratings_total,types,lat,lng,need_reviews
Western Islands,Jurong Island And Bukom,education,education facilities schools childcare libraries,"education facilities schools childcare libraries near Jurong Island And Bukom, Western Islands, Singapore",ChIJF3XNQ5MP2jERXeUO2D_OtYY,Jurong West Library,"60 Jurong West Central 3, #01-03, Singapore 648346",4.3,269,"[""establishment"", ""library"", ""point_of_interest""]",1.3403486,103.7045246,True
Western Islands,Jurong Island And Bukom,education,education facilities schools childcare libraries,"education facilities schools childcare libraries near Jurong Island And Bukom, Western Islands, Singapore",ChIJraqq-gUQ2jERYpaqvOqNXdk,Jurong Library,"21 Jurong East Central 1, Singapore 609732",4.6,660,"[""establishment"", ""library"", ""point_of_interest""]",1.3327159,103.7395376,True
Western Islands,Jurong Island And Bukom,education,education facilities schools childcare libraries,"education facilities schools childcare libraries near Jurong Island And Bukom, Western Islands, Singapore",ChIJ86yLtKIP2jER865EKXuXEeA,Gifted Learners Student Care @ Jurong West Branch 1,"751 Jurong West Street 73, B1-175, Singapore 640751",4.4,8,"[""establishment"", ""point_of_interest""]",1.3476289,103.6991536,True
Western Islands,Jurong Island And Bukom,education,education facilities schools childcare libraries,"education facilities schools childcare libraries near Jurong Island And Bukom, Western Islands, Singapore",ChIJQ3u8icEP2jER84TmbfrAhss,Little Explorers Cove,"88 Boon Lay Pl, Hockey Village, Singapore 649883",5.0,3,"[""establishment"", ""point_of_interest""]",1.3477404,103.7115866,True
Western Islands,Jurong Island And Bukom,education,education facilities schools childcare libraries,"education facilities schools childcare libraries near Jurong Island And Bukom, Western Islands, Singapore",ChIJq6pqPLwP2jERWmBFHYkwxhI,"CNL Schoolhouse - Infant, Child and Student Care","5 Jurong West Street 74, Level 4, Singapore 649151",5.0,28,"[""establishment"", ""point_of_interest"", ""school""]",1.3495022,103.6989689,True
Western Islands,Jurong Island And Bukom,education,education facilities schools childcare libraries,"education facilities schools childcare libraries near Jurong Island And Bukom, Western Islands, Singapore",ChIJZ3B4xVYR2jERdQhLoumwiA8,in:genius Student Care @ Jurong Gateway,"135 Jurong Gateway Rd, #04-339, Singapore 600135",4.9,43,"[""establishment"", ""point_of_interest""]",1.3338103,103.7397212,True
Western Islands,Jurong Island And Bukom,education,education facilities schools childcare libraries,"education facilities schools childcare libraries near Jurong Island And Bukom, Western Islands, Singapore",ChIJHUK0FlIF2jERLcrbqLf1e-s,Raffles Kidz @ Jurong West (Yuan Ching) - Best Childcare and Preschool Singapore,"1 Yuan Ching Rd, #02-01/02, Singapore 618640",4.9,145,"[""establishment"", ""point_of_interest""]",1.3259983,103.7244048,True
Western Islands,Jurong Island And Bukom,education,education facilities schools childcare libraries,"education facilities schools childcare libraries near Jurong Island And Bukom, Western Islands, Singapore",ChIJTzf2QAMP2jERuAEgbaiI0NU,Raffles Kidz @ Jurong West (Surbana Jurong Campus) – Best Childcare Centre and Preschool,"38 Cleantech Loop, Tower 5, #01-02, Singapore 636741",5.0,11,"[""establishment"", ""point_of_interest""]",1.3530989,103.6914425,True
Western Islands,Jurong Island And Bukom,education,education facilities schools childcare libraries,"education facilities schools childcare libraries near Jurong Island And Bukom, Western Islands, Singapore",ChIJD8lpsd0P2jERbk2kKkwSPjU,First Love Student Care Centre,"470 Jurong West Street 41, Block 470, Singapore 640470",5.0,13,"[""establishment"", ""point_of_interest""]",1.348158,103.7210043,True
Western Islands,Jurong Island And Bukom,education,education facilities schools childcare libraries,"education facilities schools childcare libraries near Jurong Island And Bukom, Western Islands, Singapore",ChIJ6zAvwZkP2jER6DLjaI7x__E,KidsCampus Jurong West Childcare & Infant Care,"837 Jurong West Street 81, #01-75, Singapore 640837",5.0,19,"[""establishment"", ""point_of_interest""]",1.3434041,103.6930362,True
Western Islands,Jurong Island And Bukom,education,education facilities schools childcare libraries,"education facilities schools childcare libraries near Jurong Island And Bukom, Western Islands, Singapore",ChIJ8dDW0F0R2jER8gWvwtJY0aA,Changemakers Explorer Devan Nair Institute | Preschool,"80 Jurong East Street 21, #03-02, Singapore 609607",5.0,2,"[""establishment"", ""point_of_interest"", ""school""]",1.336121,103.7445725,True
Western Islands,Jurong Island And Bukom,education,education facilities schools childcare libraries,"education facilities schools childcare libraries near Jurong Island And Bukom, Western Islands, Singapore",ChIJndkzewkR2jERv3YGBGvlhsA,Lakeside Student Care (Jurong East),"302 Jurong East Street 32, #01-22, Singapore 600302",5.0,1,"[""establishment"", ""point_of_interest""]",1.3447062,103.7343021,True
Western Islands,Jurong Island And Bukom,education,education facilities schools childcare libraries,"education facilities schools childcare libraries near Jurong Island And Bukom, Western Islands, Singapore",ChIJV-nbqA8Q2jERz_3mMpOF6HE,I Love Learning Achievement Center (Jurong East),"2 Venture Dr, #06-15 magic life pte. ltd., Singapore 608526",4.9,47,"[""establishment"", ""point_of_interest""]",1.3301676,103.7446136,True
Western Islands,Jurong Island And Bukom,education,education facilities schools childcare libraries,"education facilities schools childcare libraries near Jurong Island And Bukom, Western Islands, Singapore",ChIJYWtJ3pcP2jERn2VJ0FoLUew,Our Learning Lodge,"Blk 813 Jurong West Street 81, #B1-184, Singapore 640813",5.0,46,"[""establishment"", ""point_of_interest""]",1.3460367,103.6957183,True
Western Islands,Jurong Island And Bukom,education,education facilities schools childcare libraries,"education facilities schools childcare libraries near Jurong Island And Bukom, Western Islands, Singapore",ChIJV0FK8fQR2jER1LhUcp2z7ns,Joyful Land Learning Centre,"Jurong East Street 31, #2nd Floor, Singapore 600353",3.0,2,"[""establishment"", ""point_of_interest""]",1.344303,103.7306511,True
Western Islands,Jurong Island And Bukom,education,education facilities schools childcare libraries,"education facilities schools childcare libraries near Jurong Island And Bukom, Western Islands, Singapore",ChIJJ0sS_j8R2jERGrR76cyISVA,Learning Vision Ng Teng Fong General Hospital,"1 Jurong East Street 21 Ng Teng Fong General Hospital, Annexe Block, Singapore 609606",4.8,36,"[""establishment"", ""point_of_interest"", ""school""]",1.3354208,103.7434884,True
Western Islands,Jurong Island And Bukom,education,education facilities schools childcare libraries,"education facilities schools childcare libraries near Jurong Island And Bukom, Western Islands, Singapore",ChIJAQBALo4a2jERvRLiVO2P_1U,Clementi Library,"3155 Commonwealth Avenue West #05-13/14/15 The Clementi Mall, Singapore 129588",4.2,325,"[""establishment"", ""library"", ""point_of_interest""]",1.3147165,103.7640704,True
Western Islands,Jurong Island And Bukom,education,education facilities schools childcare libraries,"education facilities schools childcare libraries near Jurong Island And Bukom, Western Islands, Singapore",ChIJ0QPFeeQR2jERm-2lfVxMdSk,EduFirst Learning Centre (Jurong East Branch) - English Math Chinese Science Tuition Centre Singapore,"21 Jurong East Central 1, Level 1 Jurong Library, Singapore 609732",4.8,125,"[""establishment"", ""point_of_interest"", ""school""]",1.3329181,103.7395057,True
Western Islands,Jurong Island And Bukom,education,education facilities schools childcare libraries,"education facilities schools childcare libraries near Jurong Island And Bukom, Western Islands, Singapore",ChIJH0Ws-gIR2jERUv2lHIIlNH4,PlayFACTO School @ Jurong East | Student Care Jurong East,"110 Jurong E St 13, Block 110, Singapore 600110",5.0,43,"[""establishment"", ""point_of_interest""]",1.3390559,103.7364741,True
Western Islands,Jurong Island And Bukom,education,education facilities schools childcare libraries,"education facilities schools childcare libraries near Jurong Island And Bukom, Western Islands, Singapore",ChIJDcJs9UEZ2jER4dKm3CUVyMk,Harbourfront Library,"1 HarbourFront Walk, #03-05 VivoCity, Singapore 098585",4.5,484,"[""establishment"", ""library"", ""point_of_interest""]",1.2636837,103.8233985,True
Western Islands,Jurong Island And Bukom,transport,public transport MRT LRT bus stops,"public transport MRT LRT bus stops near Jurong Island And Bukom, Western Islands, Singapore",ChIJ80ix5Gga2jERdXgSC68O6Xs,Ghim Moh Ter,Singapore,4.5,11,"[""establishment"", ""point_of_interest"", ""transit_station""]",1.3110525,103.7893395,True
Western Islands,Jurong Island And Bukom,transport,public transport MRT LRT bus stops,"public transport MRT LRT bus stops near Jurong Island And Bukom, Western Islands, Singapore",ChIJhQ6tivMa2jERiYRiPQYBxoM,Blk 610,Singapore,3.9,11,"[""establishment"", ""point_of_interest"", ""transit_station""]",1.3047533,103.7694551,True
Western Islands,Jurong Island And Bukom,transport,public transport MRT LRT bus stops,"public transport MRT LRT bus stops near Jurong Island And Bukom, Western Islands, Singapore",ChIJOdueMVIa2jERhE4TnhWtNpo,Kent Ridge,"301 South Buona Vista Rd, Singapore 118177",4.3,98,"[""establishment"", ""point_of_interest"", ""subway_station"", ""transit_station""]",1.29346,103.78463,True
Western Islands,Jurong Island And Bukom,transport,public transport MRT LRT bus stops,"public transport MRT LRT bus stops near Jurong Island And Bukom, Western Islands, Singapore",ChIJhV5VAlEa2jERTyAiuShgZ8w,Nuh,Singapore,4.3,3,"[""establishment"", ""point_of_interest"", ""transit_station""]",1.296301,103.783463,True
Western Islands,Jurong Island And Bukom,transport,public transport MRT LRT bus stops,"public transport MRT LRT bus stops near Jurong Island And Bukom, Western Islands, Singapore",ChIJaWgoqk8F2jERVQR0ifOTKjw,Jurong Port Workshops,Singapore,4.0,3,"[""establishment"", ""point_of_interest"", ""transit_station""]",1.315647,103.719872,True
Western Islands,Jurong Island And Bukom,transport,public transport MRT LRT bus stops,"public transport MRT LRT bus stops near Jurong Island And Bukom, Western Islands, Singapore",ChIJKerHUlAa2jERnRtwW8lvtp4,Opp NUH,Singapore,4.4,5,"[""bus_station"", ""establishment"", ""point_of_interest"", ""transit_station""]",1.296482,103.784554,True
Western Islands,Jurong Island And Bukom,transport,public transport MRT LRT bus stops,"public transport MRT LRT bus stops near Jurong Island And Bukom, Western Islands, Singapore",ChIJL52pCg8Q2jERgiWsODe3X9I,Jurong East,"10 Jurong East Street 12, Singapore 609690",4.4,2265,"[""establishment"", ""point_of_interest"", ""subway_station"", ""transit_station""]",1.3331441,103.7423401,True
Western Islands,Jurong Island And Bukom,transport,public transport MRT LRT bus stops,"public transport MRT LRT bus stops near Jurong Island And Bukom, Western Islands, Singapore",ChIJm8BQMFIR2jERYNUW5oJMmHA,Jurong East Bus Interchange,"3 Gateway Link, Jurong Gateway Rd, 17A, Singapore 608532",3.6,76,"[""bus_station"", ""establishment"", ""point_of_interest"", ""transit_station""]",1.3321506,103.7406718,True
Western Islands,Jurong Island And Bukom,transport,public transport MRT LRT bus stops,"public transport MRT LRT bus stops near Jurong Island And Bukom, Western Islands, Singapore",ChIJjaWtSEIa2jERobQlJ-8rqOs,Buona Vista Stn Exit D,Singapore,4.5,11,"[""establishment"", ""point_of_interest"", ""transit_station""]",1.3064389,103.790892,True
Western Islands,Jurong Island And Bukom,transport,public transport MRT LRT bus stops,"public transport MRT LRT bus stops near Jurong Island And Bukom, Western Islands, Singapore",ChIJE4hhhwAc2jERShZX_1Jptm8,Beach Station Bus Terminal,"50 Siloso Bch Walk, Singapore 884011",4.6,10,"[""establishment"", ""point_of_interest""]",1.2514293,103.8185517,True
Western Islands,Jurong Island And Bukom,transport,public transport MRT LRT bus stops,"public transport MRT LRT bus stops near Jurong Island And Bukom, Western Islands, Singapore",ChIJHSFoU_ka2jER1hxgW5i82tQ,Kent Ridge Ter,Singapore,4.1,86,"[""establishment"", ""point_of_interest"", ""transit_station""]",1.294253,103.769882,True
Western Islands,Jurong Island And Bukom,transport,public transport MRT LRT bus stops,"public transport MRT LRT bus stops near Jurong Island And Bukom, Western Islands, Singapore",ChIJgdH0REIa2jERnNvlj82_wz8,Buona Vista Stn Exit C,Singapore,4.6,9,"[""establishment"", ""point_of_interest"", ""transit_station""]",1.3064951,103.7905453,True
Western Islands,Jurong Island And Bukom,transport,public transport MRT LRT bus stops,"public transport MRT LRT bus stops near Jurong Island And Bukom, Western Islands, Singapore",ChIJa6ZAzw8Q2jERRc4TgY003K4,J Gateway,Singapore,2.8,36,"[""bus_station"", ""establishment"", ""point_of_interest"", ""transit_station""]",1.3358972,103.7425966,True
Western Islands,Jurong Island And Bukom,transport,public transport MRT LRT bus stops,"public transport MRT LRT bus stops near Jurong Island And Bukom, Western Islands, Singapore",ChIJX2HOp-cP2jERA6fPSEhdhjU,Lakeside Stn,Singapore,3.7,19,"[""bus_station"", ""establishment"", ""point_of_interest"", ""transit_station""]",1.344301,103.720243,True
Western Islands,Jurong Island And Bukom,transport,public transport MRT LRT bus stops,"public transport MRT LRT bus stops near Jurong Island And Bukom, Western Islands, Singapore",ChIJi9J7UkUa2jEREUidaQaWpMU,One-North,"Ayer Rajah Ave, Singapore 138647",4.4,316,"[""establishment"", ""point_of_interest"", ""subway_station"", ""transit_station""]",1.2998113,103.7875947,True
Western Islands,Jurong Island And Bukom,transport,public transport MRT LRT bus stops,"public transport MRT LRT bus stops near Jurong Island And Bukom, Western Islands, Singapore",ChIJCRjzJ68b2jER7QSuHv9dtN4,Haw Par Villa,Singapore,4.2,89,"[""establishment"", ""point_of_interest"", ""subway_station"", ""transit_station""]",1.283106,103.7819799,True
Western Islands,Jurong Island And Bukom,transport,public transport MRT LRT bus stops,"public transport MRT LRT bus stops near Jurong Island And Bukom, Western Islands, Singapore",ChIJobnQuf8a2jERmYgqZ7Wu4_A,Heng Mui Keng Terr,Singapore,4.4,5,"[""establishment"", ""point_of_interest"", ""transit_station""]",1.2906697,103.7736902,True
Western Islands,Jurong Island And Bukom,transport,public transport MRT LRT bus stops,"public transport MRT LRT bus stops near Jurong Island And Bukom, Western Islands, Singapore",ChIJu-Lw8bsb2jERdebxR7X0_10,Pasir Panjang MRT Station (CC26),"119 Pasir Panjang Rd, Singapore 117424",4.5,261,"[""establishment"", ""point_of_interest""]",1.2760602,103.7918989,True
Western Islands,Jurong Island And Bukom,transport,public transport MRT LRT bus stops,"public transport MRT LRT bus stops near Jurong Island And Bukom, Western Islands, Singapore",ChIJw0m664AF2jERTLDgYit3cwY,Joo Koon Bus Interchange,"55 Benoi Rd, Singapore 629907",2.9,33,"[""establishment"", ""point_of_interest"", ""transit_station""]",1.3256481,103.6784801,True
Western Islands,Jurong Island And Bukom,transport,public transport MRT LRT bus stops,"public transport MRT LRT bus stops near Jurong Island And Bukom, Western Islands, Singapore",ChIJ-3ooCv4a2jERA66-nTPHAXk,West Coast Pk,Singapore,4.0,3,"[""establishment"", ""point_of_interest"", ""transit_station""]",1.2906971,103.7685233,True
Western Islands,Jurong Island And Bukom,food,food dining hawker centres restaurants cafes,"food dining hawker centres restaurants cafes near Jurong Island And Bukom, Western Islands, Singapore",ChIJwYx9mx8Q2jERbnODLJmL8gc,Yuhua Place Market and Hawker Centre,"347 Jurong East Ave 1, Singapore 600347",4.0,2281,"[""establishment"", ""food"", ""point_of_interest"", ""restaurant""]",1.3450836,103.7313403,True
Western Islands,Jurong Island And Bukom,food,food dining hawker centres restaurants cafes,"food dining hawker centres restaurants cafes near Jurong Island And Bukom, Western Islands, Singapore",ChIJ3YoS3ukP2jERkcHsff2PWBo,Boon Lay Place Food Village,"221A Boon Lay Pl, Singapore 641221",4.2,5312,"[""establishment"", ""food"", ""point_of_interest"", ""restaurant""]",1.3457455,103.713105,True
Western Islands,Jurong Island And Bukom,food,food dining hawker centres restaurants cafes,"food dining hawker centres restaurants cafes near Jurong Island And Bukom, Western Islands, Singapore",ChIJDycdABkQ2jERbkUDDjZBFk8,Yuhua Village Market and Food Centre,"254 Jurong East St 24, Singapore 600254",4.1,3421,"[""establishment"", ""food"", ""point_of_interest"", ""restaurant""]",1.3437065,103.7378006,True
Western Islands,Jurong Island And Bukom,food,food dining hawker centres restaurants cafes,"food dining hawker centres restaurants cafes near Jurong Island And Bukom, Western Islands, Singapore",ChIJHabbDPsP2jEROQtuba0GHhc,Taman Jurong Market & Food Centre,"3 Yung Sheng Rd, Singapore 618499",4.2,5414,"[""establishment"", ""food"", ""point_of_interest"", ""restaurant""]",1.3346605,103.7215524,True
Western Islands,Jurong Island And Bukom,food,food dining hawker centres restaurants cafes,"food dining hawker centres restaurants cafes near Jurong Island And Bukom, Western Islands, Singapore",ChIJo6zVvtwP2jERyf2Nuhm97cM,505 Jurong West Market & Food Centre,"505 Jurong West Street 52, Singapore 640505",4.1,4659,"[""establishment"", ""food"", ""point_of_interest"", ""restaurant""]",1.3498107,103.7185004,True
Western Islands,Jurong Island And Bukom,food,food dining hawker centres restaurants cafes,"food dining hawker centres restaurants cafes near Jurong Island And Bukom, Western Islands, Singapore",ChIJyRcdyZMa2jERVyFlLiByOAw,Ayer Rajah Food Centre,"503 W Coast Dr, Singapore 120503",4.2,7389,"[""establishment"", ""food"", ""point_of_interest"", ""restaurant""]",1.3118695,103.7597825,True
Western Islands,Jurong Island And Bukom,food,food dining hawker centres restaurants cafes,"food dining hawker centres restaurants cafes near Jurong Island And Bukom, Western Islands, Singapore",ChIJZYudK5EP2jERoyXvsmYRcEY,Jurong West Hawker Centre,"50 Jurong West Street 61, #61, Singapore 648202",3.7,1041,"[""establishment"", ""food"", ""point_of_interest"", ""restaurant""]",1.3412184,103.6973341,True
Western Islands,Jurong Island And Bukom,food,food dining hawker centres restaurants cafes,"food dining hawker centres restaurants cafes near Jurong Island And Bukom, Western Islands, Singapore",ChIJG3v1pJkP2jERHu_1DXa5YN4,NTI Food Court,"964 Jurong West Street 91, #01-342 Block 964, Singapore 640964",3.8,965,"[""establishment"", ""food"", ""point_of_interest""]",1.3420219,103.6926486,True
Western Islands,Jurong Island And Bukom,food,food dining hawker centres restaurants cafes,"food dining hawker centres restaurants cafes near Jurong Island And Bukom, Western Islands, Singapore",ChIJzxhNAfsP2jERlxjyL8lLOhg,Taman Jurong Food House,"101 Yung Sheng Rd, #01-01, Singapore 618497",4.0,1197,"[""establishment"", ""food"", ""point_of_interest""]",1.3344444,103.7222222,True
Western Islands,Jurong Island And Bukom,food,food dining hawker centres restaurants cafes,"food dining hawker centres restaurants cafes near Jurong Island And Bukom, Western Islands, Singapore",ChIJ7SUpBGoa2jER31LgG0EuOmk,Holland Drive Market & Food Centre,"44 Holland Dr, Singapore 270044",4.1,3184,"[""establishment"", ""food"", ""point_of_interest"", ""restaurant""]",1.308167,103.7927992,True
Western Islands,Jurong Island And Bukom,food,food dining hawker centres restaurants cafes,"food dining hawker centres restaurants cafes near Jurong Island And Bukom, Western Islands, Singapore",ChIJ0bLZwpcP2jERVY-kKYVtL5A,Eating House 815,"815 Jurong West Street 81, #01-210, Singapore 640815",4.0,831,"[""cafe"", ""establishment"", ""food"", ""point_of_interest"", ""store""]",1.3453191,103.6960057,True
Western Islands,Jurong Island And Bukom,food,food dining hawker centres restaurants cafes,"food dining hawker centres restaurants cafes near Jurong Island And Bukom, Western Islands, Singapore",ChIJLwiX0Ukb2jERUnpHTbRAovE,Dewgather,"1 Vista Exchange Grn, #01-46 The Star Vista, Singapore 138617",4.0,675,"[""establishment"", ""food"", ""point_of_interest"", ""restaurant""]",1.3069646,103.7879424,True
Western Islands,Jurong Island And Bukom,food,food dining hawker centres restaurants cafes,"food dining hawker centres restaurants cafes near Jurong Island And Bukom, Western Islands, Singapore",ChIJP0FNrbcb2jERDoCrNqB-ktU,Under Der Linden,"5B Portsdown Rd, #01-02, Singapore 139311",4.3,806,"[""cafe"", ""establishment"", ""food"", ""point_of_interest"", ""restaurant"", ""store""]",1.2944316,103.7960139,True
Western Islands,Jurong Island And Bukom,food,food dining hawker centres restaurants cafes,"food dining hawker centres restaurants cafes near Jurong Island And Bukom, Western Islands, Singapore",ChIJUy7z81ka2jERmJSB-fIqFXQ,Bread Yard,"1 Fusionopolis Pl, #01 - 23 / 24 Galaxis, Singapore 138522",4.1,1096,"[""cafe"", ""establishment"", ""food"", ""point_of_interest""]",1.2999588,103.7877471,True
Western Islands,Jurong Island And Bukom,food,food dining hawker centres restaurants cafes,"food dining hawker centres restaurants cafes near Jurong Island And Bukom, Western Islands, Singapore",ChIJGVasnbwb2jERCVdaOVAZfis,West Coast Market Square,"726 Clementi West Street 2, Singapore 120726",4.1,2124,"[""establishment"", ""food"", ""point_of_interest"", ""restaurant""]",1.3037847,103.7642661,True
Western Islands,Jurong Island And Bukom,food,food dining hawker centres restaurants cafes,"food dining hawker centres restaurants cafes near Jurong Island And Bukom, Western Islands, Singapore",ChIJxXKPnO8b2jER2g18GHhh-Tk,Kopitiam,"5 Lower Kent Ridge Rd, #01-06 NUH Main Building, Singapore 119074",3.4,389,"[""establishment"", ""food"", ""point_of_interest""]",1.2949693,103.7825301,True
Western Islands,Jurong Island And Bukom,food,food dining hawker centres restaurants cafes,"food dining hawker centres restaurants cafes near Jurong Island And Bukom, Western Islands, Singapore",ChIJP4_FiqQR2jERBKnVkYoHIcQ,Bukit Batok West Hawker Centre,"469 Bukit Batok West Ave 9, Singapore 650469",3.5,273,"[""establishment"", ""food"", ""point_of_interest"", ""restaurant""]",1.3550855,103.7415669,True
Western Islands,Jurong Island And Bukom,food,food dining hawker centres restaurants cafes,"food dining hawker centres restaurants cafes near Jurong Island And Bukom, Western Islands, Singapore",ChIJdZupgcsb2jERP1Byeb2I-24,Alexandra Village Food Centre,"120 Bukit Merah Lane 1, Singapore 150120",4.2,6383,"[""establishment"", ""food"", ""point_of_interest"", ""restaurant""]",1.2863397,103.8045184,True
Western Islands,Jurong Island And Bukom,food,food dining hawker centres restaurants cafes,"food dining hawker centres restaurants cafes near Jurong Island And Bukom, Western Islands, Singapore",ChIJlyvDiU8a2jEREEAf9Ubc5wQ,FoodBarn Galaxis,"Galaxis, #01-13, 1 Fusionopolis Pl, Galaxis, Singapore 138522",4.2,321,"[""cafe"", ""establishment"", ""food"", ""point_of_interest"", ""restaurant""]",1.2992054,103.7880859,True
Western Islands,Jurong Island And Bukom,food,food dining hawker centres restaurants cafes,"food dining hawker centres restaurants cafes near Jurong Island And Bukom, Western Islands, Singapore",ChIJVVWhX8EP2jERXqNFsqQa-CI,Bok's Kitchen by Hidden Chefs - Singapore,"216 Boon Lay Ave, #01-01, Singapore 640216",4.5,783,"[""cafe"", ""establishment"", ""food"", ""point_of_interest"", ""restaurant""]",1.349413,103.711315,True
Western Islands,Jurong Island And Bukom,shopping,shopping groceries malls supermarkets markets,"shopping groceries malls supermarkets markets near Jurong Island And Bukom, Western Islands, Singapore",ChIJy64vxOwP2jEReg2oFBt1KJ4,FairPrice,"63 Jurong West Central 3, #03 - 01, Singapura 648331",4.4,4168,"[""establishment"", ""food"", ""grocery_or_supermarket"", ""point_of_interest"", ""store"", ""supermarket""]",1.339622,103.7052417,True
Western Islands,Jurong Island And Bukom,shopping,shopping groceries malls supermarkets markets,"shopping groceries malls supermarkets markets near Jurong Island And Bukom, Western Islands, Singapore",ChIJD865Hw8Q2jERXwifyEiU_Bc,FairPrice Xtra JEM,"50 Jurong Gateway Road, #B1-21/22 & #B3-01, 50 Jurong Gateway Rd, Jem, Singapore 608549",4.3,2119,"[""establishment"", ""food"", ""grocery_or_supermarket"", ""point_of_interest"", ""store"", ""supermarket""]",1.3328361,103.7430889,True
Western Islands,Jurong Island And Bukom,shopping,shopping groceries malls supermarkets markets,"shopping groceries malls supermarkets markets near Jurong Island And Bukom, Western Islands, Singapore",ChIJa9YM2-wP2jERmOUStQKyiS0,Jurong Point,"1 Jurong West Central 2, Singapore 648886",4.4,23253,"[""establishment"", ""food"", ""point_of_interest"", ""shopping_mall""]",1.3397443,103.7067297,True
Western Islands,Jurong Island And Bukom,shopping,shopping groceries malls supermarkets markets,"shopping groceries malls supermarkets markets near Jurong Island And Bukom, Western Islands, Singapore",ChIJa2nb2g0Q2jERlcUMLtMVyoI,IMM Building,"2 Jurong East Street 21, Singapore 609601",4.4,18153,"[""establishment"", ""point_of_interest"", ""shopping_mall""]",1.3359631,103.7470337,True
Western Islands,Jurong Island And Bukom,shopping,shopping groceries malls supermarkets markets,"shopping groceries malls supermarkets markets near Jurong Island And Bukom, Western Islands, Singapore",ChIJa2nb2g0Q2jERblly7bE-Wlg,Giant Supermarket,"2 Jurong East Street 21, #01 - 100 IMM Building, Singapore 609601",4.3,3823,"[""establishment"", ""food"", ""grocery_or_supermarket"", ""point_of_interest"", ""store"", ""supermarket""]",1.3341687,103.7469963,True
Western Islands,Jurong Island And Bukom,shopping,shopping groceries malls supermarkets markets,"shopping groceries malls supermarkets markets near Jurong Island And Bukom, Western Islands, Singapore",ChIJpSUUNq0P2jERckCJMy3euQ4,Sheng Siong Supermarket,"7 Jurong West Ave 5, #01-01/08, Singapura 649486",4.3,2109,"[""establishment"", ""food"", ""grocery_or_supermarket"", ""point_of_interest"", ""store"", ""supermarket""]",1.3488986,103.7034944,True
Western Islands,Jurong Island And Bukom,shopping,shopping groceries malls supermarkets markets,"shopping groceries malls supermarkets markets near Jurong Island And Bukom, Western Islands, Singapore",ChIJb20nHg8Q2jERuBnOGGnuq-s,Jem,"50 Jurong Gateway Rd, Singapore 608549",4.3,17806,"[""establishment"", ""point_of_interest"", ""shopping_mall""]",1.332647,103.7433111,True
Western Islands,Jurong Island And Bukom,shopping,shopping groceries malls supermarkets markets,"shopping groceries malls supermarkets markets near Jurong Island And Bukom, Western Islands, Singapore",ChIJdxS7gPEa2jER1iMe8Ai90Ts,West Coast Plaza,"154 W Coast Rd, Singapore 127371",4.0,3729,"[""establishment"", ""point_of_interest"", ""shopping_mall""]",1.303702,103.7659312,True
Western Islands,Jurong Island And Bukom,shopping,shopping groceries malls supermarkets markets,"shopping groceries malls supermarkets markets near Jurong Island And Bukom, Western Islands, Singapore",ChIJ82AoVA8Q2jERkHnr1RPW9B4,Westgate,"3 Gateway Dr, Singapore 608532",4.3,14828,"[""establishment"", ""point_of_interest"", ""shopping_mall""]",1.334382,103.7427836,True
Western Islands,Jurong Island And Bukom,shopping,shopping groceries malls supermarkets markets,"shopping groceries malls supermarkets markets near Jurong Island And Bukom, Western Islands, Singapore",ChIJd8qWeB8Q2jERBE8TKhpUvxU,Yuhua Place,"348 Jurong East Ave 1, Singapore 600348",4.1,674,"[""establishment"", ""point_of_interest"", ""shopping_mall""]",1.344585,103.7311362,True
Western Islands,Jurong Island And Bukom,shopping,shopping groceries malls supermarkets markets,"shopping groceries malls supermarkets markets near Jurong Island And Bukom, Western Islands, Singapore",ChIJK52N1cUR2jERUTiO_ETnynU,One Holland Village,"7 Holland Vlg Wy, Singapore 275748",4.4,768,"[""establishment"", ""point_of_interest"", ""shopping_mall""]",1.311462,103.7937523,True
Western Islands,Jurong Island And Bukom,shopping,shopping groceries malls supermarkets markets,"shopping groceries malls supermarkets markets near Jurong Island And Bukom, Western Islands, Singapore",ChIJLVIrvFUF2jERKgyxcADnXm8,Sheng Siong Supermarket,"3 Yuan Ching Rd, #01-01A/02, Singapura 618642",4.3,1947,"[""establishment"", ""food"", ""grocery_or_supermarket"", ""point_of_interest"", ""store"", ""supermarket""]",1.3256306,103.7251391,True
Western Islands,Jurong Island And Bukom,shopping,shopping groceries malls supermarkets markets,"shopping groceries malls supermarkets markets near Jurong Island And Bukom, Western Islands, Singapore",ChIJq93BHIkQ2jEReDU1CrhkeOg,FairPrice Finest Bukit Timah Plaza,"1 Jln Anak Bukit, #B1-01 & #B2-01, Bukit Timah Plaza, 1 Jalan Anak Bukit, Singapore 588996",4.4,1268,"[""establishment"", ""food"", ""grocery_or_supermarket"", ""point_of_interest"", ""store"", ""supermarket""]",1.3383817,103.7783546,True
Western Islands,Jurong Island And Bukom,shopping,shopping groceries malls supermarkets markets,"shopping groceries malls supermarkets markets near Jurong Island And Bukom, Western Islands, Singapore",ChIJo8wN5qUa2jERTAxWc0A6fak,Sheng Siong Supermarket,"61 Teban Gardens Rd, Singapore 600061",4.3,955,"[""establishment"", ""food"", ""grocery_or_supermarket"", ""point_of_interest"", ""store"", ""supermarket""]",1.3222501,103.7383727,True
Western Islands,Jurong Island And Bukom,shopping,shopping groceries malls supermarkets markets,"shopping groceries malls supermarkets markets near Jurong Island And Bukom, Western Islands, Singapore",ChIJn1iEdKQb2jERjI5fTMJ7CSQ,Margaret Market,"38 Margaret Dr, Singapore 141038",4.0,222,"[""establishment"", ""point_of_interest""]",1.2977375,103.8043387,True
Western Islands,Jurong Island And Bukom,shopping,shopping groceries malls supermarkets markets,"shopping groceries malls supermarkets markets near Jurong Island And Bukom, Western Islands, Singapore",ChIJq8UGJo4a2jER0ypiQDLiXpg,The Clementi Mall,"3155 Commonwealth Ave W, Singapore 129588",4.1,10700,"[""establishment"", ""point_of_interest"", ""shopping_mall""]",1.314918,103.7643089,True
Western Islands,Jurong Island And Bukom,shopping,shopping groceries malls supermarkets markets,"shopping groceries malls supermarkets markets near Jurong Island And Bukom, Western Islands, Singapore",ChIJp0JVlEIa2jER9lM6m1VP3S0,CS Fresh The Star Vista,"1 Vista Exchange Green #B1-02&35/36, The Star Vista, Singapore 138617",3.9,401,"[""establishment"", ""food"", ""grocery_or_supermarket"", ""point_of_interest"", ""storage"", ""store"", ""supermarket""]",1.3068384,103.7879216,True
Western Islands,Jurong Island And Bukom,shopping,shopping groceries malls supermarkets markets,"shopping groceries malls supermarkets markets near Jurong Island And Bukom, Western Islands, Singapore",ChIJyV81n4AF2jERnrHVt04CmMU,FairPrice Joo Koon,"1 Joo Koon Cir, Singapore 629117",4.3,1351,"[""establishment"", ""food"", ""grocery_or_supermarket"", ""point_of_interest"", ""store"", ""supermarket""]",1.3272037,103.6786391,True
Western Islands,Jurong Island And Bukom,shopping,shopping groceries malls supermarkets markets,"shopping groceries malls supermarkets markets near Jurong Island And Bukom, Western Islands, Singapore",ChIJ91hVlEIa2jERm_cxYZ2WKow,The Star Vista,"1 Vista Exchange Grn, Singapore 138617",4.3,9041,"[""establishment"", ""point_of_interest"", ""shopping_mall""]",1.3068072,103.7883997,True
Western Islands,Jurong Island And Bukom,shopping,shopping groceries malls supermarkets markets,"shopping groceries malls supermarkets markets near Jurong Island And Bukom, Western Islands, Singapore",ChIJjyf3EsIP2jER-6PJOuQZ2po,Boon Lay Shopping Centre,"221 Boon Lay Pl, Singapore 640221",4.3,1719,"[""establishment"", ""point_of_interest"", ""shopping_mall""]",1.3462076,103.7124343,True
Western Islands,Jurong Island And Bukom,recreation,recreation sports gyms swimming community clubs,"recreation sports gyms swimming community clubs near Jurong Island And Bukom, Western Islands, Singapore",ChIJEwW7gpoP2jER4o0mrMTZddM,Jurong West Sport Centre,"20 Jurong West Street 93, Singapore 648965",4.3,1868,"[""establishment"", ""point_of_interest""]",1.3378059,103.6941925,True
Western Islands,Jurong Island And Bukom,recreation,recreation sports gyms swimming community clubs,"recreation sports gyms swimming community clubs near Jurong Island And Bukom, Western Islands, Singapore",ChIJ2XCvCiAQ2jERNcw38Db6v5w,Jurong East Sport Centre,"21 Jurong East Street 31, Singapore 609517",4.2,968,"[""establishment"", ""point_of_interest""]",1.346998,103.729109,True
Western Islands,Jurong Island And Bukom,recreation,recreation sports gyms swimming community clubs,"recreation sports gyms swimming community clubs near Jurong Island And Bukom, Western Islands, Singapore",ChIJ4Qton5oP2jERihKBVLOV04k,Jurong West Swimming Complex,"20 Jurong West Street 93, Singapore 648965",4.2,978,"[""establishment"", ""point_of_interest""]",1.337881,103.6937455,True
Western Islands,Jurong Island And Bukom,recreation,recreation sports gyms swimming community clubs,"recreation sports gyms swimming community clubs near Jurong Island And Bukom, Western Islands, Singapore",ChIJZ5KdZS4P2jERJqwjFbLRyhQ,ActiveSG Park @ Jurong Lake Gardens,"30 Yuan Ching Rd, Singapore 618664",4.4,191,"[""establishment"", ""point_of_interest""]",1.3305206,103.7260427,True
Western Islands,Jurong Island And Bukom,recreation,recreation sports gyms swimming community clubs,"recreation sports gyms swimming community clubs near Jurong Island And Bukom, Western Islands, Singapore",ChIJxWwh6k4P2jERaDoN3Xy17JE,Jurong Lake Gardens ActiveSG Gym,"30 Yuan Ching Rd, Singapore 618664",4.5,345,"[""establishment"", ""gym"", ""health"", ""point_of_interest""]",1.3304311,103.7254336,True
Western Islands,Jurong Island And Bukom,recreation,recreation sports gyms swimming community clubs,"recreation sports gyms swimming community clubs near Jurong Island And Bukom, Western Islands, Singapore",ChIJy6YytPIP2jER_3zeIbByHxE,SAFRA Jurong,"333 Boon Lay Way, Singapore 649848",4.2,1649,"[""establishment"", ""food"", ""gym"", ""health"", ""point_of_interest"", ""restaurant"", ""school""]",1.3354052,103.7059808,True
Western Islands,Jurong Island And Bukom,recreation,recreation sports gyms swimming community clubs,"recreation sports gyms swimming community clubs near Jurong Island And Bukom, Western Islands, Singapore",ChIJWaHnCyAQ2jERlnBesVA4gic,Jurong East Swimming Complex,"21 Jurong East Street 31, #01-01, Singapore 609517",4.1,2324,"[""establishment"", ""gym"", ""health"", ""point_of_interest"", ""tourist_attraction""]",1.3461702,103.7293471,True
Western Islands,Jurong Island And Bukom,recreation,recreation sports gyms swimming community clubs,"recreation sports gyms swimming community clubs near Jurong Island And Bukom, Western Islands, Singapore",ChIJ72UutBsQ2jERo9kuR_0VQVg,Yuhua Community Club,"90 Boon Lay Way, Singapore 609958",4.2,691,"[""establishment"", ""point_of_interest""]",1.3400086,103.7370652,True
Western Islands,Jurong Island And Bukom,recreation,recreation sports gyms swimming community clubs,"recreation sports gyms swimming community clubs near Jurong Island And Bukom, Western Islands, Singapore",ChIJxYNXE_sP2jEReHgQTCiiv-8,Taman Jurong Community Club,"1 Yung Sheng Rd, Singapore 618495",4.4,837,"[""establishment"", ""point_of_interest""]",1.3354031,103.7218845,True
Western Islands,Jurong Island And Bukom,recreation,recreation sports gyms swimming community clubs,"recreation sports gyms swimming community clubs near Jurong Island And Bukom, Western Islands, Singapore",ChIJYeredpAP2jERduiD1Z5dTGI,Jurong West Sport Hall,"20 Jurong West Street 93, #02-18, Singapore 648965",4.4,240,"[""establishment"", ""point_of_interest""]",1.3385286,103.6932988,True
Western Islands,Jurong Island And Bukom,recreation,recreation sports gyms swimming community clubs,"recreation sports gyms swimming community clubs near Jurong Island And Bukom, Western Islands, Singapore",ChIJ7zhb19wP2jERictRTHw9CFo,Jurong Spring Community Club,"8 Jurong West Street 52, Singapore 649296",4.1,521,"[""establishment"", ""point_of_interest""]",1.3484263,103.717966,True
Western Islands,Jurong Island And Bukom,recreation,recreation sports gyms swimming community clubs,"recreation sports gyms swimming community clubs near Jurong Island And Bukom, Western Islands, Singapore",ChIJl3OX0d4P2jERfrhbQVC52gI,Jurong Green Community Club,"6 Jurong West Ave 1, Singapore 649520",4.1,992,"[""establishment"", ""point_of_interest""]",1.3505445,103.7252494,True
Western Islands,Jurong Island And Bukom,recreation,recreation sports gyms swimming community clubs,"recreation sports gyms swimming community clubs near Jurong Island And Bukom, Western Islands, Singapore",ChIJ0S3wSmoa2jER2aq7I8gFiy0,Buona Vista Community Club,"36 Holland Dr, Singapore 270036",4.2,1126,"[""establishment"", ""point_of_interest""]",1.3094603,103.7926982,True
Western Islands,Jurong Island And Bukom,recreation,recreation sports gyms swimming community clubs,"recreation sports gyms swimming community clubs near Jurong Island And Bukom, Western Islands, Singapore",ChIJ_____6AP2jERTK8D_onaEL8,Sports & Recreation Centre,"110 Nanyang Cres, Singapore 636956",4.7,232,"[""establishment"", ""point_of_interest""]",1.3491813,103.6877639,True
Western Islands,Jurong Island And Bukom,recreation,recreation sports gyms swimming community clubs,"recreation sports gyms swimming community clubs near Jurong Island And Bukom, Western Islands, Singapore",ChIJCx1e-ikP2jER7Mt9D0BKmmE,ActiveSG Sport Village @ Jurong Town,"2 International Rd, Singapore 619618",4.5,63,"[""establishment"", ""point_of_interest""]",1.3316166,103.719853,True
Western Islands,Jurong Island And Bukom,recreation,recreation sports gyms swimming community clubs,"recreation sports gyms swimming community clubs near Jurong Island And Bukom, Western Islands, Singapore",ChIJkeX4YFsa2jERDRq9DzW0FHI,ACJC Sports Complex,"25 Dover Cl E, Singapore 139745",4.1,51,"[""establishment"", ""point_of_interest""]",1.301924,103.7863617,True
Western Islands,Jurong Island And Bukom,recreation,recreation sports gyms swimming community clubs,"recreation sports gyms swimming community clubs near Jurong Island And Bukom, Western Islands, Singapore",ChIJjwggcH0Z2jERUYAfBbvPfLo,The Swimming Room,"Blk D Swimming Pool, 511 Upper Jurong Rd, D arena, Singapore 638366",4.9,113,"[""establishment"", ""point_of_interest""]",1.3294921,103.6821887,True
Western Islands,Jurong Island And Bukom,recreation,recreation sports gyms swimming community clubs,"recreation sports gyms swimming community clubs near Jurong Island And Bukom, Western Islands, Singapore",ChIJOZIFa34Z2jERL9_IhYLjUH4,Henderson Community Club,"500 Bukit Merah Vw, Singapore 159682",4.1,352,"[""establishment"", ""point_of_interest""]",1.2858271,103.823121,True
Western Islands,Jurong Island And Bukom,recreation,recreation sports gyms swimming community clubs,"recreation sports gyms swimming community clubs near Jurong Island And Bukom, Western Islands, Singapore",ChIJ2cCNCFga2jER5JmIg6WzSNk,University Sports Centre,"2 Sports Dr., Singapore 117288",4.5,114,"[""establishment"", ""gym"", ""health"", ""point_of_interest""]",1.2997617,103.7754896,True
Western Islands,Jurong Island And Bukom,recreation,recreation sports gyms swimming community clubs,"recreation sports gyms swimming community clubs near Jurong Island And Bukom, Western Islands, Singapore",ChIJE2GHsvkP2jERHQphfdbQ99I,ActiveSG Hockey Village @ Boon Lay Gym,"88 Boon Lay Pl, Singapore 649883",4.3,253,"[""establishment"", ""gym"", ""health"", ""point_of_interest""]",1.3477404,103.7115865,True
Western Islands,Jurong Island And Bukom,nature,parks gardens nature waterfront park connectors,"parks gardens nature waterfront park connectors near Jurong Island And Bukom, Western Islands, Singapore",ChIJ__8_JqUb2jERpXwPzz-poks,Pasir Panjang Park,"121 Pasir Panjang Rd, Singapore 118543",3.9,16,"[""establishment"", ""park"", ""point_of_interest""]",1.2777905,103.7861067,True
Western Islands,Jurong Island And Bukom,nature,parks gardens nature waterfront park connectors,"parks gardens nature waterfront park connectors near Jurong Island And Bukom, Western Islands, Singapore",ChIJp167A6UP2jERUrVmCHG99mg,The Potter's Garden,"Cleantech Loop, Singapore",4.1,433,"[""establishment"", ""park"", ""point_of_interest"", ""tourist_attraction""]",1.3523233,103.6931591,True
Western Islands,Jurong Island And Bukom,nature,parks gardens nature waterfront park connectors,"parks gardens nature waterfront park connectors near Jurong Island And Bukom, Western Islands, Singapore",ChIJWQLwKP0P2jER-AOMrDbkIW8,Jurong Lake Gardens,"Yuan Ching Rd, Singapore",4.6,6462,"[""establishment"", ""park"", ""point_of_interest"", ""tourist_attraction""]",1.3348492,103.7264557,True
Western Islands,Jurong Island And Bukom,nature,parks gardens nature waterfront park connectors,"parks gardens nature waterfront park connectors near Jurong Island And Bukom, Western Islands, Singapore",ChIJeZyq8ZoP2jERC13qGO_hM7M,Jurong Lake Floating Wetlands,"50 Yuan Ching Rd, Singapore 618661",4.6,38,"[""establishment"", ""park"", ""point_of_interest""]",1.3430662,103.7227164,True
Western Islands,Jurong Island And Bukom,nature,parks gardens nature waterfront park connectors,"parks gardens nature waterfront park connectors near Jurong Island And Bukom, Western Islands, Singapore",ChIJRylCgGEb2jERKBIeG6VpYRs,Sungei Ulu Pandan,Singapore,4.2,27,"[""establishment"", ""point_of_interest""]",1.3216951,103.768025,True
Western Islands,Jurong Island And Bukom,nature,parks gardens nature waterfront park connectors,"parks gardens nature waterfront park connectors near Jurong Island And Bukom, Western Islands, Singapore",ChIJqVUlbe0P2jER-8gqnsq4eNk,Jurong Central Park,"Junction off Jalan Boon Lay & Boon Lay Way, Singapore 609961",4.3,2534,"[""establishment"", ""park"", ""point_of_interest"", ""tourist_attraction""]",1.3377938,103.7078525,True
Western Islands,Jurong Island And Bukom,nature,parks gardens nature waterfront park connectors,"parks gardens nature waterfront park connectors near Jurong Island And Bukom, Western Islands, Singapore",ChIJuZ4kdB0Q2jERdp1SrojDF_I,Chinese Garden,"Boon Lay Way, Singapore 619795",4.4,3556,"[""establishment"", ""park"", ""point_of_interest""]",1.3385396,103.7303578,True
Western Islands,Jurong Island And Bukom,nature,parks gardens nature waterfront park connectors,"parks gardens nature waterfront park connectors near Jurong Island And Bukom, Western Islands, Singapore",ChIJq_5RjPUQ2jERQZR7bzih7tw,Hindhede Nature Park,"Hindhede Dr, Singapore",4.5,970,"[""establishment"", ""park"", ""point_of_interest"", ""tourist_attraction""]",1.3491093,103.7754308,True
Western Islands,Jurong Island And Bukom,nature,parks gardens nature waterfront park connectors,"parks gardens nature waterfront park connectors near Jurong Island And Bukom, Western Islands, Singapore",ChIJl56l9KIa2jERKQkFiKZPT4o,Pandan Garden Park Connector,"Pandan Garden Park Connector, Singapore 609341",4.5,51,"[""establishment"", ""point_of_interest""]",1.3197796,103.75059,True
Western Islands,Jurong Island And Bukom,nature,parks gardens nature waterfront park connectors,"parks gardens nature waterfront park connectors near Jurong Island And Bukom, Western Islands, Singapore",ChIJr_uWXrEb2jERw4hpdv17mZc,Kent Ridge Park,"Vigilante Dr, Singapore 118176",4.6,1480,"[""establishment"", ""park"", ""point_of_interest""]",1.2838852,103.7912945,True
Western Islands,Jurong Island And Bukom,nature,parks gardens nature waterfront park connectors,"parks gardens nature waterfront park connectors near Jurong Island And Bukom, Western Islands, Singapore",ChIJQ8uk4vwa2jERqMrT6OFBMuw,West Coast Park,"W Coast Ferry Rd, Singapore 126978",4.4,7048,"[""establishment"", ""park"", ""point_of_interest"", ""tourist_attraction""]",1.2913603,103.7666534,True
Western Islands,Jurong Island And Bukom,nature,parks gardens nature waterfront park connectors,"parks gardens nature waterfront park connectors near Jurong Island And Bukom, Western Islands, Singapore",ChIJf1E8XmEa2jERBSAZgsPdXo4,Ulu Pandan Park Connector (Dover),"Ulu Pandan Park Connector, Singapore",4.3,43,"[""establishment"", ""point_of_interest""]",1.3126465,103.7796679,True
Western Islands,Jurong Island And Bukom,nature,parks gardens nature waterfront park connectors,"parks gardens nature waterfront park connectors near Jurong Island And Bukom, Western Islands, Singapore",ChIJA8Chy6wP2jER5gV-C5bUNKI,Lakeside Garden,"106 Yuan Ching Rd, Singapore",4.7,283,"[""establishment"", ""point_of_interest""]",1.3401032,103.7248543,True
Western Islands,Jurong Island And Bukom,nature,parks gardens nature waterfront park connectors,"parks gardens nature waterfront park connectors near Jurong Island And Bukom, Western Islands, Singapore",ChIJi090zPwS2jERiJCqFWoP8Z4,Woodlands Waterfront Park,"Admiralty Rd W, Singapore 759956",4.5,3993,"[""establishment"", ""park"", ""point_of_interest"", ""tourist_attraction""]",1.4530529,103.7804801,True
Western Islands,Jurong Island And Bukom,nature,parks gardens nature waterfront park connectors,"parks gardens nature waterfront park connectors near Jurong Island And Bukom, Western Islands, Singapore",ChIJ0ZnzsXUW2jER9IrUeleR7To,Sengkang Riverside Park,"Anchorvale Street, Singapore 544834",4.4,2243,"[""establishment"", ""park"", ""point_of_interest"", ""tourist_attraction""]",1.3993143,103.8848743,True
Western Islands,Jurong Island And Bukom,nature,parks gardens nature waterfront park connectors,"parks gardens nature waterfront park connectors near Jurong Island And Bukom, Western Islands, Singapore",ChIJBVVBo_EV2jER-jKR3Hy6qUk,Punggol Waterway Park,"Sentul Cres, Singapore 821313",4.5,2634,"[""establishment"", ""park"", ""point_of_interest"", ""tourist_attraction""]",1.4111377,103.9044621,True
Western Islands,Jurong Island And Bukom,nature,parks gardens nature waterfront park connectors,"parks gardens nature waterfront park connectors near Jurong Island And Bukom, Western Islands, Singapore",ChIJxZwgg1kZ2jERfsCcuEg0JC4,Kallang Park Connector,"998 Bendemeer Rd, Singapore 339945",4.4,119,"[""establishment"", ""park"", ""point_of_interest""]",1.3221012,103.8676558,True
Western Islands,Jurong Island And Bukom,nature,parks gardens nature waterfront park connectors,"parks gardens nature waterfront park connectors near Jurong Island And Bukom, Western Islands, Singapore",ChIJ4QhPDSMT2jER-K6cnYYSNZw,Ulu Sembawang Park Connector,"403R Jln Ulu Sembawang, Singapore 779563",4.4,108,"[""establishment"", ""park"", ""point_of_interest""]",1.422046,103.7928186,True
Western Islands,Jurong Island And Bukom,nature,parks gardens nature waterfront park connectors,"parks gardens nature waterfront park connectors near Jurong Island And Bukom, Western Islands, Singapore",ChIJe5RWDBIQ2jER4pA2An_wQAw,Toh Guan Park,"Toh Guan Rd, #285A 288E, Singapore 601285",4.3,43,"[""establishment"", ""point_of_interest""]",1.3400242,103.744604,True
Western Islands,Jurong Island And Bukom,nature,parks gardens nature waterfront park connectors,"parks gardens nature waterfront park connectors near Jurong Island And Bukom, Western Islands, Singapore",ChIJJR6WlZwZ2jERrqozupYl9tg,Kim Seng Park,"River Vly Grn, Singapore 237993",4.5,108,"[""establishment"", ""park"", ""point_of_interest""]",1.2928315,103.8351896,True
Western Islands,Semakau,education,education facilities schools childcare libraries,"education facilities schools childcare libraries near Semakau, Western Islands, Singapore",ChIJLa4ra1Ua2jERYkEE5BYF-Os,ISEAS Library,"30 Heng Mui Keng Terrace, Pasir Panjang, 30 Heng Mui Keng Ter, Singapore 119614",3.7,9,"[""establishment"", ""library"", ""point_of_interest""]",1.2911895,103.7769557,True
Western Islands,Semakau,education,education facilities schools childcare libraries,"education facilities schools childcare libraries near Semakau, Western Islands, Singapore",ChIJAwAAIHAZ2jERWb0F8dl1h4c,Little Skool-House SingHealth Tower,"10 Hospital Blvd, #05-01 SingHealth Tower, Singapore 168582",4.4,11,"[""establishment"", ""point_of_interest"", ""school""]",1.2779352,103.8353809,True
Western Islands,Semakau,education,education facilities schools childcare libraries,"education facilities schools childcare libraries near Semakau, Western Islands, Singapore",ChIJI8r3ofMb2jERIjPaEQhAVuA,"Agora Colearning (Preschool, Play School, Enrichment, Student Care)","HarbourFront Centre, 1 Maritime Square, #04-01 Lobby C, Singapore 099253",4.9,138,"[""establishment"", ""point_of_interest"", ""school""]",1.2632359,103.8201359,True
Western Islands,Semakau,education,education facilities schools childcare libraries,"education facilities schools childcare libraries near Semakau, Western Islands, Singapore",ChIJ-cuboDAa2jERf6hKqh96UC0,Queenstown Library,"53 Margaret Dr, Singapore 149297",4.6,422,"[""establishment"", ""library"", ""point_of_interest""]",1.2986449,103.8051823,True
Western Islands,Semakau,education,education facilities schools childcare libraries,"education facilities schools childcare libraries near Semakau, Western Islands, Singapore",ChIJyQRybQAb2jERcZDtFhEVnqY,casual poet library,"123 Bukit Merah Lane 1, #01-110, Singapore 150123",5.0,57,"[""establishment"", ""library"", ""point_of_interest""]",1.2863085,103.8035961,True
Western Islands,Semakau,education,education facilities schools childcare libraries,"education facilities schools childcare libraries near Semakau, Western Islands, Singapore",ChIJXUcW3pgb2jERZIyrnp5n5Wk,C J Koh Law Library,"20 College Ave E, Singapore 138529",4.5,15,"[""establishment"", ""library"", ""point_of_interest""]",1.3071359,103.7725613,True
Western Islands,Semakau,education,education facilities schools childcare libraries,"education facilities schools childcare libraries near Semakau, Western Islands, Singapore",ChIJDcJs9UEZ2jER4dKm3CUVyMk,Harbourfront Library,"1 HarbourFront Walk, #03-05 VivoCity, Singapore 098585",4.5,484,"[""establishment"", ""library"", ""point_of_interest""]",1.2636837,103.8233985,True
Western Islands,Semakau,education,education facilities schools childcare libraries,"education facilities schools childcare libraries near Semakau, Western Islands, Singapore",ChIJkS1PGwAX2jERPZwpMof5BzI,Little Children's Library,"350 Anchorvale Rd, Singapore 544317",,0,"[""establishment"", ""library"", ""point_of_interest""]",1.3929354,103.8865545,True
Western Islands,Semakau,education,education facilities schools childcare libraries,"education facilities schools childcare libraries near Semakau, Western Islands, Singapore",ChIJ1fYfwGAa2jERy7f1JLymou0,SP - Library & FabLab,"500 Dover Rd, Singapore 139651",4.2,34,"[""establishment"", ""library"", ""point_of_interest""]",1.3087569,103.7799417,True
Western Islands,Semakau,education,education facilities schools childcare libraries,"education facilities schools childcare libraries near Semakau, Western Islands, Singapore",ChIJTXdxQk4b2jER4HdHnRNjvLY,HV Little Library,"2 Holland Ave, Block 2, Singapore 271002",4.9,64,"[""establishment"", ""library"", ""point_of_interest""]",1.3095115,103.7956789,True
Western Islands,Semakau,education,education facilities schools childcare libraries,"education facilities schools childcare libraries near Semakau, Western Islands, Singapore",ChIJgSLBhIAQ2jER03pM4hD-5EY,Tay Eng Soon Library,"535A Clementi Rd, Singapore 599490 Clementi Rd, Singapore 599490",4.4,7,"[""establishment"", ""library"", ""point_of_interest""]",1.3298003,103.7757296,True
Western Islands,Semakau,education,education facilities schools childcare libraries,"education facilities schools childcare libraries near Semakau, Western Islands, Singapore",ChIJPaRwcKMZ2jERUSouCuWdZLk,SMU Li Ka Shing Library,"70 Stamford Rd, Singapore 178901",4.6,86,"[""establishment"", ""library"", ""point_of_interest""]",1.2962087,103.8501207,True
Western Islands,Semakau,education,education facilities schools childcare libraries,"education facilities schools childcare libraries near Semakau, Western Islands, Singapore",ChIJPcatD20W2jER5foyiNiQrdc,Life Student Care Centre,"306C Anchorvale Link, Singapore 543306",4.6,56,"[""establishment"", ""point_of_interest""]",1.3902098,103.8881582,True
Western Islands,Semakau,education,education facilities schools childcare libraries,"education facilities schools childcare libraries near Semakau, Western Islands, Singapore",ChIJJfVEO6UZ2jERq7ZasSTiEgg,Central Library,"100 Victoria St, #B1-01 National Library / Lee Kong Chian Reference Library, Singapore 188064",4.5,299,"[""establishment"", ""library"", ""point_of_interest""]",1.2977181,103.8543361,True
Western Islands,Semakau,education,education facilities schools childcare libraries,"education facilities schools childcare libraries near Semakau, Western Islands, Singapore",ChIJG67JHD0X2jEReyHzsufYY7o,Red SchoolHouse,"34 Sin Ming Ln, Midview City, Singapore 573955",5.0,29,"[""establishment"", ""point_of_interest"", ""school""]",1.3603509,103.8338559,True
Western Islands,Semakau,education,education facilities schools childcare libraries,"education facilities schools childcare libraries near Semakau, Western Islands, Singapore",ChIJg-qEifUR2jERHEvaLFCoNK0,Junior Seekers Student Care @ Fajar,"Blk 441 Fajar Rd, #B1-466, Singapore 670441",5.0,11,"[""establishment"", ""point_of_interest""]",1.3834187,103.7705169,True
Western Islands,Semakau,education,education facilities schools childcare libraries,"education facilities schools childcare libraries near Semakau, Western Islands, Singapore",ChIJHWfoBcEj2jERVZ7WsZLGx7M,Seedlings World Student Care,"396 Joo Chiat Pl, #02-05 The Yards, Singapore 428079",4.8,17,"[""establishment"", ""point_of_interest""]",1.3149208,103.9101826,True
Western Islands,Semakau,education,education facilities schools childcare libraries,"education facilities schools childcare libraries near Semakau, Western Islands, Singapore",ChIJQ3u8icEP2jER84TmbfrAhss,Little Explorers Cove,"88 Boon Lay Pl, Hockey Village, Singapore 649883",5.0,3,"[""establishment"", ""point_of_interest""]",1.3477404,103.7115866,True
Western Islands,Semakau,education,education facilities schools childcare libraries,"education facilities schools childcare libraries near Semakau, Western Islands, Singapore",ChIJF2rMTmQX2jER5wkZ3F22xDE,Red SchoolHouse Woodleigh,"48 Woodleigh Prk, #B1-01, Singapore 357844",4.4,17,"[""establishment"", ""point_of_interest"", ""school""]",1.3424382,103.8677276,True
Western Islands,Semakau,education,education facilities schools childcare libraries,"education facilities schools childcare libraries near Semakau, Western Islands, Singapore",ChIJw8IVMqk92jERhPm5ecCjtU8,Brave Feats Student Care (Bedok),"21 Bedok North Street 1, #02-02 Common Ground Civics Centre, Singapore 469659",5.0,33,"[""establishment"", ""point_of_interest""]",1.3269455,103.9308431,True
Western Islands,Semakau,transport,public transport MRT LRT bus stops,"public transport MRT LRT bus stops near Semakau, Western Islands, Singapore",ChIJE4hhhwAc2jERShZX_1Jptm8,Beach Station Bus Terminal,"50 Siloso Bch Walk, Singapore 884011",4.6,10,"[""establishment"", ""point_of_interest""]",1.2514293,103.8185517,True
Western Islands,Semakau,transport,public transport MRT LRT bus stops,"public transport MRT LRT bus stops near Semakau, Western Islands, Singapore",ChIJox37CGEa2jERvtedS0eQ6FA,Dover Stn Exit A,Singapore,4.6,7,"[""establishment"", ""point_of_interest"", ""transit_station""]",1.311234,103.778381,True
Western Islands,Semakau,transport,public transport MRT LRT bus stops,"public transport MRT LRT bus stops near Semakau, Western Islands, Singapore",ChIJIXvVDGEa2jERvVGUrQkCgRk,Dover Stn Exit B,Singapore,3.6,5,"[""establishment"", ""point_of_interest"", ""transit_station""]",1.311679,103.778687,True
Western Islands,Semakau,transport,public transport MRT LRT bus stops,"public transport MRT LRT bus stops near Semakau, Western Islands, Singapore",ChIJswTEVN0b2jERsNv_yL3J1eQ,Telok Blangah Stn,Singapore,5.0,2,"[""establishment"", ""point_of_interest"", ""transit_station""]",1.270759,103.810097,True
Western Islands,Semakau,transport,public transport MRT LRT bus stops,"public transport MRT LRT bus stops near Semakau, Western Islands, Singapore",ChIJhQ6tivMa2jERiYRiPQYBxoM,Blk 610,Singapore,3.9,11,"[""establishment"", ""point_of_interest"", ""transit_station""]",1.3047533,103.7694551,True
Western Islands,Semakau,transport,public transport MRT LRT bus stops,"public transport MRT LRT bus stops near Semakau, Western Islands, Singapore",ChIJA__7aDEa2jERxXDylPqXFjY,Queenstown Stn Exit A/D,Singapore,4.1,8,"[""bus_station"", ""establishment"", ""point_of_interest"", ""transit_station""]",1.294615,103.805748,True
Western Islands,Semakau,transport,public transport MRT LRT bus stops,"public transport MRT LRT bus stops near Semakau, Western Islands, Singapore",ChIJ80ix5Gga2jERdXgSC68O6Xs,Ghim Moh Ter,Singapore,4.5,11,"[""establishment"", ""point_of_interest"", ""transit_station""]",1.3110525,103.7893395,True
Western Islands,Semakau,transport,public transport MRT LRT bus stops,"public transport MRT LRT bus stops near Semakau, Western Islands, Singapore",ChIJcxy9slka2jERwuKTpn1uCb8,Opp NUS Sports Centre,Singapore,3.4,7,"[""establishment"", ""point_of_interest"", ""transit_station""]",1.3005951,103.7782011,True
Western Islands,Semakau,transport,public transport MRT LRT bus stops,"public transport MRT LRT bus stops near Semakau, Western Islands, Singapore",ChIJOd6hDXUT2jER-A0rbWceli0,Admiralty Stn,Singapore,4.0,25,"[""bus_station"", ""establishment"", ""point_of_interest"", ""transit_station""]",1.4406899,103.8007386,True
Western Islands,Semakau,transport,public transport MRT LRT bus stops,"public transport MRT LRT bus stops near Semakau, Western Islands, Singapore",ChIJl6fEXTQY2jERKo9bybKcZoU,Kallang Stn,Singapore,4.6,7,"[""bus_station"", ""establishment"", ""point_of_interest"", ""transit_station""]",1.3111679,103.871404,True
Western Islands,Semakau,transport,public transport MRT LRT bus stops,"public transport MRT LRT bus stops near Semakau, Western Islands, Singapore",ChIJ3SD3MMwV2jERJPT1V1_N5T4,Seletar Airport,Singapore,4.6,8,"[""establishment"", ""point_of_interest"", ""transit_station""]",1.4136,103.872871,True
Western Islands,Semakau,transport,public transport MRT LRT bus stops,"public transport MRT LRT bus stops near Semakau, Western Islands, Singapore",ChIJS9TvdBQb2jER2r3tkPo3bj8,Dover MRT Station (EW22),"200 Commonwealth Ave W, Singapore 138677",4.4,242,"[""establishment"", ""point_of_interest""]",1.3114722,103.7784322,True
Western Islands,Semakau,transport,public transport MRT LRT bus stops,"public transport MRT LRT bus stops near Semakau, Western Islands, Singapore",ChIJyeSXTzca2jERUqLY4B6yasg,Aft Ch of Our Saviour,Singapore,5.0,3,"[""establishment"", ""point_of_interest"", ""transit_station""]",1.2981102,103.8036468,True
Western Islands,Semakau,transport,public transport MRT LRT bus stops,"public transport MRT LRT bus stops near Semakau, Western Islands, Singapore",ChIJ5_al89Ai2jERcSobpvC1uao,Upp East Coast Ter,Singapore,4.0,77,"[""establishment"", ""point_of_interest"", ""transit_station""]",1.31796,103.952568,True
Western Islands,Semakau,transport,public transport MRT LRT bus stops,"public transport MRT LRT bus stops near Semakau, Western Islands, Singapore",ChIJX2HOp-cP2jERA6fPSEhdhjU,Lakeside Stn,Singapore,3.7,19,"[""bus_station"", ""establishment"", ""point_of_interest"", ""transit_station""]",1.344301,103.720243,True
Western Islands,Semakau,transport,public transport MRT LRT bus stops,"public transport MRT LRT bus stops near Semakau, Western Islands, Singapore",ChIJHSFoU_ka2jER1hxgW5i82tQ,Kent Ridge Ter,Singapore,4.1,86,"[""establishment"", ""point_of_interest"", ""transit_station""]",1.294253,103.769882,True
Western Islands,Semakau,transport,public transport MRT LRT bus stops,"public transport MRT LRT bus stops near Semakau, Western Islands, Singapore",ChIJD-P8I1Ia2jERebWQDZsf8s4,Opp Kent Ridge Stn Exit A,Singapore,3.5,2,"[""establishment"", ""point_of_interest"", ""transit_station""]",1.29506,103.78455,True
Western Islands,Semakau,transport,public transport MRT LRT bus stops,"public transport MRT LRT bus stops near Semakau, Western Islands, Singapore",ChIJLU9u0pAZ2jERSM06eukSnFM,Somerset Stn,Singapore,4.1,18,"[""bus_station"", ""establishment"", ""point_of_interest"", ""transit_station""]",1.3002803,103.8388358,True
Western Islands,Semakau,transport,public transport MRT LRT bus stops,"public transport MRT LRT bus stops near Semakau, Western Islands, Singapore",ChIJS3rGR2wZ2jERPa5eNHIAEjI,Maritime Hse,Singapore,4.2,5,"[""bus_station"", ""establishment"", ""point_of_interest"", ""transit_station""]",1.2767267,103.8405767,True
Western Islands,Semakau,transport,public transport MRT LRT bus stops,"public transport MRT LRT bus stops near Semakau, Western Islands, Singapore",ChIJhV5VAlEa2jERTyAiuShgZ8w,Nuh,Singapore,4.3,3,"[""establishment"", ""point_of_interest"", ""transit_station""]",1.296301,103.783463,True
Western Islands,Semakau,food,food dining hawker centres restaurants cafes,"food dining hawker centres restaurants cafes near Semakau, Western Islands, Singapore",ChIJdZupgcsb2jERP1Byeb2I-24,Alexandra Village Food Centre,"120 Bukit Merah Lane 1, Singapore 150120",4.2,6383,"[""establishment"", ""food"", ""point_of_interest"", ""restaurant""]",1.2863397,103.8045184,True
Western Islands,Semakau,food,food dining hawker centres restaurants cafes,"food dining hawker centres restaurants cafes near Semakau, Western Islands, Singapore",ChIJf3Yu7bsb2jERADDFSroHkq0,Pasir Panjang Food Centre,"121 Pasir Panjang Rd, Singapore 118543",4.0,3521,"[""establishment"", ""food"", ""point_of_interest"", ""restaurant""]",1.27598,103.7912552,True
Western Islands,Semakau,food,food dining hawker centres restaurants cafes,"food dining hawker centres restaurants cafes near Semakau, Western Islands, Singapore",ChIJkalS-tQb2jERyBBUWbQg3eg,Redhill Food Centre,"85 Redhill Ln, Singapore 150085",4.2,2651,"[""establishment"", ""food"", ""point_of_interest"", ""restaurant""]",1.287294,103.8181829,True
Western Islands,Semakau,food,food dining hawker centres restaurants cafes,"food dining hawker centres restaurants cafes near Semakau, Western Islands, Singapore",ChIJKY77qdYb2jERgrqa1URSZIM,ABC Brickworks Market & Food Centre,"6 Jalan Bukit Merah, Singapore 150006",4.2,8448,"[""establishment"", ""food"", ""point_of_interest"", ""restaurant""]",1.2869047,103.8081551,True
Western Islands,Semakau,food,food dining hawker centres restaurants cafes,"food dining hawker centres restaurants cafes near Semakau, Western Islands, Singapore",ChIJ3_Lpm-Eb2jERLpMzVFxi_vs,Seah Im Food Centre,"2 Seah Im Rd, Singapore 099114",4.1,7686,"[""establishment"", ""food"", ""point_of_interest"", ""restaurant""]",1.266651,103.8190281,True
Western Islands,Semakau,food,food dining hawker centres restaurants cafes,"food dining hawker centres restaurants cafes near Semakau, Western Islands, Singapore",ChIJ13QIcY0b2jERCBe6b9CocUE,Tanglin Halt Market,"48A Tanglin Halt Rd, Singapore 148813",4.3,212,"[""establishment"", ""food"", ""point_of_interest"", ""restaurant""]",1.3004362,103.7976761,True
Western Islands,Semakau,food,food dining hawker centres restaurants cafes,"food dining hawker centres restaurants cafes near Semakau, Western Islands, Singapore",ChIJI-gKldYb2jERNcM2c5yLxNc,Bukit Merah Central Food Centre,"163 Bukit Merah Central, Singapore 150163",4.0,1388,"[""establishment"", ""food"", ""point_of_interest"", ""restaurant""]",1.2834536,103.8174057,True
Western Islands,Semakau,food,food dining hawker centres restaurants cafes,"food dining hawker centres restaurants cafes near Semakau, Western Islands, Singapore",ChIJzyyRZWUb2jERYQW51dRsmjc,Margaret Drive Hawker Centre,"38A Margaret Dr, Singapore 142038",3.9,763,"[""establishment"", ""food"", ""point_of_interest"", ""restaurant""]",1.2974238,103.8047286,True
Western Islands,Semakau,food,food dining hawker centres restaurants cafes,"food dining hawker centres restaurants cafes near Semakau, Western Islands, Singapore",ChIJ5Y6l4Q0Z2jERYL0KDIjT6v0,Lau Pa Sat,"18 Raffles Quay, Singapore 048582",4.4,38467,"[""establishment"", ""food"", ""point_of_interest"", ""restaurant"", ""tourist_attraction""]",1.2805121,103.8503809,True
Western Islands,Semakau,food,food dining hawker centres restaurants cafes,"food dining hawker centres restaurants cafes near Semakau, Western Islands, Singapore",ChIJsUJymcwZ2jERaYAaWRthb5s,Hawkers' Street @ ION,"2 Orchard Turn, #B4-66, Singapore 238801",4.6,1923,"[""establishment"", ""food"", ""point_of_interest""]",1.3039288,103.8319512,True
Western Islands,Semakau,food,food dining hawker centres restaurants cafes,"food dining hawker centres restaurants cafes near Semakau, Western Islands, Singapore",ChIJ7SUpBGoa2jER31LgG0EuOmk,Holland Drive Market & Food Centre,"44 Holland Dr, Singapore 270044",4.1,3184,"[""establishment"", ""food"", ""point_of_interest"", ""restaurant""]",1.308167,103.7927992,True
Western Islands,Semakau,food,food dining hawker centres restaurants cafes,"food dining hawker centres restaurants cafes near Semakau, Western Islands, Singapore",ChIJseQsTQ0Z2jERqpBTWF0Zf84,Maxwell Food Centre,"1 Kadayanallur St, Singapore 069184",4.4,23480,"[""establishment"", ""food"", ""point_of_interest"", ""restaurant"", ""tourist_attraction""]",1.2803361,103.844767,True
Western Islands,Semakau,food,food dining hawker centres restaurants cafes,"food dining hawker centres restaurants cafes near Semakau, Western Islands, Singapore",ChIJ04DTdbQZ2jERFt4kBQi-E60,Golden Mile Food Centre,"505 Beach Rd, Singapore 199583",4.3,7464,"[""establishment"", ""food"", ""point_of_interest"", ""restaurant""]",1.3030908,103.8639299,True
Western Islands,Semakau,food,food dining hawker centres restaurants cafes,"food dining hawker centres restaurants cafes near Semakau, Western Islands, Singapore",ChIJ_c6vFoMZ2jERBWATXfBQ7Aw,Zion Riverside Food Centre,"70 Zion Rd, Singapore 247792",4.2,3990,"[""establishment"", ""food"", ""point_of_interest"", ""restaurant""]",1.2924675,103.8313302,True
Western Islands,Semakau,food,food dining hawker centres restaurants cafes,"food dining hawker centres restaurants cafes near Semakau, Western Islands, Singapore",ChIJv4Mk4QYa2jERlGncaOIvpW4,Adam Food Centre,"2 Adam Rd, Singapore 289876",4.2,8188,"[""establishment"", ""food"", ""point_of_interest"", ""restaurant""]",1.3240414,103.8141545,True
Western Islands,Semakau,food,food dining hawker centres restaurants cafes,"food dining hawker centres restaurants cafes near Semakau, Western Islands, Singapore",ChIJyRcdyZMa2jERVyFlLiByOAw,Ayer Rajah Food Centre,"503 W Coast Dr, Singapore 120503",4.2,7389,"[""establishment"", ""food"", ""point_of_interest"", ""restaurant""]",1.3118695,103.7597825,True
Western Islands,Semakau,food,food dining hawker centres restaurants cafes,"food dining hawker centres restaurants cafes near Semakau, Western Islands, Singapore",ChIJwYx9mx8Q2jERbnODLJmL8gc,Yuhua Place Market and Hawker Centre,"347 Jurong East Ave 1, Singapore 600347",4.0,2281,"[""establishment"", ""food"", ""point_of_interest"", ""restaurant""]",1.3450836,103.7313403,True
Western Islands,Semakau,food,food dining hawker centres restaurants cafes,"food dining hawker centres restaurants cafes near Semakau, Western Islands, Singapore",ChIJWzTvXEcY2jERvSzB8XNKKCk,Old Airport Road Food Centre,"51 Old Airport Rd, Singapore 390051",4.3,12661,"[""bakery"", ""establishment"", ""food"", ""point_of_interest"", ""restaurant"", ""store""]",1.3082405,103.8858445,True
Western Islands,Semakau,food,food dining hawker centres restaurants cafes,"food dining hawker centres restaurants cafes near Semakau, Western Islands, Singapore",ChIJOQISFhcY2jERcEPcJ_l2-RI,Haig Road Market & Food Centre,"14 Haig Rd, Singapore 430014",4.1,4350,"[""establishment"", ""food"", ""point_of_interest"", ""restaurant""]",1.3155435,103.895451,True
Western Islands,Semakau,food,food dining hawker centres restaurants cafes,"food dining hawker centres restaurants cafes near Semakau, Western Islands, Singapore",ChIJRwKzawsZ2jERKxpszLl54EU,Hong Lim Market & Food Centre,"531A Upper Cross St, Singapore 051531",4.3,6616,"[""establishment"", ""food"", ""point_of_interest"", ""restaurant"", ""tourist_attraction""]",1.2853948,103.8458272,True
Western Islands,Semakau,shopping,shopping groceries malls supermarkets markets,"shopping groceries malls supermarkets markets near Semakau, Western Islands, Singapore",ChIJ9_7w3iQZ2jER7mtoL9cUKdU,FairPrice Xtra VivoCity,"1 HarbourFront Walk, #01-23 & #B2-23, 1 HarbourFront Walk, #B2-23 VivoCity, Singapore 098585",4.5,2150,"[""establishment"", ""food"", ""grocery_or_supermarket"", ""point_of_interest"", ""store"", ""supermarket""]",1.2642274,103.8229442,True
Western Islands,Semakau,shopping,shopping groceries malls supermarkets markets,"shopping groceries malls supermarkets markets near Semakau, Western Islands, Singapore",ChIJP-DyGdUb2jER4JzqRS-ubV8,Redhill Market,"79 Redhill Ln, Singapore 150079",4.2,3625,"[""establishment"", ""point_of_interest""]",1.2878415,103.8182751,True
Western Islands,Semakau,shopping,shopping groceries malls supermarkets markets,"shopping groceries malls supermarkets markets near Semakau, Western Islands, Singapore",ChIJe5qyMnkZ2jERYRN7QP_pCMQ,Tiong Bahru Plaza,"302 Tiong Bahru Rd, Singapore 168732",4.2,9069,"[""establishment"", ""point_of_interest"", ""shopping_mall""]",1.2866535,103.8271459,True
Western Islands,Semakau,shopping,shopping groceries malls supermarkets markets,"shopping groceries malls supermarkets markets near Semakau, Western Islands, Singapore",ChIJTyWXW4EZ2jERvzrznx6-XSc,"Little Farms Market, Valley Point (Grocery store)","491 River Valley Rd, #01-20, Singapore 248371",4.5,862,"[""establishment"", ""food"", ""grocery_or_supermarket"", ""point_of_interest"", ""store""]",1.2931219,103.8269124,True
Western Islands,Semakau,shopping,shopping groceries malls supermarkets markets,"shopping groceries malls supermarkets markets near Semakau, Western Islands, Singapore",ChIJq93BHIkQ2jEReDU1CrhkeOg,FairPrice Finest Bukit Timah Plaza,"1 Jln Anak Bukit, #B1-01 & #B2-01, Bukit Timah Plaza, 1 Jalan Anak Bukit, Singapore 588996",4.4,1268,"[""establishment"", ""food"", ""grocery_or_supermarket"", ""point_of_interest"", ""store"", ""supermarket""]",1.3383817,103.7783546,True
Western Islands,Semakau,shopping,shopping groceries malls supermarkets markets,"shopping groceries malls supermarkets markets near Semakau, Western Islands, Singapore",ChIJcdUlky0a2jERHuQ4kJzl9vA,Dawson Place,"57 Dawson Rd, Singapore 142057",3.9,1428,"[""establishment"", ""point_of_interest"", ""shopping_mall""]",1.2926472,103.8107529,True
Western Islands,Semakau,shopping,shopping groceries malls supermarkets markets,"shopping groceries malls supermarkets markets near Semakau, Western Islands, Singapore",ChIJwz3yHMEb2jERHclcbs5KL4A,Alexandra Retail Centre (ARC),"460 Alexandra Rd, Singapore 119963",4.1,4618,"[""establishment"", ""point_of_interest"", ""shopping_mall""]",1.2739139,103.8015008,True
Western Islands,Semakau,shopping,shopping groceries malls supermarkets markets,"shopping groceries malls supermarkets markets near Semakau, Western Islands, Singapore",ChIJn1iEdKQb2jERjI5fTMJ7CSQ,Margaret Market,"38 Margaret Dr, Singapore 141038",4.0,222,"[""establishment"", ""point_of_interest""]",1.2977375,103.8043387,True
Western Islands,Semakau,shopping,shopping groceries malls supermarkets markets,"shopping groceries malls supermarkets markets near Semakau, Western Islands, Singapore",ChIJn-gIK6QZ2jERdYjUlDWvNNc,CS Fresh,"252 N Bridge Rd, #B1-01, Singapore 179103",4.3,1753,"[""establishment"", ""food"", ""grocery_or_supermarket"", ""point_of_interest"", ""restaurant"", ""storage"", ""store"", ""supermarket""]",1.2938879,103.853569,True
Western Islands,Semakau,shopping,shopping groceries malls supermarkets markets,"shopping groceries malls supermarkets markets near Semakau, Western Islands, Singapore",ChIJSZHC-I0Z2jERm8BlwXqhcfc,Wisma Atria,"435 Orchard Rd, Singapore 238877",4.3,7817,"[""establishment"", ""point_of_interest"", ""shopping_mall""]",1.3037148,103.8332642,True
Western Islands,Semakau,shopping,shopping groceries malls supermarkets markets,"shopping groceries malls supermarkets markets near Semakau, Western Islands, Singapore",ChIJK52N1cUR2jERUTiO_ETnynU,One Holland Village,"7 Holland Vlg Wy, Singapore 275748",4.4,768,"[""establishment"", ""point_of_interest"", ""shopping_mall""]",1.311462,103.7937523,True
Western Islands,Semakau,shopping,shopping groceries malls supermarkets markets,"shopping groceries malls supermarkets markets near Semakau, Western Islands, Singapore",ChIJ82AoVA8Q2jERkHnr1RPW9B4,Westgate,"3 Gateway Dr, Singapore 608532",4.3,14828,"[""establishment"", ""point_of_interest"", ""shopping_mall""]",1.334382,103.7427836,True
Western Islands,Semakau,shopping,shopping groceries malls supermarkets markets,"shopping groceries malls supermarkets markets near Semakau, Western Islands, Singapore",ChIJB14IQoMZ2jERyjiLXouuJe0,Great World,"1 Kim Seng Promenade, Singapore 237994",4.3,7814,"[""establishment"", ""point_of_interest"", ""shopping_mall""]",1.2936417,103.8319293,True
Western Islands,Semakau,shopping,shopping groceries malls supermarkets markets,"shopping groceries malls supermarkets markets near Semakau, Western Islands, Singapore",ChIJp0JVlEIa2jER9lM6m1VP3S0,CS Fresh The Star Vista,"1 Vista Exchange Green #B1-02&35/36, The Star Vista, Singapore 138617",3.9,401,"[""establishment"", ""food"", ""grocery_or_supermarket"", ""point_of_interest"", ""storage"", ""store"", ""supermarket""]",1.3068384,103.7879216,True
Western Islands,Semakau,shopping,shopping groceries malls supermarkets markets,"shopping groceries malls supermarkets markets near Semakau, Western Islands, Singapore",ChIJR1Fyfr0Z2jERzwO-AZiJ-HM,Plaza Singapura,"68 Orchard Rd, Singapore 238839",4.4,22483,"[""establishment"", ""point_of_interest"", ""shopping_mall""]",1.3000678,103.8447831,True
Western Islands,Semakau,shopping,shopping groceries malls supermarkets markets,"shopping groceries malls supermarkets markets near Semakau, Western Islands, Singapore",ChIJq8UGJo4a2jER0ypiQDLiXpg,The Clementi Mall,"3155 Commonwealth Ave W, Singapore 129588",4.1,10700,"[""establishment"", ""point_of_interest"", ""shopping_mall""]",1.314918,103.7643089,True
Western Islands,Semakau,shopping,shopping groceries malls supermarkets markets,"shopping groceries malls supermarkets markets near Semakau, Western Islands, Singapore",ChIJdxS7gPEa2jER1iMe8Ai90Ts,West Coast Plaza,"154 W Coast Rd, Singapore 127371",4.0,3729,"[""establishment"", ""point_of_interest"", ""shopping_mall""]",1.303702,103.7659312,True
Western Islands,Semakau,shopping,shopping groceries malls supermarkets markets,"shopping groceries malls supermarkets markets near Semakau, Western Islands, Singapore",ChIJa2nb2g0Q2jERlcUMLtMVyoI,IMM Building,"2 Jurong East Street 21, Singapore 609601",4.4,18153,"[""establishment"", ""point_of_interest"", ""shopping_mall""]",1.3359631,103.7470337,True
Western Islands,Semakau,shopping,shopping groceries malls supermarkets markets,"shopping groceries malls supermarkets markets near Semakau, Western Islands, Singapore",ChIJJ6SpJdwZ2jER3cMcWGFXnTc,"Little Farms Market, Tanglin Mall (Grocery store)","163 Tanglin Rd, #02-136, Singapore 247933",4.6,273,"[""cafe"", ""establishment"", ""food"", ""grocery_or_supermarket"", ""point_of_interest"", ""restaurant"", ""store""]",1.3050246,103.8235685,True
Western Islands,Semakau,shopping,shopping groceries malls supermarkets markets,"shopping groceries malls supermarkets markets near Semakau, Western Islands, Singapore",ChIJw656L8Mb2jERzs3namlmYGs,Telok Blangah Mall,"78A Telok Blangah Street 32, Singapore 101078",4.0,67,"[""establishment"", ""point_of_interest"", ""shopping_mall""]",1.2735039,103.8090393,True
Western Islands,Semakau,recreation,recreation sports gyms swimming community clubs,"recreation sports gyms swimming community clubs near Semakau, Western Islands, Singapore",ChIJ44exaL0b2jERbSxwV6gNBdw,Telok Blangah Community Club,"450 Telok Blangah Street 31, Singapore 108943",4.3,218,"[""establishment"", ""point_of_interest""]",1.274783,103.8078165,True
Western Islands,Semakau,recreation,recreation sports gyms swimming community clubs,"recreation sports gyms swimming community clubs near Semakau, Western Islands, Singapore",ChIJVQ8bzSoa2jERbYemdYtj8kM,Delta Swimming Complex,"900 Tiong Bahru Rd, Singapore 158790",4.0,450,"[""establishment"", ""point_of_interest""]",1.2897143,103.8202466,True
Western Islands,Semakau,recreation,recreation sports gyms swimming community clubs,"recreation sports gyms swimming community clubs near Semakau, Western Islands, Singapore",ChIJ2cCNCFga2jER5JmIg6WzSNk,University Sports Centre,"2 Sports Dr., Singapore 117288",4.5,114,"[""establishment"", ""gym"", ""health"", ""point_of_interest""]",1.2997617,103.7754896,True
Western Islands,Semakau,recreation,recreation sports gyms swimming community clubs,"recreation sports gyms swimming community clubs near Semakau, Western Islands, Singapore",ChIJy5EXsyoa2jERNfQ1b93bPI4,Delta ActiveSG Gym,"900 Tiong Bahru Rd, Singapore 158790",3.9,575,"[""establishment"", ""gym"", ""health"", ""point_of_interest""]",1.2891624,103.820035,True
Western Islands,Semakau,recreation,recreation sports gyms swimming community clubs,"recreation sports gyms swimming community clubs near Semakau, Western Islands, Singapore",ChIJPXkdXM4b2jEROHG66wu0HWI,HP Recreation And Clubhouse,"1150 Depot Rd, Singapore 109673",4.7,33,"[""establishment"", ""point_of_interest""]",1.2830163,103.8074085,True
Western Islands,Semakau,recreation,recreation sports gyms swimming community clubs,"recreation sports gyms swimming community clubs near Semakau, Western Islands, Singapore",ChIJyWQnEYkb2jER6BxhOn5f-BA,Delta Sport Centre,"900 Tiong Bahru Rd, Singapore 158790",4.8,13,"[""establishment"", ""point_of_interest""]",1.2893372,103.8202621,True
Western Islands,Semakau,recreation,recreation sports gyms swimming community clubs,"recreation sports gyms swimming community clubs near Semakau, Western Islands, Singapore",ChIJkeX4YFsa2jERDRq9DzW0FHI,ACJC Sports Complex,"25 Dover Cl E, Singapore 139745",4.1,51,"[""establishment"", ""point_of_interest""]",1.301924,103.7863617,True
Western Islands,Semakau,recreation,recreation sports gyms swimming community clubs,"recreation sports gyms swimming community clubs near Semakau, Western Islands, Singapore",ChIJOZIFa34Z2jERL9_IhYLjUH4,Henderson Community Club,"500 Bukit Merah Vw, Singapore 159682",4.1,352,"[""establishment"", ""point_of_interest""]",1.2858271,103.823121,True
Western Islands,Semakau,recreation,recreation sports gyms swimming community clubs,"recreation sports gyms swimming community clubs near Semakau, Western Islands, Singapore",ChIJRQBn6loY2jERjqNd6Z0qL1k,Singapore Swimming Club,"45 Tanjong Rhu Rd, Singapore Swimming Club, Singapore 436899",4.4,1202,"[""establishment"", ""point_of_interest""]",1.2972808,103.8818315,True
Western Islands,Semakau,recreation,recreation sports gyms swimming community clubs,"recreation sports gyms swimming community clubs near Semakau, Western Islands, Singapore",ChIJs45bbr0R2jERwByR91EdWqw,Senja-Cashew Community Club,"101 Bukit Panjang Rd, Singapore 679910",4.3,1262,"[""establishment"", ""point_of_interest""]",1.381403,103.764651,True
Western Islands,Semakau,recreation,recreation sports gyms swimming community clubs,"recreation sports gyms swimming community clubs near Semakau, Western Islands, Singapore",ChIJ0S3wSmoa2jER2aq7I8gFiy0,Buona Vista Community Club,"36 Holland Dr, Singapore 270036",4.2,1126,"[""establishment"", ""point_of_interest""]",1.3094603,103.7926982,True
Western Islands,Semakau,recreation,recreation sports gyms swimming community clubs,"recreation sports gyms swimming community clubs near Semakau, Western Islands, Singapore",ChIJG54AV6YZ2jEREJaczuWecw8,Singapore Recreation Club,"Connaught Dr, B, Singapore 179682",4.3,1133,"[""establishment"", ""point_of_interest""]",1.2921094,103.8537784,True
Western Islands,Semakau,recreation,recreation sports gyms swimming community clubs,"recreation sports gyms swimming community clubs near Semakau, Western Islands, Singapore",ChIJ8yMt54sQ2jERjBRZb9swlqY,Temasek Club,"131 Rifle Range Rd, Singapore 588406",4.3,1464,"[""establishment"", ""point_of_interest""]",1.3463976,103.7805251,True
Western Islands,Semakau,recreation,recreation sports gyms swimming community clubs,"recreation sports gyms swimming community clubs near Semakau, Western Islands, Singapore",ChIJ6wSMeewZ2jERnRkQnVf_7-c,Cairnhill Community Club,"1 Anthony Rd, #02-06/07, Singapore 229944",4.3,387,"[""establishment"", ""point_of_interest""]",1.3103626,103.8391521,True
Western Islands,Semakau,recreation,recreation sports gyms swimming community clubs,"recreation sports gyms swimming community clubs near Semakau, Western Islands, Singapore",ChIJEwW7gpoP2jER4o0mrMTZddM,Jurong West Sport Centre,"20 Jurong West Street 93, Singapore 648965",4.3,1868,"[""establishment"", ""point_of_interest""]",1.3378059,103.6941925,True
Western Islands,Semakau,recreation,recreation sports gyms swimming community clubs,"recreation sports gyms swimming community clubs near Semakau, Western Islands, Singapore",ChIJ17LH7yQa2jERCv057-MyTfY,SWISH Swimming,"72 Loewen Rd, #01-08, Singapore 248848",4.7,181,"[""establishment"", ""point_of_interest""]",1.3016157,103.8121813,True
Western Islands,Semakau,recreation,recreation sports gyms swimming community clubs,"recreation sports gyms swimming community clubs near Semakau, Western Islands, Singapore",ChIJ7ZgOOiAV2jERCFeUkkIYSag,Sembawang Recreation Centre,"301 Canberra Rd, Singapore 759774",4.5,89,"[""establishment"", ""point_of_interest""]",1.4585179,103.821852,True
Western Islands,Semakau,recreation,recreation sports gyms swimming community clubs,"recreation sports gyms swimming community clubs near Semakau, Western Islands, Singapore",ChIJKV8z5igY2jERTwe6UqsW0P4,F1 Recreation,"20 Sin Ming Ln, #01-57 Midview City, Singapore 573968",4.6,82,"[""establishment"", ""general_contractor"", ""point_of_interest""]",1.3580653,103.8331785,True
Western Islands,Semakau,recreation,recreation sports gyms swimming community clubs,"recreation sports gyms swimming community clubs near Semakau, Western Islands, Singapore",ChIJG0aNr_IZ2jERT1xrhlJaMck,The American Club,"10 Claymore Hl, Singapore 229573",4.3,749,"[""establishment"", ""point_of_interest""]",1.3084609,103.8322004,True
Western Islands,Semakau,recreation,recreation sports gyms swimming community clubs,"recreation sports gyms swimming community clubs near Semakau, Western Islands, Singapore",ChIJoSghZGwZ2jERh4q9jEcnnXM,Tanjong Pagar Community Club,"101 Cantonment Rd, Singapore 089774",4.3,774,"[""establishment"", ""point_of_interest""]",1.2761083,103.8416067,True
Western Islands,Semakau,nature,parks gardens nature waterfront park connectors,"parks gardens nature waterfront park connectors near Semakau, Western Islands, Singapore",ChIJi090zPwS2jERiJCqFWoP8Z4,Woodlands Waterfront Park,"Admiralty Rd W, Singapore 759956",4.5,3993,"[""establishment"", ""park"", ""point_of_interest"", ""tourist_attraction""]",1.4530529,103.7804801,True
Western Islands,Semakau,nature,parks gardens nature waterfront park connectors,"parks gardens nature waterfront park connectors near Semakau, Western Islands, Singapore",ChIJ4QhPDSMT2jER-K6cnYYSNZw,Ulu Sembawang Park Connector,"403R Jln Ulu Sembawang, Singapore 779563",4.4,108,"[""establishment"", ""park"", ""point_of_interest""]",1.422046,103.7928186,True
Western Islands,Semakau,nature,parks gardens nature waterfront park connectors,"parks gardens nature waterfront park connectors near Semakau, Western Islands, Singapore",ChIJ0ZnzsXUW2jER9IrUeleR7To,Sengkang Riverside Park,"Anchorvale Street, Singapore 544834",4.4,2243,"[""establishment"", ""park"", ""point_of_interest"", ""tourist_attraction""]",1.3993143,103.8848743,True
Western Islands,Semakau,nature,parks gardens nature waterfront park connectors,"parks gardens nature waterfront park connectors near Semakau, Western Islands, Singapore",ChIJ__8_JqUb2jERpXwPzz-poks,Pasir Panjang Park,"121 Pasir Panjang Rd, Singapore 118543",3.9,16,"[""establishment"", ""park"", ""point_of_interest""]",1.2777905,103.7861067,True
Western Islands,Semakau,nature,parks gardens nature waterfront park connectors,"parks gardens nature waterfront park connectors near Semakau, Western Islands, Singapore",ChIJied_ZdIT2jERfFB2io7NbV0,Central Catchment Park Connector,"Mandai Rd, Singapore",4.5,547,"[""establishment"", ""point_of_interest""]",1.4105867,103.7783568,True
Western Islands,Semakau,nature,parks gardens nature waterfront park connectors,"parks gardens nature waterfront park connectors near Semakau, Western Islands, Singapore",ChIJxZwgg1kZ2jERfsCcuEg0JC4,Kallang Park Connector,"998 Bendemeer Rd, Singapore 339945",4.4,119,"[""establishment"", ""park"", ""point_of_interest""]",1.3221012,103.8676558,True
Western Islands,Semakau,nature,parks gardens nature waterfront park connectors,"parks gardens nature waterfront park connectors near Semakau, Western Islands, Singapore",ChIJpe5vTGYV2jEReK-nqDGW0JI,Hampstead Wetlands Park,"1 Baker St, Singapore 799977",4.3,381,"[""establishment"", ""park"", ""point_of_interest""]",1.4094026,103.8693039,True
Western Islands,Semakau,nature,parks gardens nature waterfront park connectors,"parks gardens nature waterfront park connectors near Semakau, Western Islands, Singapore",ChIJ-71pnJ092jERTlqtddnAs-0,Changi Bay Park Connector,"2a Changi Ferry Rd, Singapore",4.5,53,"[""establishment"", ""park"", ""point_of_interest""]",1.3708445,104.0048402,True
Western Islands,Semakau,nature,parks gardens nature waterfront park connectors,"parks gardens nature waterfront park connectors near Semakau, Western Islands, Singapore",ChIJf1E8XmEa2jERBSAZgsPdXo4,Ulu Pandan Park Connector (Dover),"Ulu Pandan Park Connector, Singapore",4.3,43,"[""establishment"", ""point_of_interest""]",1.3126465,103.7796679,True
Western Islands,Semakau,nature,parks gardens nature waterfront park connectors,"parks gardens nature waterfront park connectors near Semakau, Western Islands, Singapore",ChIJW08LC5oU2jER6b7cHRVBP6Q,Simpang Kiri Park Connector,"Sembawang Rd, Singapore 758495",4.4,153,"[""establishment"", ""park"", ""point_of_interest"", ""tourist_attraction""]",1.4529108,103.8324722,True
Western Islands,Semakau,nature,parks gardens nature waterfront park connectors,"parks gardens nature waterfront park connectors near Semakau, Western Islands, Singapore",ChIJMxZeJ5sT2jERG3KCuLiIsjw,Woodlands Park Connector (SLE),Singapore,4.7,9,"[""establishment"", ""park"", ""point_of_interest""]",1.4254469,103.7905053,True
Western Islands,Semakau,nature,parks gardens nature waterfront park connectors,"parks gardens nature waterfront park connectors near Semakau, Western Islands, Singapore",ChIJq_5RjPUQ2jERQZR7bzih7tw,Hindhede Nature Park,"Hindhede Dr, Singapore",4.5,970,"[""establishment"", ""park"", ""point_of_interest"", ""tourist_attraction""]",1.3491093,103.7754308,True
Western Islands,Semakau,nature,parks gardens nature waterfront park connectors,"parks gardens nature waterfront park connectors near Semakau, Western Islands, Singapore",ChIJVSYjJKIZ2jERpRFinATD52s,Fort Canning Park,Singapore,4.6,11944,"[""establishment"", ""park"", ""point_of_interest"", ""tourist_attraction""]",1.2943876,103.8458033,True
Western Islands,Semakau,nature,parks gardens nature waterfront park connectors,"parks gardens nature waterfront park connectors near Semakau, Western Islands, Singapore",ChIJBVVBo_EV2jER-jKR3Hy6qUk,Punggol Waterway Park,"Sentul Cres, Singapore 821313",4.5,2634,"[""establishment"", ""park"", ""point_of_interest"", ""tourist_attraction""]",1.4111377,103.9044621,True
Western Islands,Semakau,nature,parks gardens nature waterfront park connectors,"parks gardens nature waterfront park connectors near Semakau, Western Islands, Singapore",ChIJxe3T7SsX2jERAGu8EXnVlsU,Whampoa Park Connector,"Blk 102, Singapore",4.3,11,"[""establishment"", ""point_of_interest""]",1.3281757,103.8509331,True
Western Islands,Semakau,nature,parks gardens nature waterfront park connectors,"parks gardens nature waterfront park connectors near Semakau, Western Islands, Singapore",ChIJJeg_k0oY2jER3tyt8xkYb9M,Kallang Riverside Park,"Cnr Kallang Road and, Crawford St, Singapore 397732",4.5,1505,"[""establishment"", ""park"", ""point_of_interest"", ""tourist_attraction""]",1.3070353,103.8682849,True
Western Islands,Semakau,nature,parks gardens nature waterfront park connectors,"parks gardens nature waterfront park connectors near Semakau, Western Islands, Singapore",ChIJQ8uk4vwa2jERqMrT6OFBMuw,West Coast Park,"W Coast Ferry Rd, Singapore 126978",4.4,7048,"[""establishment"", ""park"", ""point_of_interest"", ""tourist_attraction""]",1.2913603,103.7666534,True
Western Islands,Semakau,nature,parks gardens nature waterfront park connectors,"parks gardens nature waterfront park connectors near Semakau, Western Islands, Singapore",ChIJ____rBoU2jERyE5AP5-iwrc,Lower Seletar Reservoir Park,"Yishun Ave 1, Lower Seletar Reservoir Park, Singapore 769139",4.5,2534,"[""establishment"", ""park"", ""point_of_interest"", ""tourist_attraction""]",1.4101641,103.8324319,True
Western Islands,Semakau,nature,parks gardens nature waterfront park connectors,"parks gardens nature waterfront park connectors near Semakau, Western Islands, Singapore",ChIJ_6g8kisX2jERaGrSixd_xbM,Windsor Nature Park,"30 Venus Dr, Singapore 573858",4.6,1759,"[""establishment"", ""park"", ""point_of_interest"", ""tourist_attraction""]",1.3566265,103.8214319,True
Western Islands,Semakau,nature,parks gardens nature waterfront park connectors,"parks gardens nature waterfront park connectors near Semakau, Western Islands, Singapore",ChIJ42oYzrMZ2jERBvQPkuvE8DA,Gardens by the Bay East (Panoramic view),Singapore,4.8,275,"[""establishment"", ""point_of_interest"", ""tourist_attraction""]",1.2881069,103.8690209,True
Western Islands,Sudong,education,education facilities schools childcare libraries,"education facilities schools childcare libraries near Sudong, Western Islands, Singapore",ChIJDcJs9UEZ2jER4dKm3CUVyMk,Harbourfront Library,"1 HarbourFront Walk, #03-05 VivoCity, Singapore 098585",4.5,484,"[""establishment"", ""library"", ""point_of_interest""]",1.2636837,103.8233985,True
Western Islands,Sudong,education,education facilities schools childcare libraries,"education facilities schools childcare libraries near Sudong, Western Islands, Singapore",ChIJTXdxQk4b2jER4HdHnRNjvLY,HV Little Library,"2 Holland Ave, Block 2, Singapore 271002",4.9,64,"[""establishment"", ""library"", ""point_of_interest""]",1.3095115,103.7956789,True
Western Islands,Sudong,education,education facilities schools childcare libraries,"education facilities schools childcare libraries near Sudong, Western Islands, Singapore",ChIJgSLBhIAQ2jER03pM4hD-5EY,Tay Eng Soon Library,"535A Clementi Rd, Singapore 599490 Clementi Rd, Singapore 599490",4.4,7,"[""establishment"", ""library"", ""point_of_interest""]",1.3298003,103.7757296,True
Western Islands,Sudong,education,education facilities schools childcare libraries,"education facilities schools childcare libraries near Sudong, Western Islands, Singapore",ChIJ2739TgoP2jERlpS4Fef772Y,Library and Information Services Centre (NIE),"1 Nanyang Walk, Singapore 637616",4.6,28,"[""establishment"", ""library"", ""point_of_interest""]",1.348661,103.677635,True
Western Islands,Sudong,education,education facilities schools childcare libraries,"education facilities schools childcare libraries near Sudong, Western Islands, Singapore",ChIJAwAAIHAZ2jERWb0F8dl1h4c,Little Skool-House SingHealth Tower,"10 Hospital Blvd, #05-01 SingHealth Tower, Singapore 168582",4.4,11,"[""establishment"", ""point_of_interest"", ""school""]",1.2779352,103.8353809,True
Western Islands,Sudong,education,education facilities schools childcare libraries,"education facilities schools childcare libraries near Sudong, Western Islands, Singapore",ChIJacK2bVka2jERTDYonuwEJcQ,ACS (Independent) Shaw Library & Resource Centre,"121 Dover Rd, Singapore 139650",4.0,5,"[""establishment"", ""library"", ""point_of_interest""]",1.3019459,103.7801589,True
Western Islands,Sudong,education,education facilities schools childcare libraries,"education facilities schools childcare libraries near Sudong, Western Islands, Singapore",ChIJ-cuboDAa2jERf6hKqh96UC0,Queenstown Library,"53 Margaret Dr, Singapore 149297",4.6,422,"[""establishment"", ""library"", ""point_of_interest""]",1.2986449,103.8051823,True
Western Islands,Sudong,education,education facilities schools childcare libraries,"education facilities schools childcare libraries near Sudong, Western Islands, Singapore",ChIJq93ndYcQ2jERjHV_c00fWVM,Lien Ying Chow Library,"535 Clementi Rd, #02-01, Singapore 599489",4.5,12,"[""establishment"", ""library"", ""point_of_interest""]",1.3337072,103.7767791,True
Western Islands,Sudong,education,education facilities schools childcare libraries,"education facilities schools childcare libraries near Sudong, Western Islands, Singapore",ChIJJfVEO6UZ2jERq7ZasSTiEgg,Central Library,"100 Victoria St, #B1-01 National Library / Lee Kong Chian Reference Library, Singapore 188064",4.5,299,"[""establishment"", ""library"", ""point_of_interest""]",1.2977181,103.8543361,True
Western Islands,Sudong,education,education facilities schools childcare libraries,"education facilities schools childcare libraries near Sudong, Western Islands, Singapore",ChIJI8r3ofMb2jERIjPaEQhAVuA,"Agora Colearning (Preschool, Play School, Enrichment, Student Care)","HarbourFront Centre, 1 Maritime Square, #04-01 Lobby C, Singapore 099253",4.9,138,"[""establishment"", ""point_of_interest"", ""school""]",1.2632359,103.8201359,True
Western Islands,Sudong,education,education facilities schools childcare libraries,"education facilities schools childcare libraries near Sudong, Western Islands, Singapore",ChIJKaGsJKUZ2jERxa8yhKrdPfI,National Library / Lee Kong Chian Reference Library,"100 Victoria St, Singapore 188064",4.6,1765,"[""establishment"", ""library"", ""point_of_interest""]",1.2975884,103.8543081,True
Western Islands,Sudong,education,education facilities schools childcare libraries,"education facilities schools childcare libraries near Sudong, Western Islands, Singapore",ChIJQ3u8icEP2jER84TmbfrAhss,Little Explorers Cove,"88 Boon Lay Pl, Hockey Village, Singapore 649883",5.0,3,"[""establishment"", ""point_of_interest""]",1.3477404,103.7115866,True
Western Islands,Sudong,education,education facilities schools childcare libraries,"education facilities schools childcare libraries near Sudong, Western Islands, Singapore",ChIJL2b6iToa2jERLPjNN7hKfIE,Children's Cove Preschool,"58 Jln Penjara, Singapore 149382",4.7,103,"[""establishment"", ""point_of_interest"", ""school""]",1.2993345,103.8071035,True
Western Islands,Sudong,education,education facilities schools childcare libraries,"education facilities schools childcare libraries near Sudong, Western Islands, Singapore",ChIJ1fYfwGAa2jERy7f1JLymou0,SP - Library & FabLab,"500 Dover Rd, Singapore 139651",4.2,34,"[""establishment"", ""library"", ""point_of_interest""]",1.3087569,103.7799417,True
Western Islands,Sudong,education,education facilities schools childcare libraries,"education facilities schools childcare libraries near Sudong, Western Islands, Singapore",ChIJPaRwcKMZ2jERUSouCuWdZLk,SMU Li Ka Shing Library,"70 Stamford Rd, Singapore 178901",4.6,86,"[""establishment"", ""library"", ""point_of_interest""]",1.2962087,103.8501207,True
Western Islands,Sudong,education,education facilities schools childcare libraries,"education facilities schools childcare libraries near Sudong, Western Islands, Singapore",ChIJ77M1mP4a2jERRfwA553Qz3E,NUS Central Library,"12 Kent Ridge Cres, Singapore 119275",4.6,166,"[""establishment"", ""library"", ""point_of_interest""]",1.2965182,103.773145,True
Western Islands,Sudong,education,education facilities schools childcare libraries,"education facilities schools childcare libraries near Sudong, Western Islands, Singapore",ChIJXUcW3pgb2jERZIyrnp5n5Wk,C J Koh Law Library,"20 College Ave E, Singapore 138529",4.5,15,"[""establishment"", ""library"", ""point_of_interest""]",1.3071359,103.7725613,True
Western Islands,Sudong,education,education facilities schools childcare libraries,"education facilities schools childcare libraries near Sudong, Western Islands, Singapore",ChIJbURpe_Ab2jERtE10Rb38Dbc,The Ngee Ann Kongsi Library @SIT,"11 New Punggol Rd, Level 5 W1 Campus Heart, Singapore 828616",5.0,1,"[""establishment"", ""library"", ""point_of_interest""]",1.4141431,103.9107407,True
Western Islands,Sudong,education,education facilities schools childcare libraries,"education facilities schools childcare libraries near Sudong, Western Islands, Singapore",ChIJHWfoBcEj2jERVZ7WsZLGx7M,Seedlings World Student Care,"396 Joo Chiat Pl, #02-05 The Yards, Singapore 428079",4.8,17,"[""establishment"", ""point_of_interest""]",1.3149208,103.9101826,True
Western Islands,Sudong,education,education facilities schools childcare libraries,"education facilities schools childcare libraries near Sudong, Western Islands, Singapore",ChIJ_bfDcqcX2jERafd4CRwaXrU,Geniebook CAMPUS (Junction 8),"9 Bishan Pl, #04-02A Bishan Junction 8, Singapore 579837",5.0,1,"[""establishment"", ""point_of_interest""]",1.3503819,103.848618,True
Western Islands,Sudong,transport,public transport MRT LRT bus stops,"public transport MRT LRT bus stops near Sudong, Western Islands, Singapore",ChIJE4hhhwAc2jERShZX_1Jptm8,Beach Station Bus Terminal,"50 Siloso Bch Walk, Singapore 884011",4.6,10,"[""establishment"", ""point_of_interest""]",1.2514293,103.8185517,True
Western Islands,Sudong,transport,public transport MRT LRT bus stops,"public transport MRT LRT bus stops near Sudong, Western Islands, Singapore",ChIJ80ix5Gga2jERdXgSC68O6Xs,Ghim Moh Ter,Singapore,4.5,11,"[""establishment"", ""point_of_interest"", ""transit_station""]",1.3110525,103.7893395,True
Western Islands,Sudong,transport,public transport MRT LRT bus stops,"public transport MRT LRT bus stops near Sudong, Western Islands, Singapore",ChIJox37CGEa2jERvtedS0eQ6FA,Dover Stn Exit A,Singapore,4.6,7,"[""establishment"", ""point_of_interest"", ""transit_station""]",1.311234,103.778381,True
Western Islands,Sudong,transport,public transport MRT LRT bus stops,"public transport MRT LRT bus stops near Sudong, Western Islands, Singapore",ChIJNzi2AzwX2jEREs2k_0VmZOY,Marymount Stn,Singapore,4.6,10,"[""establishment"", ""point_of_interest"", ""transit_station""]",1.35019,103.8394466,True
Western Islands,Sudong,transport,public transport MRT LRT bus stops,"public transport MRT LRT bus stops near Sudong, Western Islands, Singapore",ChIJl6fEXTQY2jERKo9bybKcZoU,Kallang Stn,Singapore,4.6,7,"[""bus_station"", ""establishment"", ""point_of_interest"", ""transit_station""]",1.3111679,103.871404,True
Western Islands,Sudong,transport,public transport MRT LRT bus stops,"public transport MRT LRT bus stops near Sudong, Western Islands, Singapore",ChIJswTEVN0b2jERsNv_yL3J1eQ,Telok Blangah Stn,Singapore,5.0,2,"[""establishment"", ""point_of_interest"", ""transit_station""]",1.270759,103.810097,True
Western Islands,Sudong,transport,public transport MRT LRT bus stops,"public transport MRT LRT bus stops near Sudong, Western Islands, Singapore",ChIJIXvVDGEa2jERvVGUrQkCgRk,Dover Stn Exit B,Singapore,3.6,5,"[""establishment"", ""point_of_interest"", ""transit_station""]",1.311679,103.778687,True
Western Islands,Sudong,transport,public transport MRT LRT bus stops,"public transport MRT LRT bus stops near Sudong, Western Islands, Singapore",ChIJA__7aDEa2jERxXDylPqXFjY,Queenstown Stn Exit A/D,Singapore,4.1,8,"[""bus_station"", ""establishment"", ""point_of_interest"", ""transit_station""]",1.294615,103.805748,True
