planning_area,subzone,poi_dimension,place_query_type,search_query,place_id,place_name,formatted_address,rating,user_ratings_total,types,lat,lng,need_reviews
Choa Chu Kang,Choa Chu Kang Central,education,kindergarten,"kindergarten in Choa Chu Kang Central, Choa Chu Kang, Singapore",ChIJ____j-kR2jER_OeSDGFtNIw,Kinderland Preschool @ Choa Chu Kang,"Blk 309 Choa Chu Kang Ave 4, #02-01, Singapore 680309",4.9,60,"[""establishment"", ""point_of_interest"", ""school""]",1.3852383,103.7458463,True
Choa Chu Kang,Choa Chu Kang Central,education,kindergarten,"kindergarten in Choa Chu Kang Central, Choa Chu Kang, Singapore",ChIJrc2xJ_sR2jERnCyyvh3Jang,My First Skool at Blk 225 Choa Chu Kang Central,"Blk 225 Choa Chu Kang Central, Singapore 680225",4.9,15,"[""establishment"", ""point_of_interest"", ""school""]",1.3812136,103.74507,True
Choa Chu Kang,Choa Chu Kang Central,education,childcare centre,"childcare centre in Choa Chu Kang Central, Choa Chu Kang, Singapore",ChIJD1bL38UR2jER1xfv_ojJ34U,Star Learners @ Choa Chu Kang Central | Preschool & Childcare,"229 Choa Chu Kang Central, #01-139, Singapore 680229",4.7,54,"[""establishment"", ""point_of_interest"", ""school""]",1.3806908,103.7464306,True
Choa Chu Kang,Choa Chu Kang Central,education,childcare centre,"childcare centre in Choa Chu Kang Central, Choa Chu Kang, Singapore",ChIJ39hAJcQR2jERfMo3N26ktMQ,SDM Childcare Centre @ Choa Chu Kang,"186 Choa Chu Kang Ave 1, Singapore 689464",4.9,17,"[""establishment"", ""point_of_interest"", ""school""]",1.3769847,103.7456425,True
Choa Chu Kang,Choa Chu Kang Central,education,primary school,"primary school in Choa Chu Kang Central, Choa Chu Kang, Singapore",ChIJpR_olcQR2jERpiolhW9hXws,Chua Chu Kang Primary School,"20 Choa Chu Kang Ave 2, Singapore 689905",,0,"[""establishment"", ""point_of_interest"", ""primary_school"", ""school""]",1.3778193,103.7423121,True
Choa Chu Kang,Choa Chu Kang Central,education,primary school,"primary school in Choa Chu Kang Central, Choa Chu Kang, Singapore",ChIJ8Z1dj8ER2jERKBp5h_WFtrM,South View Primary School,"6 Choa Chu Kang Central, Singapore 689762",,0,"[""establishment"", ""point_of_interest"", ""primary_school"", ""school""]",1.381324,103.7471451,True
Choa Chu Kang,Choa Chu Kang Central,education,secondary school,"secondary school in Choa Chu Kang Central, Choa Chu Kang, Singapore",ChIJE5QEBcAR2jERYKAcfh6IBLw,Chua Chu Kang Secondary School Campus 2,"31 Teck Whye Cres, Singapore 688848",,0,"[""establishment"", ""point_of_interest"", ""school""]",1.3832504,103.7551628,True
Choa Chu Kang,Choa Chu Kang Central,education,secondary school,"secondary school in Choa Chu Kang Central, Choa Chu Kang, Singapore",ChIJe5r-9JUR2jERqq2Ga_xE6HU,Chua Chu Kang Secondary School,"31 Teck Whye Cres, Singapore 688848",,0,"[""establishment"", ""point_of_interest"", ""school"", ""secondary_school""]",1.3831667,103.7551671,True
Choa Chu Kang,Choa Chu Kang Central,education,junior college,"junior college in Choa Chu Kang Central, Choa Chu Kang, Singapore",ChIJz_-CGpUR2jERsxAVVh_vnoY,Jurong Pioneer Junior College,"21 Teck Whye Walk, Singapore 688258",3.8,86,"[""establishment"", ""point_of_interest"", ""university""]",1.3847446,103.753857,True
Choa Chu Kang,Choa Chu Kang Central,education,polytechnic,"polytechnic in Choa Chu Kang Central, Choa Chu Kang, Singapore",ChIJW1axjb8R2jERYKqQVcmPwj0,Choa Chu Kang Polyclinic (NUP),"2 Teck Whye Cres, Singapore 688846",2.4,271,"[""establishment"", ""health"", ""point_of_interest""]",1.38219,103.7509283,True
Choa Chu Kang,Choa Chu Kang Central,education,polytechnic,"polytechnic in Choa Chu Kang Central, Choa Chu Kang, Singapore",ChIJHxfJeecR2jERy04VMjd1fM0,ITE College West,"1 Choa Chu Kang Grv, Singapore 688236",4.2,411,"[""establishment"", ""point_of_interest"", ""university""]",1.3754113,103.7521285,True
Choa Chu Kang,Choa Chu Kang Central,education,tuition centre,"tuition centre in Choa Chu Kang Central, Choa Chu Kang, Singapore",ChIJu1hQOnIR2jERBxRVqQmxKZc,"AGrader Learning Centre (Choa Chu Kang) - English, Math, Creative Writing, Chinese, Science Tuition Centre Singapore","2 Choa Chu Kang Loop, #02-01, Singapore 689687",4.9,154,"[""establishment"", ""point_of_interest""]",1.3842173,103.7449991,True
Choa Chu Kang,Choa Chu Kang Central,education,tuition centre,"tuition centre in Choa Chu Kang Central, Choa Chu Kang, Singapore",ChIJvTsDgNcR2jERjQy8Q7z6uoo,TutorJohn Learning Centre - Choa Chu Kang Tuition Centre,"143 Teck Whye Ln, #01-231, Singapore 680143",4.9,185,"[""establishment"", ""point_of_interest""]",1.3803544,103.7534201,True
Choa Chu Kang,Choa Chu Kang Central,education,library,"library in Choa Chu Kang Central, Choa Chu Kang, Singapore",ChIJ5-Dtl-kR2jERllI9-1NpYVY,Choa Chu Kang Library,"21 Choa Chu Kang Avenue 4 #04-01/02 and #05-06, Lot One Shopper’s Mall, Singapore 689812",4.3,280,"[""establishment"", ""library"", ""point_of_interest""]",1.384977,103.7452205,True
Choa Chu Kang,Choa Chu Kang Central,transport,MRT station,"MRT station in Choa Chu Kang Central, Choa Chu Kang, Singapore",ChIJCZRupukR2jERCglyJsNXaHE,Choa Chu Kang,Singapore 680288,4.0,200,"[""establishment"", ""point_of_interest"", ""subway_station"", ""transit_station""]",1.3847058,103.7445368,True
Choa Chu Kang,Choa Chu Kang Central,transport,bus stop,"bus stop in Choa Chu Kang Central, Choa Chu Kang, Singapore",ChIJxe0CeekR2jERTvo3i83VqUY,Choa Chu Kang Interchange,"Choa Chu Kang, Singapore",3.7,93,"[""bus_station"", ""establishment"", ""point_of_interest"", ""transit_station""]",1.3859683,103.7459786,True
Choa Chu Kang,Choa Chu Kang Central,transport,bus stop,"bus stop in Choa Chu Kang Central, Choa Chu Kang, Singapore",ChIJC8_040gR2jERacObPHcY5gA,Choa Chu Kang Bus Interchange,"70 Choa Chu Kang Loop, Singapore 689688",4.3,57,"[""establishment"", ""point_of_interest""]",1.3857394,103.7451729,True
Choa Chu Kang,Choa Chu Kang Central,transport,LRT station,"LRT station in Choa Chu Kang Central, Choa Chu Kang, Singapore",ChIJf-qKBzYR2jERPCaE21v1ssk,Choa Chu Kang LRT Station (BP1),"15 Choa Chu Kang Ave 4, Singapore 689813",4.0,8,"[""establishment"", ""point_of_interest""]",1.384819,103.744493,True
Choa Chu Kang,Choa Chu Kang Central,food,hawker centre,"hawker centre in Choa Chu Kang Central, Choa Chu Kang, Singapore",ChIJWxEUrdkR2jERM4uTxwEQ3ZY,Blk 253 Choa Chu Kang Market & Food Centre,"Block 253 Choa Chu Kang Ave 1, Singapore 680253",3.8,219,"[""establishment"", ""food"", ""point_of_interest"", ""restaurant""]",1.3766662,103.7445867,True
Choa Chu Kang,Choa Chu Kang Central,food,hawker centre,"hawker centre in Choa Chu Kang Central, Choa Chu Kang, Singapore",ChIJE2pmQcQR2jERMdl7yCj6_LM,Keat Hong Food Centre & Market,"253 Choa Chu Kang Ave 1, Singapore 680253",3.6,336,"[""establishment"", ""food"", ""point_of_interest"", ""restaurant""]",1.3766908,103.7445747,True
Choa Chu Kang,Choa Chu Kang Central,food,food court,"food court in Choa Chu Kang Central, Choa Chu Kang, Singapore",ChIJy2jGDAAR2jER_dGJxOv-p10,Big Appetite,"309 Choa Chu Kang Ave 4, #01-01 Centre, Singapore 680309",2.5,68,"[""establishment"", ""food"", ""point_of_interest""]",1.3851674,103.7457065,True
Choa Chu Kang,Choa Chu Kang Central,food,food court,"food court in Choa Chu Kang Central, Choa Chu Kang, Singapore",ChIJi19VjekR2jERw69DzAIthBU,Food Junction,"21 Choa Chu Kang Ave 4, #04 - 16 Lot One, Singapore 689812",3.7,1292,"[""establishment"", ""food"", ""point_of_interest""]",1.3854472,103.7449054,True
Choa Chu Kang,Choa Chu Kang Central,food,coffee shop,"coffee shop in Choa Chu Kang Central, Choa Chu Kang, Singapore",ChIJU0QaOe4R2jER4sg9HyljWzs,JIA LI COFFEE ROASTER (HOME BASED CAFE),"Choa Chu Kang Street 62, #06-267 Block 616, Singapore 680616",4.8,25,"[""cafe"", ""establishment"", ""food"", ""point_of_interest""]",1.3996494,103.7447839,True
Choa Chu Kang,Choa Chu Kang Central,food,coffee shop,"coffee shop in Choa Chu Kang Central, Choa Chu Kang, Singapore",ChIJ01ysTOgR2jERkczo461Qv5k,CCK 302 FoodHouse,"302 Choa Chu Kang Ave 4, #01-719, Singapore 680302",4.1,2158,"[""cafe"", ""establishment"", ""food"", ""point_of_interest"", ""store""]",1.3849172,103.74338,True
Choa Chu Kang,Choa Chu Kang Central,food,restaurant,"restaurant in Choa Chu Kang Central, Choa Chu Kang, Singapore",ChIJ7bykURsYFwgReysq98OmO8M,Steak 99 Lot 1,"B1 12/13, Singapore 689812",4.6,390,"[""establishment"", ""food"", ""point_of_interest"", ""restaurant""]",1.384848,103.745046,True
Choa Chu Kang,Choa Chu Kang Central,food,restaurant,"restaurant in Choa Chu Kang Central, Choa Chu Kang, Singapore",ChIJOc2hJQAR2jERLCW1YcF9s-k,Steak 99,"21 Choa Chu Kang Ave 4, B1-12, Singapore 689812",4.3,116,"[""establishment"", ""food"", ""point_of_interest"", ""restaurant""]",1.3849853,103.7448986,True
Choa Chu Kang,Choa Chu Kang Central,food,cafe,"cafe in Choa Chu Kang Central, Choa Chu Kang, Singapore",ChIJ04WxPgAR2jERH-z8BbvHggQ,Hua Mu Lan Tea,"10 Choa Chu Kang Ave 4, MRT Inside The Food Inn, Singapore 689810",4.9,172,"[""cafe"", ""establishment"", ""food"", ""point_of_interest"", ""store""]",1.3854085,103.7443327,True
Choa Chu Kang,Choa Chu Kang Central,shopping,shopping mall,"shopping mall in Choa Chu Kang Central, Choa Chu Kang, Singapore",ChIJs5CBlukR2jER-uyFhQ2NFbU,Lot One Shoppers' Mall,"21 Choa Chu Kang Ave 4, Singapore 689812",4.1,7953,"[""establishment"", ""point_of_interest"", ""shopping_mall""]",1.3851169,103.7449142,True
Choa Chu Kang,Choa Chu Kang Central,shopping,shopping mall,"shopping mall in Choa Chu Kang Central, Choa Chu Kang, Singapore",ChIJSZQvzO8R2jER3y3YPr6U1bQ,Limbang Shopping Centre,"Choa Chu Kang Street 51, #532 533, Singapore 680534",3.8,1625,"[""establishment"", ""point_of_interest"", ""shopping_mall""]",1.3922447,103.7432453,True
Choa Chu Kang,Choa Chu Kang Central,shopping,supermarket,"supermarket in Choa Chu Kang Central, Choa Chu Kang, Singapore",ChIJq378adsR2jERViTMRBdSnlo,Giant Supermarket,"475 Choa Chu Kang Avenue 3 01-01/10, Sunshine Place, Singapore 680475",4.1,702,"[""establishment"", ""food"", ""grocery_or_supermarket"", ""point_of_interest"", ""store"", ""supermarket""]",1.3781087,103.7388206,True
Choa Chu Kang,Choa Chu Kang Central,shopping,supermarket,"supermarket in Choa Chu Kang Central, Choa Chu Kang, Singapore",ChIJs5CBlukR2jERTIOWORf5ceI,FairPrice Lot 1 Shoppers' Mall,"21 Choa Chu Kang Avenue 4, #B1-03, Lot, one, Singapore 689812",4.0,1187,"[""establishment"", ""food"", ""grocery_or_supermarket"", ""point_of_interest"", ""store"", ""supermarket""]",1.3852086,103.7449371,True
Choa Chu Kang,Choa Chu Kang Central,shopping,convenience store,"convenience store in Choa Chu Kang Central, Choa Chu Kang, Singapore",ChIJ3zlF8eoR2jERyPbVN1j0kGw,7-11 Convenience Store,"230 Choa Chu Kang Central, #01-K1 Block 230, Singapore 680230",2.3,14,"[""convenience_store"", ""establishment"", ""food"", ""grocery_or_supermarket"", ""point_of_interest"", ""store""]",1.3803289,103.7463091,True
Choa Chu Kang,Choa Chu Kang Central,shopping,convenience store,"convenience store in Choa Chu Kang Central, Choa Chu Kang, Singapore",ChIJOeuIuO8R2jERxrYXmEg4ky4,Cheers Choa Chu Kang MRT,"10 Choa Chu Kang Ave 4, #01-11 MRT Station, Singapore 689810",2.5,22,"[""convenience_store"", ""establishment"", ""food"", ""point_of_interest"", ""store""]",1.3852487,103.7443487,True
Choa Chu Kang,Choa Chu Kang Central,shopping,wet market,"wet market in Choa Chu Kang Central, Choa Chu Kang, Singapore",ChIJE2pmQcQR2jERMdl7yCj6_LM,Keat Hong Food Centre & Market,"253 Choa Chu Kang Ave 1, Singapore 680253",3.6,336,"[""establishment"", ""food"", ""point_of_interest"", ""restaurant""]",1.3766908,103.7445747,True
Choa Chu Kang,Choa Chu Kang Central,shopping,wet market,"wet market in Choa Chu Kang Central, Choa Chu Kang, Singapore",ChIJW-4wFvQR2jERVo2FJjUF2vc,Yew Tee Market,"622 Choa Chu Kang Street 62, Singapore 680622",3.9,141,"[""establishment"", ""point_of_interest""]",1.3985843,103.7472226,True
Choa Chu Kang,Choa Chu Kang Central,recreation,gym,"gym in Choa Chu Kang Central, Choa Chu Kang, Singapore",ChIJgVqV6K0R2jERx19-94Knvow,Anytime Fitness Choa Chu Kang Centre,"309 Choa Chu Kang Ave 4, #03-01, Singapore 680309",4.2,183,"[""establishment"", ""gym"", ""health"", ""point_of_interest""]",1.3850879,103.7457341,True
Choa Chu Kang,Choa Chu Kang Central,recreation,gym,"gym in Choa Chu Kang Central, Choa Chu Kang, Singapore",ChIJ1TpeOAAR2jERDGsg5LsZVmI,Choa Chu Kang ActiveSG Gym,"1 Choa Chu Kang Street 53, Singapore 689236",2.7,19,"[""establishment"", ""gym"", ""health"", ""point_of_interest""]",1.3906612,103.7478293,True
Choa Chu Kang,Choa Chu Kang Central,recreation,sports centre,"sports centre in Choa Chu Kang Central, Choa Chu Kang, Singapore",ChIJ_WX9ue0R2jER865IJyACAoc,Choa Chu Kang Sport Centre,"1 Choa Chu Kang Street 53, Singapore 689236",4.2,959,"[""establishment"", ""gym"", ""health"", ""point_of_interest"", ""stadium""]",1.3910172,103.7482599,True
Choa Chu Kang,Choa Chu Kang Central,recreation,swimming complex,"swimming complex in Choa Chu Kang Central, Choa Chu Kang, Singapore",ChIJ_WX9ue0R2jERj69SXrt_lJU,Choa Chu Kang Swimming Complex (The Swimming Place),"1 Choa Chu Kang Street 53, Singapore 689236",4.2,79,"[""establishment"", ""health"", ""point_of_interest"", ""school""]",1.390985,103.748067,True
Choa Chu Kang,Choa Chu Kang Central,recreation,cinema,"cinema in Choa Chu Kang Central, Choa Chu Kang, Singapore",ChIJi19VjekR2jERWaroR6pc860,Shaw Theatres,"21 Choa Chu Kang Ave 4, Singapore 689812",4.1,905,"[""establishment"", ""movie_theater"", ""point_of_interest""]",1.3850351,103.7451224,True
Choa Chu Kang,Choa Chu Kang Central,recreation,community club,"community club in Choa Chu Kang Central, Choa Chu Kang, Singapore",ChIJv4y6fsAR2jERWc-2HlwTnmE,Chua Chu Kang Community Club,"35 Teck Whye Ave, Chua Chu Kang Community Club, Singapura 688892",,0,"[""premise"", ""street_address""]",1.3811897,103.7516564,True
Choa Chu Kang,Choa Chu Kang Central,recreation,playground,"playground in Choa Chu Kang Central, Choa Chu Kang, Singapore",ChIJaaXk1NwR2jERjStQPwYUkaU,Choa Chu Kang Mega Playground,Singapore,4.5,111,"[""establishment"", ""point_of_interest""]",1.3808895,103.7403691,True
Choa Chu Kang,Choa Chu Kang Central,recreation,playground,"playground in Choa Chu Kang Central, Choa Chu Kang, Singapore",ChIJc_bRw-kR2jERdJWGuXU09jw,Choa Chu Kang Mini Waterpark,Singapore,4.5,19,"[""establishment"", ""point_of_interest""]",1.3841725,103.7444986,True
Choa Chu Kang,Choa Chu Kang Central,nature,park,"park in Choa Chu Kang Central, Choa Chu Kang, Singapore",ChIJRzglD-wR2jERgCmyEeAecXI,Choa Chu Kang Park,"Choa Chu Kang Dr, Singapore 688845",4.3,1911,"[""establishment"", ""park"", ""point_of_interest"", ""tourist_attraction""]",1.3874864,103.7474293,True
Choa Chu Kang,Choa Chu Kang Central,nature,park,"park in Choa Chu Kang Central, Choa Chu Kang, Singapore",ChIJHxEuCgAR2jERoNh4e3aGr-0,Choa Chu Kang Central Mini Road Safety Park,Singapore,4.2,20,"[""establishment"", ""park"", ""point_of_interest""]",1.381679,103.7483163,True
Choa Chu Kang,Choa Chu Kang Central,nature,nature reserve,"nature reserve in Choa Chu Kang Central, Choa Chu Kang, Singapore",ChIJ3dcI_PUN2jERTnYeNNfju5c,Kranji Marshes,"11 Neo Tiew Lane 2, Singapore 718814",4.1,469,"[""establishment"", ""park"", ""point_of_interest""]",1.4196408,103.7205184,True
Choa Chu Kang,Choa Chu Kang Central,nature,garden,"garden in Choa Chu Kang Central, Choa Chu Kang, Singapore",ChIJT6BEccYR2jERExdJ0Eswoo4,Keat Hong Garden,"Keat Hong Link, Singapore",4.1,29,"[""establishment"", ""park"", ""point_of_interest""]",1.3757407,103.7472218,True
Choa Chu Kang,Choa Chu Kang Central,nature,beach,"beach in Choa Chu Kang Central, Choa Chu Kang, Singapore",ChIJVVVVVegR2jER_ncZsSw8hfM,Keat Hong Community Club,"2 Choa Chu Kang Loop, #01-01, Singapore 689687",4.2,1115,"[""establishment"", ""point_of_interest""]",1.3841444,103.744825,True
Choa Chu Kang,Choa Chu Kang Central,nature,waterfront,"waterfront in Choa Chu Kang Central, Choa Chu Kang, Singapore",ChIJc_bRw-kR2jERdJWGuXU09jw,Choa Chu Kang Mini Waterpark,Singapore,4.5,19,"[""establishment"", ""point_of_interest""]",1.3841725,103.7444986,True
Choa Chu Kang,Choa Chu Kang Central,nature,park connector,"park connector in Choa Chu Kang Central, Choa Chu Kang, Singapore",ChIJmzOpj24R2jERpGwQhjLuhCg,Stagmont Park Connector,Singapore,4.4,7,"[""establishment"", ""point_of_interest""]",1.3887179,103.7480184,True
Choa Chu Kang,Choa Chu Kang North,education,kindergarten,"kindergarten in Choa Chu Kang North, Choa Chu Kang, Singapore",ChIJ____j-kR2jER_OeSDGFtNIw,Kinderland Preschool @ Choa Chu Kang,"Blk 309 Choa Chu Kang Ave 4, #02-01, Singapore 680309",4.9,60,"[""establishment"", ""point_of_interest"", ""school""]",1.3852383,103.7458463,True
Choa Chu Kang,Choa Chu Kang North,education,kindergarten,"kindergarten in Choa Chu Kang North, Choa Chu Kang, Singapore",ChIJVUkk2O8R2jERbTU3jlW7AIw,Little Footprints Preschool @ Choa Chu Kang - Limbang,"533 Choa Chu Kang Street 51, #02-01 Limbang Shopping Centre, Singapore 680533",4.8,67,"[""establishment"", ""point_of_interest"", ""school""]",1.3920515,103.743666,True
Choa Chu Kang,Choa Chu Kang North,education,childcare centre,"childcare centre in Choa Chu Kang North, Choa Chu Kang, Singapore",ChIJ39hAJcQR2jERfMo3N26ktMQ,SDM Childcare Centre @ Choa Chu Kang,"186 Choa Chu Kang Ave 1, Singapore 689464",4.9,17,"[""establishment"", ""point_of_interest"", ""school""]",1.3769847,103.7456425,True
Choa Chu Kang,Choa Chu Kang North,education,childcare centre,"childcare centre in Choa Chu Kang North, Choa Chu Kang, Singapore",ChIJEWzcku0R2jERxHDqVZm0X6w,Ace @ Work Childcare (CCK 757),"757 Choa Chu Kang North 5, #01-121, Singapore 680757",5.0,19,"[""establishment"", ""point_of_interest"", ""school""]",1.3929385,103.745978,True
Choa Chu Kang,Choa Chu Kang North,education,primary school,"primary school in Choa Chu Kang North, Choa Chu Kang, Singapore",ChIJ5xcmPfIR2jERI_ueBXIcBPw,Kranji Primary School,"11 Choa Chu Kang Street 54, Singapore 689189",,0,"[""establishment"", ""point_of_interest"", ""primary_school"", ""school"", ""secondary_school""]",1.3936035,103.747804,True
Choa Chu Kang,Choa Chu Kang North,education,primary school,"primary school in Choa Chu Kang North, Choa Chu Kang, Singapore",ChIJyyRcW_MR2jERtxnlA3qyVV0,Yew Tee Primary School,"10 Choa Chu Kang Street 64, Singapore 689100",,0,"[""establishment"", ""point_of_interest"", ""primary_school"", ""school""]",1.396978,103.7511849,True
Choa Chu Kang,Choa Chu Kang North,education,secondary school,"secondary school in Choa Chu Kang North, Choa Chu Kang, Singapore",ChIJdbFVX-0R2jERx3e8YNpQy3w,Regent Secondary School,"50 Choa Chu Kang North 5, Singapore 689621",,0,"[""establishment"", ""point_of_interest"", ""school""]",1.3933418,103.7508581,True
Choa Chu Kang,Choa Chu Kang North,education,secondary school,"secondary school in Choa Chu Kang North, Choa Chu Kang, Singapore",ChIJe5r-9JUR2jERqq2Ga_xE6HU,Chua Chu Kang Secondary School,"31 Teck Whye Cres, Singapore 688848",,0,"[""establishment"", ""point_of_interest"", ""school"", ""secondary_school""]",1.3831667,103.7551671,True
Choa Chu Kang,Choa Chu Kang North,education,junior college,"junior college in Choa Chu Kang North, Choa Chu Kang, Singapore",ChIJz_-CGpUR2jERsxAVVh_vnoY,Jurong Pioneer Junior College,"21 Teck Whye Walk, Singapore 688258",3.8,86,"[""establishment"", ""point_of_interest"", ""university""]",1.3847446,103.753857,True
Choa Chu Kang,Choa Chu Kang North,education,polytechnic,"polytechnic in Choa Chu Kang North, Choa Chu Kang, Singapore",ChIJW1axjb8R2jERYKqQVcmPwj0,Choa Chu Kang Polyclinic (NUP),"2 Teck Whye Cres, Singapore 688846",2.4,271,"[""establishment"", ""health"", ""point_of_interest""]",1.38219,103.7509283,True
Choa Chu Kang,Choa Chu Kang North,education,polytechnic,"polytechnic in Choa Chu Kang North, Choa Chu Kang, Singapore",ChIJHxfJeecR2jERy04VMjd1fM0,ITE College West,"1 Choa Chu Kang Grv, Singapore 688236",4.2,411,"[""establishment"", ""point_of_interest"", ""university""]",1.3754113,103.7521285,True
Choa Chu Kang,Choa Chu Kang North,education,tuition centre,"tuition centre in Choa Chu Kang North, Choa Chu Kang, Singapore",ChIJvTsDgNcR2jERjQy8Q7z6uoo,TutorJohn Learning Centre - Choa Chu Kang Tuition Centre,"143 Teck Whye Ln, #01-231, Singapore 680143",4.9,185,"[""establishment"", ""point_of_interest""]",1.3803544,103.7534201,True
Choa Chu Kang,Choa Chu Kang North,education,tuition centre,"tuition centre in Choa Chu Kang North, Choa Chu Kang, Singapore",ChIJgTBZgg8R2jERImrXMPrHxdw,EduFirst Learning Centre (Choa Chu Kang Yew Tee Branch) - English Math Chinese Science Student Care Tuition Singapore,"626 Choa Chu Kang Street 62, #01-180, Singapore 680626",4.7,40,"[""establishment"", ""point_of_interest""]",1.3983667,103.745797,True
Choa Chu Kang,Choa Chu Kang North,education,library,"library in Choa Chu Kang North, Choa Chu Kang, Singapore",ChIJ5-Dtl-kR2jERllI9-1NpYVY,Choa Chu Kang Library,"21 Choa Chu Kang Avenue 4 #04-01/02 and #05-06, Lot One Shopper’s Mall, Singapore 689812",4.3,280,"[""establishment"", ""library"", ""point_of_interest""]",1.384977,103.7452205,True
Choa Chu Kang,Choa Chu Kang North,transport,MRT station,"MRT station in Choa Chu Kang North, Choa Chu Kang, Singapore",ChIJCZRupukR2jERCglyJsNXaHE,Choa Chu Kang,Singapore 680288,4.0,200,"[""establishment"", ""point_of_interest"", ""subway_station"", ""transit_station""]",1.3847058,103.7445368,True
Choa Chu Kang,Choa Chu Kang North,transport,MRT station,"MRT station in Choa Chu Kang North, Choa Chu Kang, Singapore",ChIJg9zFkjAR2jERXmWQPEs55Kg,Yew Tee MRT Station (NS5),"61 Choa Chu Kang Dr, Singapore 689715",4.5,749,"[""establishment"", ""point_of_interest""]",1.3973666,103.7474715,True
Choa Chu Kang,Choa Chu Kang North,transport,bus stop,"bus stop in Choa Chu Kang North, Choa Chu Kang, Singapore",ChIJxe0CeekR2jERTvo3i83VqUY,Choa Chu Kang Interchange,"Choa Chu Kang, Singapore",3.7,93,"[""bus_station"", ""establishment"", ""point_of_interest"", ""transit_station""]",1.3859683,103.7459786,True
Choa Chu Kang,Choa Chu Kang North,transport,bus stop,"bus stop in Choa Chu Kang North, Choa Chu Kang, Singapore",ChIJLzMelekR2jERxRUvpv1JZy4,Lot 1/Choa Chu Kang Stn,Singapore,4.3,26,"[""establishment"", ""point_of_interest"", ""transit_station""]",1.3846152,103.7449995,True
Choa Chu Kang,Choa Chu Kang North,transport,bus interchange,"bus interchange in Choa Chu Kang North, Choa Chu Kang, Singapore",ChIJC8_040gR2jERacObPHcY5gA,Choa Chu Kang Bus Interchange,"70 Choa Chu Kang Loop, Singapore 689688",4.3,57,"[""establishment"", ""point_of_interest""]",1.3857394,103.7451729,True
Choa Chu Kang,Choa Chu Kang North,transport,LRT station,"LRT station in Choa Chu Kang North, Choa Chu Kang, Singapore",ChIJf-qKBzYR2jERPCaE21v1ssk,Choa Chu Kang LRT Station (BP1),"15 Choa Chu Kang Ave 4, Singapore 689813",4.0,8,"[""establishment"", ""point_of_interest""]",1.384819,103.744493,True
Choa Chu Kang,Choa Chu Kang North,food,hawker centre,"hawker centre in Choa Chu Kang North, Choa Chu Kang, Singapore",ChIJWxEUrdkR2jERM4uTxwEQ3ZY,Blk 253 Choa Chu Kang Market & Food Centre,"Block 253 Choa Chu Kang Ave 1, Singapore 680253",3.8,219,"[""establishment"", ""food"", ""point_of_interest"", ""restaurant""]",1.3766662,103.7445867,True
Choa Chu Kang,Choa Chu Kang North,food,hawker centre,"hawker centre in Choa Chu Kang North, Choa Chu Kang, Singapore",ChIJE2pmQcQR2jERMdl7yCj6_LM,Keat Hong Food Centre & Market,"253 Choa Chu Kang Ave 1, Singapore 680253",3.6,336,"[""establishment"", ""food"", ""point_of_interest"", ""restaurant""]",1.3766908,103.7445747,True
Choa Chu Kang,Choa Chu Kang North,food,food court,"food court in Choa Chu Kang North, Choa Chu Kang, Singapore",ChIJLQr1tfMR2jERggtxfa0ffJ8,S-11 Choa Chu Kang 787 Food Court,"787B Choa Chu Kang Dr, #01-241, Singapore 681787",3.9,637,"[""cafe"", ""establishment"", ""food"", ""point_of_interest"", ""store""]",1.3954146,103.7478497,True
Choa Chu Kang,Choa Chu Kang North,food,food court,"food court in Choa Chu Kang North, Choa Chu Kang, Singapore",ChIJi19VjekR2jERw69DzAIthBU,Food Junction,"21 Choa Chu Kang Ave 4, #04 - 16 Lot One, Singapore 689812",3.7,1292,"[""establishment"", ""food"", ""point_of_interest""]",1.3854472,103.7449054,True
Choa Chu Kang,Choa Chu Kang North,food,coffee shop,"coffee shop in Choa Chu Kang North, Choa Chu Kang, Singapore",ChIJU0QaOe4R2jER4sg9HyljWzs,JIA LI COFFEE ROASTER (HOME BASED CAFE),"Choa Chu Kang Street 62, #06-267 Block 616, Singapore 680616",4.8,25,"[""cafe"", ""establishment"", ""food"", ""point_of_interest""]",1.3996494,103.7447839,True
Choa Chu Kang,Choa Chu Kang North,food,coffee shop,"coffee shop in Choa Chu Kang North, Choa Chu Kang, Singapore",ChIJ01ysTOgR2jERkczo461Qv5k,CCK 302 FoodHouse,"302 Choa Chu Kang Ave 4, #01-719, Singapore 680302",4.1,2158,"[""cafe"", ""establishment"", ""food"", ""point_of_interest"", ""store""]",1.3849172,103.74338,True
Choa Chu Kang,Choa Chu Kang North,food,restaurant,"restaurant in Choa Chu Kang North, Choa Chu Kang, Singapore",ChIJ7bykURsYFwgReysq98OmO8M,Steak 99 Lot 1,"B1 12/13, Singapore 689812",4.6,390,"[""establishment"", ""food"", ""point_of_interest"", ""restaurant""]",1.384848,103.745046,True
Choa Chu Kang,Choa Chu Kang North,food,restaurant,"restaurant in Choa Chu Kang North, Choa Chu Kang, Singapore",ChIJOc2hJQAR2jERLCW1YcF9s-k,Steak 99,"21 Choa Chu Kang Ave 4, B1-12, Singapore 689812",4.3,116,"[""establishment"", ""food"", ""point_of_interest"", ""restaurant""]",1.3849853,103.7448986,True
Choa Chu Kang,Choa Chu Kang North,food,cafe,"cafe in Choa Chu Kang North, Choa Chu Kang, Singapore",ChIJ-R18oJkT2jERjb5BLbsu-dM,Blue Owl Café (Yew Tee — Takeaway Coffee),"609 Choa Chu Kang Street 62, Singapore 680609",5.0,81,"[""cafe"", ""establishment"", ""food"", ""point_of_interest""]",1.3993314,103.7447307,True
Choa Chu Kang,Choa Chu Kang North,shopping,shopping mall,"shopping mall in Choa Chu Kang North, Choa Chu Kang, Singapore",ChIJs5CBlukR2jER-uyFhQ2NFbU,Lot One Shoppers' Mall,"21 Choa Chu Kang Ave 4, Singapore 689812",4.1,7953,"[""establishment"", ""point_of_interest"", ""shopping_mall""]",1.3851169,103.7449142,True
Choa Chu Kang,Choa Chu Kang North,shopping,shopping mall,"shopping mall in Choa Chu Kang North, Choa Chu Kang, Singapore",ChIJSZQvzO8R2jER3y3YPr6U1bQ,Limbang Shopping Centre,"Choa Chu Kang Street 51, #532 533, Singapore 680534",3.8,1625,"[""establishment"", ""point_of_interest"", ""shopping_mall""]",1.3922447,103.7432453,True
Choa Chu Kang,Choa Chu Kang North,shopping,supermarket,"supermarket in Choa Chu Kang North, Choa Chu Kang, Singapore",ChIJq378adsR2jERViTMRBdSnlo,Giant Supermarket,"475 Choa Chu Kang Avenue 3 01-01/10, Sunshine Place, Singapore 680475",4.1,702,"[""establishment"", ""food"", ""grocery_or_supermarket"", ""point_of_interest"", ""store"", ""supermarket""]",1.3781087,103.7388206,True
Choa Chu Kang,Choa Chu Kang North,shopping,supermarket,"supermarket in Choa Chu Kang North, Choa Chu Kang, Singapore",ChIJs5CBlukR2jERTIOWORf5ceI,FairPrice Lot 1 Shoppers' Mall,"21 Choa Chu Kang Avenue 4, #B1-03, Lot, one, Singapore 689812",4.0,1187,"[""establishment"", ""food"", ""grocery_or_supermarket"", ""point_of_interest"", ""store"", ""supermarket""]",1.3852086,103.7449371,True
Choa Chu Kang,Choa Chu Kang North,shopping,grocery store,"grocery store in Choa Chu Kang North, Choa Chu Kang, Singapore",ChIJeRqQ8_MR2jERWHiWayirJ7g,FairPrice Finest,"61 Choa Chu Kang Dr, #01-01 MRT Station, Singapore 689715",4.3,607,"[""establishment"", ""food"", ""grocery_or_supermarket"", ""point_of_interest"", ""store"", ""supermarket""]",1.3974601,103.7474636,True
Choa Chu Kang,Choa Chu Kang North,shopping,convenience store,"convenience store in Choa Chu Kang North, Choa Chu Kang, Singapore",ChIJ99Q9tPMR2jER4B_IrtsrgjU,Double One Minimarket,"787B Choa Chu Kang Dr, #01-239, Singapore 681787",2.1,22,"[""convenience_store"", ""establishment"", ""food"", ""grocery_or_supermarket"", ""point_of_interest"", ""store""]",1.3951561,103.7477858,True
Choa Chu Kang,Choa Chu Kang North,shopping,convenience store,"convenience store in Choa Chu Kang North, Choa Chu Kang, Singapore",ChIJOeuIuO8R2jERxrYXmEg4ky4,Cheers Choa Chu Kang MRT,"10 Choa Chu Kang Ave 4, #01-11 MRT Station, Singapore 689810",2.5,22,"[""convenience_store"", ""establishment"", ""food"", ""point_of_interest"", ""store""]",1.3852487,103.7443487,True
Choa Chu Kang,Choa Chu Kang North,shopping,wet market,"wet market in Choa Chu Kang North, Choa Chu Kang, Singapore",ChIJW-4wFvQR2jERVo2FJjUF2vc,Yew Tee Market,"622 Choa Chu Kang Street 62, Singapore 680622",3.9,141,"[""establishment"", ""point_of_interest""]",1.3985843,103.7472226,True
Choa Chu Kang,Choa Chu Kang North,shopping,wet market,"wet market in Choa Chu Kang North, Choa Chu Kang, Singapore",ChIJE2pmQcQR2jERMdl7yCj6_LM,Keat Hong Food Centre & Market,"253 Choa Chu Kang Ave 1, Singapore 680253",3.6,336,"[""establishment"", ""food"", ""point_of_interest"", ""restaurant""]",1.3766908,103.7445747,True
Choa Chu Kang,Choa Chu Kang North,recreation,gym,"gym in Choa Chu Kang North, Choa Chu Kang, Singapore",ChIJv2uVCsYR2jERKoqfkj7HPEU,GOFIT Choa Chu Kang,"192A Choa Chu Kang Ave 1, Singapore 689467",5.0,255,"[""establishment"", ""gym"", ""health"", ""point_of_interest""]",1.3768232,103.7450712,True
Choa Chu Kang,Choa Chu Kang North,recreation,gym,"gym in Choa Chu Kang North, Choa Chu Kang, Singapore",ChIJgVqV6K0R2jERx19-94Knvow,Anytime Fitness Choa Chu Kang Centre,"309 Choa Chu Kang Ave 4, #03-01, Singapore 680309",4.2,183,"[""establishment"", ""gym"", ""health"", ""point_of_interest""]",1.3850879,103.7457341,True
Choa Chu Kang,Choa Chu Kang North,recreation,sports centre,"sports centre in Choa Chu Kang North, Choa Chu Kang, Singapore",ChIJ_WX9ue0R2jER865IJyACAoc,Choa Chu Kang Sport Centre,"1 Choa Chu Kang Street 53, Singapore 689236",4.2,959,"[""establishment"", ""gym"", ""health"", ""point_of_interest"", ""stadium""]",1.3910172,103.7482599,True
Choa Chu Kang,Choa Chu Kang North,recreation,swimming complex,"swimming complex in Choa Chu Kang North, Choa Chu Kang, Singapore",ChIJ_WX9ue0R2jERj69SXrt_lJU,Choa Chu Kang Swimming Complex (The Swimming Place),"1 Choa Chu Kang Street 53, Singapore 689236",4.2,79,"[""establishment"", ""health"", ""point_of_interest"", ""school""]",1.390985,103.748067,True
Choa Chu Kang,Choa Chu Kang North,recreation,cinema,"cinema in Choa Chu Kang North, Choa Chu Kang, Singapore",ChIJi19VjekR2jERWaroR6pc860,Shaw Theatres,"21 Choa Chu Kang Ave 4, Singapore 689812",4.1,905,"[""establishment"", ""movie_theater"", ""point_of_interest""]",1.3850351,103.7451224,True
Choa Chu Kang,Choa Chu Kang North,recreation,community club,"community club in Choa Chu Kang North, Choa Chu Kang, Singapore",ChIJJYncfsAR2jERVE0WPGMg8Bg,Chua Chu Kang Community Club,"35 Teck Whye Ave, Chua Chu Kang Community Club, Singapura 688892",4.0,1088,"[""establishment"", ""point_of_interest""]",1.3811344,103.751914,True
Choa Chu Kang,Choa Chu Kang North,recreation,community club,"community club in Choa Chu Kang North, Choa Chu Kang, Singapore",ChIJVVVVVegR2jER_ncZsSw8hfM,Keat Hong Community Club,"2 Choa Chu Kang Loop, #01-01, Singapore 689687",4.2,1115,"[""establishment"", ""point_of_interest""]",1.3841444,103.744825,True
Choa Chu Kang,Choa Chu Kang North,recreation,playground,"playground in Choa Chu Kang North, Choa Chu Kang, Singapore",ChIJaaXk1NwR2jERjStQPwYUkaU,Choa Chu Kang Mega Playground,Singapore,4.5,111,"[""establishment"", ""point_of_interest""]",1.3808895,103.7403691,True
Choa Chu Kang,Choa Chu Kang North,recreation,playground,"playground in Choa Chu Kang North, Choa Chu Kang, Singapore",ChIJRzglD-wR2jERgCmyEeAecXI,Choa Chu Kang Park,"Choa Chu Kang Dr, Singapore 688845",4.3,1911,"[""establishment"", ""park"", ""point_of_interest"", ""tourist_attraction""]",1.3874864,103.7474293,True
Choa Chu Kang,Choa Chu Kang North,nature,park,"park in Choa Chu Kang North, Choa Chu Kang, Singapore",ChIJRzglD-wR2jERgCmyEeAecXI,Choa Chu Kang Park,"Choa Chu Kang Dr, Singapore 688845",4.3,1911,"[""establishment"", ""park"", ""point_of_interest"", ""tourist_attraction""]",1.3874864,103.7474293,True
Choa Chu Kang,Choa Chu Kang North,nature,park,"park in Choa Chu Kang North, Choa Chu Kang, Singapore",ChIJ_6ftJ_ER2jERjyRotGhn7to,Yew Tee Park,"Choa Chu Kang North 6, Singapore",4.3,136,"[""establishment"", ""park"", ""point_of_interest""]",1.3973527,103.7436456,True
Choa Chu Kang,Choa Chu Kang North,nature,nature reserve,"nature reserve in Choa Chu Kang North, Choa Chu Kang, Singapore",ChIJ3dcI_PUN2jERTnYeNNfju5c,Kranji Marshes,"11 Neo Tiew Lane 2, Singapore 718814",4.1,469,"[""establishment"", ""park"", ""point_of_interest""]",1.4196408,103.7205184,True
Choa Chu Kang,Choa Chu Kang North,nature,garden,"garden in Choa Chu Kang North, Choa Chu Kang, Singapore",ChIJT6BEccYR2jERExdJ0Eswoo4,Keat Hong Garden,"Keat Hong Link, Singapore",4.1,29,"[""establishment"", ""park"", ""point_of_interest""]",1.3757407,103.7472218,True
Choa Chu Kang,Choa Chu Kang North,nature,beach,"beach in Choa Chu Kang North, Choa Chu Kang, Singapore",ChIJ7WfiXu4R2jERSN3bZdGEu6Y,Limbang Park,"784 Choa Chu Kang Dr, Singapore 680784",4.2,435,"[""establishment"", ""park"", ""point_of_interest"", ""tourist_attraction""]",1.3904711,103.7446489,True
Choa Chu Kang,Choa Chu Kang North,nature,waterfront,"waterfront in Choa Chu Kang North, Choa Chu Kang, Singapore",ChIJY_QLO-0R2jERfZxPsXwtQuQ,Villa Verde Park,"Junction of Choa Chu Kang North 5 and, Stagmont Ring, Singapore 688704",4.3,288,"[""establishment"", ""park"", ""point_of_interest"", ""tourist_attraction""]",1.3932109,103.7521356,True
Choa Chu Kang,Choa Chu Kang North,nature,waterfront,"waterfront in Choa Chu Kang North, Choa Chu Kang, Singapore",ChIJc_bRw-kR2jERdJWGuXU09jw,Choa Chu Kang Mini Waterpark,Singapore,4.5,19,"[""establishment"", ""point_of_interest""]",1.3841725,103.7444986,True
Choa Chu Kang,Choa Chu Kang North,nature,park connector,"park connector in Choa Chu Kang North, Choa Chu Kang, Singapore",ChIJeyJ1LR8R2jERnVG-iAYYCZU,Pang Sua Park Connector,"Bef, Choa Chu Kang North 5, Singapore",4.7,24,"[""establishment"", ""point_of_interest""]",1.3935116,103.7525523,True
Choa Chu Kang,Keat Hong,education,kindergarten,"kindergarten in Keat Hong, Choa Chu Kang, Singapore",ChIJ_Y3CHcQR2jER74F2CruPsDA,Little Footprints Preschool @ Keat Hong 803,"803B Keat Hong Cl, #01-132 Keat Hong Pride, Singapore 682803",4.9,83,"[""establishment"", ""point_of_interest"", ""school""]",1.3737088,103.743705,True
Choa Chu Kang,Keat Hong,education,kindergarten,"kindergarten in Keat Hong, Choa Chu Kang, Singapore",ChIJfwIbn88R2jERvrcDmd8DyDw,Little Footprints Preschool @ Keat Hong 805,"805C Keat Hong Cl, #01-64 Keat Hong Pride, Singapore 683805",5.0,92,"[""establishment"", ""point_of_interest"", ""school""]",1.3725804,103.7439824,True
Choa Chu Kang,Keat Hong,education,primary school,"primary school in Keat Hong, Choa Chu Kang, Singapore",ChIJpR_olcQR2jERpiolhW9hXws,Chua Chu Kang Primary School,"20 Choa Chu Kang Ave 2, Singapore 689905",,0,"[""establishment"", ""point_of_interest"", ""primary_school"", ""school""]",1.3778193,103.7423121,True
Choa Chu Kang,Keat Hong,education,primary school,"primary school in Keat Hong, Choa Chu Kang, Singapore",ChIJ6xrhRtwR2jER1rh4TqBG3Bo,Concord Primary School,"3 Choa Chu Kang Ave 4, Singapore 689814",,0,"[""establishment"", ""point_of_interest"", ""primary_school"", ""school""]",1.380347,103.7363383,True
Choa Chu Kang,Keat Hong,education,secondary school,"secondary school in Keat Hong, Choa Chu Kang, Singapore",ChIJ9TMrne8R2jER9MbWpucSlBU,Kranji Secondary School,"61 Choa Chu Kang Street 51, Singapore 689333",,0,"[""establishment"", ""point_of_interest"", ""school""]",1.3906192,103.7415227,True
Choa Chu Kang,Keat Hong,education,secondary school,"secondary school in Keat Hong, Choa Chu Kang, Singapore",ChIJdbFVX-0R2jERx3e8YNpQy3w,Regent Secondary School,"50 Choa Chu Kang North 5, Singapore 689621",,0,"[""establishment"", ""point_of_interest"", ""school""]",1.3933418,103.7508581,True
Choa Chu Kang,Keat Hong,education,junior college,"junior college in Keat Hong, Choa Chu Kang, Singapore",ChIJz_-CGpUR2jERsxAVVh_vnoY,Jurong Pioneer Junior College,"21 Teck Whye Walk, Singapore 688258",3.8,86,"[""establishment"", ""point_of_interest"", ""university""]",1.3847446,103.753857,True
Choa Chu Kang,Keat Hong,education,junior college,"junior college in Keat Hong, Choa Chu Kang, Singapore",ChIJESRAQ1sa2jERlSmmrDCCriw,Anglo-Chinese Junior College,"25 Dover Cl E, Singapore 139745",4.0,119,"[""establishment"", ""point_of_interest"", ""school"", ""university""]",1.3031354,103.785109,True
Choa Chu Kang,Keat Hong,education,polytechnic,"polytechnic in Keat Hong, Choa Chu Kang, Singapore",ChIJFXzxL2Aa2jERnoWTOdJdVKk,Singapore Polytechnic,"500 Dover Rd, Singapore 139651",4.3,646,"[""establishment"", ""point_of_interest""]",1.3097757,103.7775495,True
Choa Chu Kang,Keat Hong,education,polytechnic,"polytechnic in Keat Hong, Choa Chu Kang, Singapore",ChIJHxfJeecR2jERy04VMjd1fM0,ITE College West,"1 Choa Chu Kang Grv, Singapore 688236",4.2,411,"[""establishment"", ""point_of_interest"", ""university""]",1.3754113,103.7521285,True
Choa Chu Kang,Keat Hong,education,university,"university in Keat Hong, Choa Chu Kang, Singapore",ChIJ-Y5y3g0R2jERv9K742URD78,EduFirst Learning Centre (Keat Hong) - English Math Chinese Science Tuition Centre Singapore,"253 Choa Chu Kang Ave 1, #01-03 Keat Hong Mall, Singapore 680253",4.7,31,"[""establishment"", ""point_of_interest""]",1.3774405,103.744394,True
Choa Chu Kang,Keat Hong,education,tuition centre,"tuition centre in Keat Hong, Choa Chu Kang, Singapore",ChIJu1hQOnIR2jERBxRVqQmxKZc,"AGrader Learning Centre (Choa Chu Kang) - English, Math, Creative Writing, Chinese, Science Tuition Centre Singapore","2 Choa Chu Kang Loop, #02-01, Singapore 689687",4.9,154,"[""establishment"", ""point_of_interest""]",1.3842173,103.7449991,True
Choa Chu Kang,Keat Hong,education,library,"library in Keat Hong, Choa Chu Kang, Singapore",ChIJ5-Dtl-kR2jERllI9-1NpYVY,Choa Chu Kang Library,"21 Choa Chu Kang Avenue 4 #04-01/02 and #05-06, Lot One Shopper’s Mall, Singapore 689812",4.3,280,"[""establishment"", ""library"", ""point_of_interest""]",1.384977,103.7452205,True
Choa Chu Kang,Keat Hong,education,library,"library in Keat Hong, Choa Chu Kang, Singapore",ChIJ7w8etAIR2jERu9ApIAX5pEU,Book Harvest @ Keat Hong,"456 Choa Chu Kang Ave 4, Singapore 680456",,0,"[""establishment"", ""library"", ""point_of_interest""]",1.379032,103.735201,True
Choa Chu Kang,Keat Hong,transport,MRT station,"MRT station in Keat Hong, Choa Chu Kang, Singapore",ChIJke5SDisR2jEREXrmd64znVM,Keat Hong LRT Station (BP3),"30 Choa Chu Kang Wy, Singapore 688266",4.3,39,"[""establishment"", ""point_of_interest""]",1.378616,103.749042,True
Choa Chu Kang,Keat Hong,transport,MRT station,"MRT station in Keat Hong, Choa Chu Kang, Singapore",ChIJCZRupukR2jERCglyJsNXaHE,Choa Chu Kang,Singapore 680288,4.0,200,"[""establishment"", ""point_of_interest"", ""subway_station"", ""transit_station""]",1.3847058,103.7445368,True
Choa Chu Kang,Keat Hong,transport,bus stop,"bus stop in Keat Hong, Choa Chu Kang, Singapore",ChIJLzMelekR2jERxRUvpv1JZy4,Lot 1/Choa Chu Kang Stn,Singapore,4.3,26,"[""establishment"", ""point_of_interest"", ""transit_station""]",1.3846152,103.7449995,True
Choa Chu Kang,Keat Hong,transport,bus stop,"bus stop in Keat Hong, Choa Chu Kang, Singapore",ChIJxe0CeekR2jERTvo3i83VqUY,Choa Chu Kang Interchange,"Choa Chu Kang, Singapore",3.7,93,"[""bus_station"", ""establishment"", ""point_of_interest"", ""transit_station""]",1.3859683,103.7459786,True
Choa Chu Kang,Keat Hong,transport,bus interchange,"bus interchange in Keat Hong, Choa Chu Kang, Singapore",ChIJC8_040gR2jERacObPHcY5gA,Choa Chu Kang Bus Interchange,"70 Choa Chu Kang Loop, Singapore 689688",4.3,57,"[""establishment"", ""point_of_interest""]",1.3857394,103.7451729,True
Choa Chu Kang,Keat Hong,food,hawker centre,"hawker centre in Keat Hong, Choa Chu Kang, Singapore",ChIJE2pmQcQR2jERMdl7yCj6_LM,Keat Hong Food Centre & Market,"253 Choa Chu Kang Ave 1, Singapore 680253",3.6,336,"[""establishment"", ""food"", ""point_of_interest"", ""restaurant""]",1.3766908,103.7445747,True
Choa Chu Kang,Keat Hong,food,hawker centre,"hawker centre in Keat Hong, Choa Chu Kang, Singapore",ChIJWxEUrdkR2jERM4uTxwEQ3ZY,Blk 253 Choa Chu Kang Market & Food Centre,"Block 253 Choa Chu Kang Ave 1, Singapore 680253",3.8,219,"[""establishment"", ""food"", ""point_of_interest"", ""restaurant""]",1.3766662,103.7445867,True
Choa Chu Kang,Keat Hong,food,coffee shop,"coffee shop in Keat Hong, Choa Chu Kang, Singapore",ChIJCzPEsP0R2jERfU6b5R1qTxU,The Otterly Good Cafe,"820B Keat Hong Link, Singapore 682820",4.9,10,"[""cafe"", ""establishment"", ""food"", ""point_of_interest""]",1.3751771,103.7502393,True
Choa Chu Kang,Keat Hong,food,coffee shop,"coffee shop in Keat Hong, Choa Chu Kang, Singapore",ChIJzSEmlFgR2jERtBOEa92SUls,The Cozy Cup,"801A Keat Hong Cl, #10-11, Singapore 681801",4.6,25,"[""cafe"", ""establishment"", ""food"", ""point_of_interest"", ""store""]",1.3760337,103.7431062,True
Choa Chu Kang,Keat Hong,food,restaurant,"restaurant in Keat Hong, Choa Chu Kang, Singapore",ChIJPVz4U8QR2jERaJTXZH9ZYnU,Hong Kiat Seafood Restaurant (豐吉海鲜馆),"216 Choa Chu Kang Ave 1, Singapore 689477",3.8,423,"[""establishment"", ""food"", ""point_of_interest"", ""restaurant""]",1.376655,103.743854,True
Choa Chu Kang,Keat Hong,shopping,shopping mall,"shopping mall in Keat Hong, Choa Chu Kang, Singapore",ChIJxyo7LVYR2jERqlNRm9RkBUM,Keat Hong Shopping Centre,"253 Choa Chu Kang Ave 1, Singapore 680253",4.0,434,"[""establishment"", ""point_of_interest"", ""shopping_mall""]",1.3774405,103.744394,True
Choa Chu Kang,Keat Hong,shopping,supermarket,"supermarket in Keat Hong, Choa Chu Kang, Singapore",ChIJt7x9J8cR2jERTLyG6ld9cu4,U Stars Mega Mart @ 817,"817 Keat Hong Link, #01-14, Singapore 680817",4.1,525,"[""establishment"", ""food"", ""grocery_or_supermarket"", ""point_of_interest"", ""store""]",1.3778189,103.7496458,True
Choa Chu Kang,Keat Hong,shopping,supermarket,"supermarket in Keat Hong, Choa Chu Kang, Singapore",ChIJ_YIFAcYR2jERBd4sg8dO8bY,U Stars Supermarket,"810 Choa Chu Kang Ave 7, #01-01, Singapore 680810",4.0,338,"[""establishment"", ""food"", ""grocery_or_supermarket"", ""point_of_interest"", ""store"", ""supermarket""]",1.3743489,103.7465519,True
Choa Chu Kang,Keat Hong,shopping,grocery store,"grocery store in Keat Hong, Choa Chu Kang, Singapore",ChIJq378adsR2jERViTMRBdSnlo,Giant Supermarket,"475 Choa Chu Kang Avenue 3 01-01/10, Sunshine Place, Singapore 680475",4.1,702,"[""establishment"", ""food"", ""grocery_or_supermarket"", ""point_of_interest"", ""store"", ""supermarket""]",1.3781087,103.7388206,True
Choa Chu Kang,Keat Hong,shopping,convenience store,"convenience store in Keat Hong, Choa Chu Kang, Singapore",ChIJUQsONwAR2jERq1_eU9ahgRM,MWH Minimart,"Keat Hong Cl, BLOCK 803, Singapore 680803",4.2,5,"[""establishment"", ""food"", ""grocery_or_supermarket"", ""point_of_interest"", ""store""]",1.3740853,103.742947,True
Choa Chu Kang,Keat Hong,shopping,wet market,"wet market in Keat Hong, Choa Chu Kang, Singapore",ChIJE2pmQcQR2jERMdl7yCj6_LM,Keat Hong Food Centre & Market,"253 Choa Chu Kang Ave 1, Singapore 680253",3.6,336,"[""establishment"", ""food"", ""point_of_interest"", ""restaurant""]",1.3766908,103.7445747,True
Choa Chu Kang,Keat Hong,recreation,gym,"gym in Keat Hong, Choa Chu Kang, Singapore",ChIJCTok6ekR2jERnFfFyIKukCo,24/7 FITNESS Keat Hong CC,"2 Choa Chu Kang Loop, #04-02 Keat Hong Community Club, Singapore 689687",4.6,204,"[""establishment"", ""gym"", ""health"", ""point_of_interest""]",1.384326,103.745044,True
Choa Chu Kang,Keat Hong,recreation,gym,"gym in Keat Hong, Choa Chu Kang, Singapore",ChIJv2uVCsYR2jERKoqfkj7HPEU,GOFIT Choa Chu Kang,"192A Choa Chu Kang Ave 1, Singapore 689467",5.0,255,"[""establishment"", ""gym"", ""health"", ""point_of_interest""]",1.3768232,103.7450712,True
Choa Chu Kang,Keat Hong,recreation,sports centre,"sports centre in Keat Hong, Choa Chu Kang, Singapore",ChIJ_WX9ue0R2jER865IJyACAoc,Choa Chu Kang Sport Centre,"1 Choa Chu Kang Street 53, Singapore 689236",4.2,959,"[""establishment"", ""gym"", ""health"", ""point_of_interest"", ""stadium""]",1.3910172,103.7482599,True
Choa Chu Kang,Keat Hong,recreation,sports centre,"sports centre in Keat Hong, Choa Chu Kang, Singapore",ChIJVVVVVegR2jER_ncZsSw8hfM,Keat Hong Community Club,"2 Choa Chu Kang Loop, #01-01, Singapore 689687",4.2,1115,"[""establishment"", ""point_of_interest""]",1.3841444,103.744825,True
Choa Chu Kang,Keat Hong,recreation,swimming complex,"swimming complex in Keat Hong, Choa Chu Kang, Singapore",ChIJ_WX9ue0R2jERj69SXrt_lJU,Choa Chu Kang Swimming Complex (The Swimming Place),"1 Choa Chu Kang Street 53, Singapore 689236",4.2,79,"[""establishment"", ""health"", ""point_of_interest"", ""school""]",1.390985,103.748067,True
Choa Chu Kang,Keat Hong,recreation,cinema,"cinema in Keat Hong, Choa Chu Kang, Singapore",ChIJi19VjekR2jERWaroR6pc860,Shaw Theatres,"21 Choa Chu Kang Ave 4, Singapore 689812",4.1,905,"[""establishment"", ""movie_theater"", ""point_of_interest""]",1.3850351,103.7451224,True
Choa Chu Kang,Keat Hong,recreation,cinema,"cinema in Keat Hong, Choa Chu Kang, Singapore",ChIJFx7cQgAR2jERum7NN5FvIOk,Shaw Theatres JEM,"50 Jurong Gateway Rd, #05 04, Singapore 608549",4.0,81,"[""establishment"", ""movie_theater"", ""point_of_interest""]",1.33312,103.7432173,True
Choa Chu Kang,Keat Hong,recreation,community club,"community club in Keat Hong, Choa Chu Kang, Singapore",ChIJJYncfsAR2jERVE0WPGMg8Bg,Chua Chu Kang Community Club,"35 Teck Whye Ave, Chua Chu Kang Community Club, Singapura 688892",4.0,1088,"[""establishment"", ""point_of_interest""]",1.3811344,103.751914,True
Choa Chu Kang,Keat Hong,recreation,playground,"playground in Keat Hong, Choa Chu Kang, Singapore",ChIJaaXk1NwR2jERjStQPwYUkaU,Choa Chu Kang Mega Playground,Singapore,4.5,111,"[""establishment"", ""point_of_interest""]",1.3808895,103.7403691,True
Choa Chu Kang,Keat Hong,recreation,playground,"playground in Keat Hong, Choa Chu Kang, Singapore",ChIJJdCFw34R2jERfyY5itp3Ef0,The Arena @ Keat Hong,"428 Choa Chu Kang Ave 4, Block 428, Singapore 680428",4.4,35,"[""establishment"", ""point_of_interest""]",1.3810899,103.7403747,True
Choa Chu Kang,Keat Hong,nature,park,"park in Keat Hong, Choa Chu Kang, Singapore",ChIJT6BEccYR2jERExdJ0Eswoo4,Keat Hong Garden,"Keat Hong Link, Singapore",4.1,29,"[""establishment"", ""park"", ""point_of_interest""]",1.3757407,103.7472218,True
Choa Chu Kang,Keat Hong,nature,park,"park in Keat Hong, Choa Chu Kang, Singapore",ChIJV5TJomQR2jERFhdFK6hszDA,Keat Hong Park,"454 Choa Chu Kang Ave 4, Singapore 680454",4.3,30,"[""establishment"", ""park"", ""point_of_interest""]",1.3786822,103.7340209,True
Choa Chu Kang,Keat Hong,nature,nature reserve,"nature reserve in Keat Hong, Choa Chu Kang, Singapore",ChIJ3dcI_PUN2jERTnYeNNfju5c,Kranji Marshes,"11 Neo Tiew Lane 2, Singapore 718814",4.1,469,"[""establishment"", ""park"", ""point_of_interest""]",1.4196408,103.7205184,True
Choa Chu Kang,Keat Hong,nature,nature reserve,"nature reserve in Keat Hong, Choa Chu Kang, Singapore",ChIJO9cemPUQ2jERvlh8KtwhtAc,Bukit Timah Nature Reserve,"Hindhede Dr, Singapore 589318",4.6,8413,"[""establishment"", ""park"", ""point_of_interest"", ""tourist_attraction""]",1.3483883,103.776701,True
Choa Chu Kang,Keat Hong,nature,beach,"beach in Keat Hong, Choa Chu Kang, Singapore",ChIJaaXk1NwR2jERjStQPwYUkaU,Choa Chu Kang Mega Playground,Singapore,4.5,111,"[""establishment"", ""point_of_interest""]",1.3808895,103.7403691,True
Choa Chu Kang,Keat Hong,nature,beach,"beach in Keat Hong, Choa Chu Kang, Singapore",ChIJVVVVVegR2jER_ncZsSw8hfM,Keat Hong Community Club,"2 Choa Chu Kang Loop, #01-01, Singapore 689687",4.2,1115,"[""establishment"", ""point_of_interest""]",1.3841444,103.744825,True
Choa Chu Kang,Keat Hong,nature,waterfront,"waterfront in Keat Hong, Choa Chu Kang, Singapore",ChIJSfNpUs8R2jERYIMfv2PbtrQ,Keat Hong Colours,"810B Choa Chu Kang Ave 7, Singapore 681810",4.2,171,"[""establishment"", ""point_of_interest""]",1.3745958,103.7463849,True
Choa Chu Kang,Keat Hong,nature,park connector,"park connector in Keat Hong, Choa Chu Kang, Singapore",ChIJRzglD-wR2jERgCmyEeAecXI,Choa Chu Kang Park,"Choa Chu Kang Dr, Singapore 688845",4.3,1911,"[""establishment"", ""park"", ""point_of_interest"", ""tourist_attraction""]",1.3874864,103.7474293,True
Choa Chu Kang,Keat Hong,nature,park connector,"park connector in Keat Hong, Choa Chu Kang, Singapore",ChIJAfY-aQAR2jERJU4PExbtgb0,BUKIT PANJANG NORTH PARK CONNECTOR,"Segar Cl, Singapore",5.0,1,"[""establishment"", ""point_of_interest""]",1.3891486,103.7603213,True
Choa Chu Kang,Peng Siang,education,kindergarten,"kindergarten in Peng Siang, Choa Chu Kang, Singapore",ChIJ____j-kR2jER_OeSDGFtNIw,Kinderland Preschool @ Choa Chu Kang,"Blk 309 Choa Chu Kang Ave 4, #02-01, Singapore 680309",4.9,60,"[""establishment"", ""point_of_interest"", ""school""]",1.3852383,103.7458463,True
Choa Chu Kang,Peng Siang,education,kindergarten,"kindergarten in Peng Siang, Choa Chu Kang, Singapore",ChIJ39hAJcQR2jERfMo3N26ktMQ,SDM Childcare Centre @ Choa Chu Kang,"186 Choa Chu Kang Ave 1, Singapore 689464",4.9,17,"[""establishment"", ""point_of_interest"", ""school""]",1.3769847,103.7456425,True
Choa Chu Kang,Peng Siang,education,childcare centre,"childcare centre in Peng Siang, Choa Chu Kang, Singapore",ChIJkZEm_NoR2jER2JHSz_r0VHQ,Greenery Childcare Centre,"483 Choa Chu Kang Ave 5, #01-164, Singapore 680483",5.0,25,"[""establishment"", ""point_of_interest"", ""school""]",1.3758855,103.7376734,True
Choa Chu Kang,Peng Siang,education,primary school,"primary school in Peng Siang, Choa Chu Kang, Singapore",ChIJpR_olcQR2jERpiolhW9hXws,Chua Chu Kang Primary School,"20 Choa Chu Kang Ave 2, Singapore 689905",,0,"[""establishment"", ""point_of_interest"", ""primary_school"", ""school""]",1.3778193,103.7423121,True
Choa Chu Kang,Peng Siang,education,primary school,"primary school in Peng Siang, Choa Chu Kang, Singapore",ChIJyyRcW_MR2jERtxnlA3qyVV0,Yew Tee Primary School,"10 Choa Chu Kang Street 64, Singapore 689100",,0,"[""establishment"", ""point_of_interest"", ""primary_school"", ""school""]",1.396978,103.7511849,True
Choa Chu Kang,Peng Siang,education,secondary school,"secondary school in Peng Siang, Choa Chu Kang, Singapore",ChIJbUEQbd0R2jERyMl2YGs8yHE,Bukit Panjang Government High School,"7 Choa Chu Kang Ave 4, Singapore 689809",,0,"[""establishment"", ""point_of_interest"", ""school"", ""secondary_school""]",1.3815132,103.7388106,True
Choa Chu Kang,Peng Siang,education,secondary school,"secondary school in Peng Siang, Choa Chu Kang, Singapore",ChIJE5QEBcAR2jERYKAcfh6IBLw,Chua Chu Kang Secondary School Campus 2,"31 Teck Whye Cres, Singapore 688848",,0,"[""establishment"", ""point_of_interest"", ""school""]",1.3832504,103.7551628,True
Choa Chu Kang,Peng Siang,education,junior college,"junior college in Peng Siang, Choa Chu Kang, Singapore",ChIJz_-CGpUR2jERsxAVVh_vnoY,Jurong Pioneer Junior College,"21 Teck Whye Walk, Singapore 688258",3.8,86,"[""establishment"", ""point_of_interest"", ""university""]",1.3847446,103.753857,True
Choa Chu Kang,Peng Siang,education,junior college,"junior college in Peng Siang, Choa Chu Kang, Singapore",ChIJESRAQ1sa2jERlSmmrDCCriw,Anglo-Chinese Junior College,"25 Dover Cl E, Singapore 139745",4.0,119,"[""establishment"", ""point_of_interest"", ""school"", ""university""]",1.3031354,103.785109,True
Choa Chu Kang,Peng Siang,education,polytechnic,"polytechnic in Peng Siang, Choa Chu Kang, Singapore",ChIJW1axjb8R2jERYKqQVcmPwj0,Choa Chu Kang Polyclinic (NUP),"2 Teck Whye Cres, Singapore 688846",2.4,271,"[""establishment"", ""health"", ""point_of_interest""]",1.38219,103.7509283,True
Choa Chu Kang,Peng Siang,education,polytechnic,"polytechnic in Peng Siang, Choa Chu Kang, Singapore",ChIJ14hzqgUT2jER-IIzRuD1twI,Republic Polytechnic,"9 Woodlands Ave 9, Singapore 738964",4.2,525,"[""establishment"", ""point_of_interest"", ""university""]",1.442831,103.7855636,True
Choa Chu Kang,Peng Siang,education,university,"university in Peng Siang, Choa Chu Kang, Singapore",ChIJ2QJCeFYa2jERa434wdYIjUg,National University of Singapore,"21 Lower Kent Ridge Rd, University Hall, Singapore 119077",4.5,2389,"[""establishment"", ""point_of_interest"", ""university""]",1.2976493,103.7766916,True
Choa Chu Kang,Peng Siang,education,university,"university in Peng Siang, Choa Chu Kang, Singapore",ChIJvQQziYAQ2jERCOP-JKA4N9k,Singapore University of Social Sciences,"463 Clementi Rd, Singapore 599494",3.8,234,"[""establishment"", ""point_of_interest"", ""university""]",1.3286895,103.7759499,True
Choa Chu Kang,Peng Siang,education,tuition centre,"tuition centre in Peng Siang, Choa Chu Kang, Singapore",ChIJnaMykicR2jER3Xno5vA2bKw,"Top Grades Tuition & Enrichment @ Yew Tee, Choa Chu Kang - Visit our IG for Genuine Feedback fr Parents & Students","Blk 517 Choa Chu Kang Street 51, #01-30, Singapore 680517",5.0,88,"[""establishment"", ""point_of_interest""]",1.3924541,103.7433484,True
Choa Chu Kang,Peng Siang,education,tuition centre,"tuition centre in Peng Siang, Choa Chu Kang, Singapore",ChIJvTsDgNcR2jERjQy8Q7z6uoo,TutorJohn Learning Centre - Choa Chu Kang Tuition Centre,"143 Teck Whye Ln, #01-231, Singapore 680143",4.9,185,"[""establishment"", ""point_of_interest""]",1.3803544,103.7534201,True
Choa Chu Kang,Peng Siang,education,library,"library in Peng Siang, Choa Chu Kang, Singapore",ChIJ5-Dtl-kR2jERllI9-1NpYVY,Choa Chu Kang Library,"21 Choa Chu Kang Avenue 4 #04-01/02 and #05-06, Lot One Shopper’s Mall, Singapore 689812",4.3,280,"[""establishment"", ""library"", ""point_of_interest""]",1.384977,103.7452205,True
Choa Chu Kang,Peng Siang,education,library,"library in Peng Siang, Choa Chu Kang, Singapore",ChIJAQAASKMR2jER1rsyt_ipOM0,Bukit Panjang Library,"1 Jelebu Road #04-04 & 16/17 Bukit Panjang Plaza, Singapore 677743",4.3,262,"[""establishment"", ""library"", ""point_of_interest""]",1.3799627,103.7643391,True
Choa Chu Kang,Peng Siang,transport,MRT station,"MRT station in Peng Siang, Choa Chu Kang, Singapore",ChIJCZRupukR2jERCglyJsNXaHE,Choa Chu Kang,Singapore 680288,4.0,200,"[""establishment"", ""point_of_interest"", ""subway_station"", ""transit_station""]",1.3847058,103.7445368,True
Choa Chu Kang,Peng Siang,transport,MRT station,"MRT station in Peng Siang, Choa Chu Kang, Singapore",ChIJf-qKBzYR2jERPCaE21v1ssk,Choa Chu Kang LRT Station (BP1),"15 Choa Chu Kang Ave 4, Singapore 689813",4.0,8,"[""establishment"", ""point_of_interest""]",1.384819,103.744493,True
Choa Chu Kang,Peng Siang,transport,bus stop,"bus stop in Peng Siang, Choa Chu Kang, Singapore",ChIJLzMelekR2jERxRUvpv1JZy4,Lot 1/Choa Chu Kang Stn,Singapore,4.3,26,"[""establishment"", ""point_of_interest"", ""transit_station""]",1.3846152,103.7449995,True
Choa Chu Kang,Peng Siang,transport,bus stop,"bus stop in Peng Siang, Choa Chu Kang, Singapore",ChIJxe0CeekR2jERTvo3i83VqUY,Choa Chu Kang Interchange,"Choa Chu Kang, Singapore",3.7,93,"[""bus_station"", ""establishment"", ""point_of_interest"", ""transit_station""]",1.3859683,103.7459786,True
Choa Chu Kang,Peng Siang,transport,bus interchange,"bus interchange in Peng Siang, Choa Chu Kang, Singapore",ChIJC8_040gR2jERacObPHcY5gA,Choa Chu Kang Bus Interchange,"70 Choa Chu Kang Loop, Singapore 689688",4.3,57,"[""establishment"", ""point_of_interest""]",1.3857394,103.7451729,True
Choa Chu Kang,Peng Siang,food,hawker centre,"hawker centre in Peng Siang, Choa Chu Kang, Singapore",ChIJWxEUrdkR2jERM4uTxwEQ3ZY,Blk 253 Choa Chu Kang Market & Food Centre,"Block 253 Choa Chu Kang Ave 1, Singapore 680253",3.8,219,"[""establishment"", ""food"", ""point_of_interest"", ""restaurant""]",1.3766662,103.7445867,True
Choa Chu Kang,Peng Siang,food,hawker centre,"hawker centre in Peng Siang, Choa Chu Kang, Singapore",ChIJE2pmQcQR2jERMdl7yCj6_LM,Keat Hong Food Centre & Market,"253 Choa Chu Kang Ave 1, Singapore 680253",3.6,336,"[""establishment"", ""food"", ""point_of_interest"", ""restaurant""]",1.3766908,103.7445747,True
Choa Chu Kang,Peng Siang,food,food court,"food court in Peng Siang, Choa Chu Kang, Singapore",ChIJy2jGDAAR2jER_dGJxOv-p10,Big Appetite,"309 Choa Chu Kang Ave 4, #01-01 Centre, Singapore 680309",2.5,68,"[""establishment"", ""food"", ""point_of_interest""]",1.3851674,103.7457065,True
Choa Chu Kang,Peng Siang,food,food court,"food court in Peng Siang, Choa Chu Kang, Singapore",ChIJi19VjekR2jERw69DzAIthBU,Food Junction,"21 Choa Chu Kang Ave 4, #04 - 16 Lot One, Singapore 689812",3.7,1292,"[""establishment"", ""food"", ""point_of_interest""]",1.3854472,103.7449054,True
Choa Chu Kang,Peng Siang,food,coffee shop,"coffee shop in Peng Siang, Choa Chu Kang, Singapore",ChIJF6L3RxsR2jERsa-T6m-jewk,Cafe Toofee,"625 Choa Chu Kang Street 62, #11-206, Singapore 680625",5.0,12,"[""cafe"", ""establishment"", ""food"", ""point_of_interest""]",1.3986727,103.7460623,True
Choa Chu Kang,Peng Siang,food,coffee shop,"coffee shop in Peng Siang, Choa Chu Kang, Singapore",ChIJ04WxPgAR2jERH-z8BbvHggQ,Hua Mu Lan Tea,"10 Choa Chu Kang Ave 4, MRT Inside The Food Inn, Singapore 689810",4.9,172,"[""cafe"", ""establishment"", ""food"", ""point_of_interest"", ""store""]",1.3854085,103.7443327,True
Choa Chu Kang,Peng Siang,food,restaurant,"restaurant in Peng Siang, Choa Chu Kang, Singapore",ChIJOc2hJQAR2jERLCW1YcF9s-k,Steak 99,"21 Choa Chu Kang Ave 4, B1-12, Singapore 689812",4.3,116,"[""establishment"", ""food"", ""point_of_interest"", ""restaurant""]",1.3849853,103.7448986,True
Choa Chu Kang,Peng Siang,food,restaurant,"restaurant in Peng Siang, Choa Chu Kang, Singapore",ChIJe4TXSQAR2jER0Wk-_1MhJ3E,NiKU iKU Lot One,"21 Choa Chu Kang Ave 4, B1-K10 Lot One, Singapore 689812",4.8,101,"[""establishment"", ""food"", ""point_of_interest"", ""restaurant""]",1.3851429,103.7449432,True
Choa Chu Kang,Peng Siang,food,cafe,"cafe in Peng Siang, Choa Chu Kang, Singapore",ChIJ01ysTOgR2jERkczo461Qv5k,CCK 302 FoodHouse,"302 Choa Chu Kang Ave 4, #01-719, Singapore 680302",4.1,2158,"[""cafe"", ""establishment"", ""food"", ""point_of_interest"", ""store""]",1.3849172,103.74338,True
Choa Chu Kang,Peng Siang,shopping,shopping mall,"shopping mall in Peng Siang, Choa Chu Kang, Singapore",ChIJs5CBlukR2jER-uyFhQ2NFbU,Lot One Shoppers' Mall,"21 Choa Chu Kang Ave 4, Singapore 689812",4.1,7953,"[""establishment"", ""point_of_interest"", ""shopping_mall""]",1.3851169,103.7449142,True
Choa Chu Kang,Peng Siang,shopping,shopping mall,"shopping mall in Peng Siang, Choa Chu Kang, Singapore",ChIJSZQvzO8R2jER3y3YPr6U1bQ,Limbang Shopping Centre,"Choa Chu Kang Street 51, #532 533, Singapore 680534",3.8,1625,"[""establishment"", ""point_of_interest"", ""shopping_mall""]",1.3922447,103.7432453,True
Choa Chu Kang,Peng Siang,shopping,supermarket,"supermarket in Peng Siang, Choa Chu Kang, Singapore",ChIJq378adsR2jERViTMRBdSnlo,Giant Supermarket,"475 Choa Chu Kang Avenue 3 01-01/10, Sunshine Place, Singapore 680475",4.1,702,"[""establishment"", ""food"", ""grocery_or_supermarket"", ""point_of_interest"", ""store"", ""supermarket""]",1.3781087,103.7388206,True
Choa Chu Kang,Peng Siang,shopping,supermarket,"supermarket in Peng Siang, Choa Chu Kang, Singapore",ChIJeRqQ8_MR2jERWHiWayirJ7g,FairPrice Finest,"61 Choa Chu Kang Dr, #01-01 MRT Station, Singapore 689715",4.3,607,"[""establishment"", ""food"", ""grocery_or_supermarket"", ""point_of_interest"", ""store"", ""supermarket""]",1.3974601,103.7474636,True
Choa Chu Kang,Peng Siang,shopping,grocery store,"grocery store in Peng Siang, Choa Chu Kang, Singapore",ChIJw0-mTsQR2jERy7OwWvki9_Y,Prime Supermarket,"253 Choa Chu Kang Ave 1, B1-10, Singapore 680253",3.5,122,"[""establishment"", ""food"", ""grocery_or_supermarket"", ""point_of_interest"", ""store"", ""supermarket""]",1.3779804,103.7441858,True
Choa Chu Kang,Peng Siang,shopping,convenience store,"convenience store in Peng Siang, Choa Chu Kang, Singapore",ChIJwU-8UYoR2jERj61OQIahxao,Shell Select,"20 Choa Chu Kang Dr, Singapore 689717",3.8,4,"[""convenience_store"", ""establishment"", ""food"", ""point_of_interest"", ""store""]",1.38564,103.7463853,True
Choa Chu Kang,Peng Siang,shopping,convenience store,"convenience store in Peng Siang, Choa Chu Kang, Singapore",ChIJR9cxZfUR2jERLeG_6lSjeT8,Reliance Minimart,"HDB (Multi Storey Car Park) #01-02, Choa Chu Kang Cres, S)681668 668A, Singapore 681668",2.8,6,"[""convenience_store"", ""establishment"", ""food"", ""point_of_interest"", ""store""]",1.401565,103.750234,True
Choa Chu Kang,Peng Siang,shopping,wet market,"wet market in Peng Siang, Choa Chu Kang, Singapore",ChIJW-4wFvQR2jERVo2FJjUF2vc,Yew Tee Market,"622 Choa Chu Kang Street 62, Singapore 680622",3.9,141,"[""establishment"", ""point_of_interest""]",1.3985843,103.7472226,True
Choa Chu Kang,Peng Siang,shopping,wet market,"wet market in Peng Siang, Choa Chu Kang, Singapore",ChIJE2pmQcQR2jERMdl7yCj6_LM,Keat Hong Food Centre & Market,"253 Choa Chu Kang Ave 1, Singapore 680253",3.6,336,"[""establishment"", ""food"", ""point_of_interest"", ""restaurant""]",1.3766908,103.7445747,True
Choa Chu Kang,Peng Siang,recreation,gym,"gym in Peng Siang, Choa Chu Kang, Singapore",ChIJv2uVCsYR2jERKoqfkj7HPEU,GOFIT Choa Chu Kang,"192A Choa Chu Kang Ave 1, Singapore 689467",5.0,255,"[""establishment"", ""gym"", ""health"", ""point_of_interest""]",1.3768232,103.7450712,True
Choa Chu Kang,Peng Siang,recreation,gym,"gym in Peng Siang, Choa Chu Kang, Singapore",ChIJgVqV6K0R2jERx19-94Knvow,Anytime Fitness Choa Chu Kang Centre,"309 Choa Chu Kang Ave 4, #03-01, Singapore 680309",4.2,183,"[""establishment"", ""gym"", ""health"", ""point_of_interest""]",1.3850879,103.7457341,True
Choa Chu Kang,Peng Siang,recreation,sports centre,"sports centre in Peng Siang, Choa Chu Kang, Singapore",ChIJ_WX9ue0R2jER865IJyACAoc,Choa Chu Kang Sport Centre,"1 Choa Chu Kang Street 53, Singapore 689236",4.2,959,"[""establishment"", ""gym"", ""health"", ""point_of_interest"", ""stadium""]",1.3910172,103.7482599,True
Choa Chu Kang,Peng Siang,recreation,sports centre,"sports centre in Peng Siang, Choa Chu Kang, Singapore",ChIJ1TpeOAAR2jERDGsg5LsZVmI,Choa Chu Kang ActiveSG Gym,"1 Choa Chu Kang Street 53, Singapore 689236",2.7,19,"[""establishment"", ""gym"", ""health"", ""point_of_interest""]",1.3906612,103.7478293,True
Choa Chu Kang,Peng Siang,recreation,swimming complex,"swimming complex in Peng Siang, Choa Chu Kang, Singapore",ChIJ_WX9ue0R2jERj69SXrt_lJU,Choa Chu Kang Swimming Complex (The Swimming Place),"1 Choa Chu Kang Street 53, Singapore 689236",4.2,79,"[""establishment"", ""health"", ""point_of_interest"", ""school""]",1.390985,103.748067,True
Choa Chu Kang,Peng Siang,recreation,cinema,"cinema in Peng Siang, Choa Chu Kang, Singapore",ChIJi19VjekR2jERWaroR6pc860,Shaw Theatres,"21 Choa Chu Kang Ave 4, Singapore 689812",4.1,905,"[""establishment"", ""movie_theater"", ""point_of_interest""]",1.3850351,103.7451224,True
Choa Chu Kang,Peng Siang,recreation,cinema,"cinema in Peng Siang, Choa Chu Kang, Singapore",ChIJFx7cQgAR2jERum7NN5FvIOk,Shaw Theatres JEM,"50 Jurong Gateway Rd, #05 04, Singapore 608549",4.0,81,"[""establishment"", ""movie_theater"", ""point_of_interest""]",1.33312,103.7432173,True
Choa Chu Kang,Peng Siang,recreation,community club,"community club in Peng Siang, Choa Chu Kang, Singapore",ChIJVVVVVegR2jER_ncZsSw8hfM,Keat Hong Community Club,"2 Choa Chu Kang Loop, #01-01, Singapore 689687",4.2,1115,"[""establishment"", ""point_of_interest""]",1.3841444,103.744825,True
Choa Chu Kang,Peng Siang,recreation,community club,"community club in Peng Siang, Choa Chu Kang, Singapore",ChIJJYncfsAR2jERVE0WPGMg8Bg,Chua Chu Kang Community Club,"35 Teck Whye Ave, Chua Chu Kang Community Club, Singapura 688892",4.0,1088,"[""establishment"", ""point_of_interest""]",1.3811344,103.751914,True
Choa Chu Kang,Peng Siang,recreation,playground,"playground in Peng Siang, Choa Chu Kang, Singapore",ChIJaaXk1NwR2jERjStQPwYUkaU,Choa Chu Kang Mega Playground,Singapore,4.5,111,"[""establishment"", ""point_of_interest""]",1.3808895,103.7403691,True
Choa Chu Kang,Peng Siang,recreation,playground,"playground in Peng Siang, Choa Chu Kang, Singapore",ChIJRzglD-wR2jERgCmyEeAecXI,Choa Chu Kang Park,"Choa Chu Kang Dr, Singapore 688845",4.3,1911,"[""establishment"", ""park"", ""point_of_interest"", ""tourist_attraction""]",1.3874864,103.7474293,True
Choa Chu Kang,Peng Siang,nature,park,"park in Peng Siang, Choa Chu Kang, Singapore",ChIJRzglD-wR2jERgCmyEeAecXI,Choa Chu Kang Park,"Choa Chu Kang Dr, Singapore 688845",4.3,1911,"[""establishment"", ""park"", ""point_of_interest"", ""tourist_attraction""]",1.3874864,103.7474293,True
Choa Chu Kang,Peng Siang,nature,park,"park in Peng Siang, Choa Chu Kang, Singapore",ChIJ7WfiXu4R2jERSN3bZdGEu6Y,Limbang Park,"784 Choa Chu Kang Dr, Singapore 680784",4.2,435,"[""establishment"", ""park"", ""point_of_interest"", ""tourist_attraction""]",1.3904711,103.7446489,True
Choa Chu Kang,Peng Siang,nature,nature reserve,"nature reserve in Peng Siang, Choa Chu Kang, Singapore",ChIJs3oprUQQ2jERp8A9mbkPZJE,Bukit Batok Nature Park,"Cnr Bukit Batok East Avenue 2, Bukit Batok East Ave 6, and, Singapore 659761",4.5,3266,"[""establishment"", ""park"", ""point_of_interest""]",1.3485421,103.7641994,True
Choa Chu Kang,Peng Siang,nature,nature reserve,"nature reserve in Peng Siang, Choa Chu Kang, Singapore",ChIJe0cEPoIS2jERs_rS2qvGOxw,Sungei Buloh Wetland Reserve,"301 Neo Tiew Cres, Singapore 718925",4.6,4695,"[""establishment"", ""park"", ""point_of_interest"", ""tourist_attraction""]",1.4464304,103.723404,True
Choa Chu Kang,Peng Siang,nature,garden,"garden in Peng Siang, Choa Chu Kang, Singapore",ChIJT6BEccYR2jERExdJ0Eswoo4,Keat Hong Garden,"Keat Hong Link, Singapore",4.1,29,"[""establishment"", ""park"", ""point_of_interest""]",1.3757407,103.7472218,True
Choa Chu Kang,Peng Siang,nature,beach,"beach in Peng Siang, Choa Chu Kang, Singapore",ChIJaaC07KIR2jERl3-DgSWf4aE,Pang Sua Pond,"101 Bukit Panjang Ring Road, Saujana Rd, Singapore 679910",4.5,900,"[""establishment"", ""park"", ""point_of_interest"", ""tourist_attraction""]",1.3819061,103.7655122,True
Choa Chu Kang,Peng Siang,nature,waterfront,"waterfront in Peng Siang, Choa Chu Kang, Singapore",ChIJG1Bg-egR2jERlyZD-VZYKr0,The Warren,"37 Choa Chu Kang Loop, Singapore 689675",4.0,168,"[""establishment"", ""point_of_interest""]",1.3866345,103.7434444,True
Choa Chu Kang,Peng Siang,nature,waterfront,"waterfront in Peng Siang, Choa Chu Kang, Singapore",ChIJc_bRw-kR2jERdJWGuXU09jw,Choa Chu Kang Mini Waterpark,Singapore,4.5,19,"[""establishment"", ""point_of_interest""]",1.3841725,103.7444986,True
Choa Chu Kang,Peng Siang,nature,park connector,"park connector in Peng Siang, Choa Chu Kang, Singapore",ChIJeyJ1LR8R2jERnVG-iAYYCZU,Pang Sua Park Connector,"Bef, Choa Chu Kang North 5, Singapore",4.7,24,"[""establishment"", ""point_of_interest""]",1.3935116,103.7525523,True
Choa Chu Kang,Peng Siang,nature,park connector,"park connector in Peng Siang, Choa Chu Kang, Singapore",ChIJAfY-aQAR2jERJU4PExbtgb0,BUKIT PANJANG NORTH PARK CONNECTOR,"Segar Cl, Singapore",5.0,1,"[""establishment"", ""point_of_interest""]",1.3891486,103.7603213,True
Choa Chu Kang,Teck Whye,education,kindergarten,"kindergarten in Teck Whye, Choa Chu Kang, Singapore",ChIJ8_KvfsAR2jERfQLW0Ksyn3M,Heartyland Infant Care,"35 Teck Whye Ave, #02-02 Chua Chu Kang Community Club, Singapore 688892",4.6,9,"[""establishment"", ""point_of_interest""]",1.3811877,103.7518505,True
Choa Chu Kang,Teck Whye,education,kindergarten,"kindergarten in Teck Whye, Choa Chu Kang, Singapore",ChIJSYqf2cAR2jERrGcAxhxtkuY,PCF Sparkletots @ Chua Chu Kang Blk 123,"Blk 123 Teck Whye Ln, #01-864, Singapore 680123",5.0,1,"[""establishment"", ""point_of_interest"", ""school""]",1.3792629,103.74936,True
Choa Chu Kang,Teck Whye,education,childcare centre,"childcare centre in Teck Whye, Choa Chu Kang, Singapore",ChIJP5via78R2jERvCVmC4rlk9M,Graceland Student Care Centre @ Teck Whye,"140 Teck Whye Ln, #02-355, Singapore 680140",5.0,7,"[""establishment"", ""point_of_interest""]",1.3800633,103.7531633,True
Choa Chu Kang,Teck Whye,education,primary school,"primary school in Teck Whye, Choa Chu Kang, Singapore",ChIJ3cskXpUR2jERdU9fhheLjng,Teck Whye Primary School,"11 Teck Whye Walk, Singapore 688261",,0,"[""establishment"", ""point_of_interest"", ""primary_school"", ""school""]",1.3837636,103.7537174,True
Choa Chu Kang,Teck Whye,education,secondary school,"secondary school in Teck Whye, Choa Chu Kang, Singapore",ChIJe5r-9JUR2jERqq2Ga_xE6HU,Chua Chu Kang Secondary School,"31 Teck Whye Cres, Singapore 688848",,0,"[""establishment"", ""point_of_interest"", ""school"", ""secondary_school""]",1.3831667,103.7551671,True
Choa Chu Kang,Teck Whye,education,secondary school,"secondary school in Teck Whye, Choa Chu Kang, Singapore",ChIJE5QEBcAR2jERYKAcfh6IBLw,Chua Chu Kang Secondary School Campus 2,"31 Teck Whye Cres, Singapore 688848",,0,"[""establishment"", ""point_of_interest"", ""school""]",1.3832504,103.7551628,True
Choa Chu Kang,Teck Whye,education,junior college,"junior college in Teck Whye, Choa Chu Kang, Singapore",ChIJz_-CGpUR2jERsxAVVh_vnoY,Jurong Pioneer Junior College,"21 Teck Whye Walk, Singapore 688258",3.8,86,"[""establishment"", ""point_of_interest"", ""university""]",1.3847446,103.753857,True
Choa Chu Kang,Teck Whye,education,polytechnic,"polytechnic in Teck Whye, Choa Chu Kang, Singapore",ChIJW1axjb8R2jERYKqQVcmPwj0,Choa Chu Kang Polyclinic (NUP),"2 Teck Whye Cres, Singapore 688846",2.4,271,"[""establishment"", ""health"", ""point_of_interest""]",1.38219,103.7509283,True
Choa Chu Kang,Teck Whye,education,polytechnic,"polytechnic in Teck Whye, Choa Chu Kang, Singapore",ChIJHxfJeecR2jERy04VMjd1fM0,ITE College West,"1 Choa Chu Kang Grv, Singapore 688236",4.2,411,"[""establishment"", ""point_of_interest"", ""university""]",1.3754113,103.7521285,True
Choa Chu Kang,Teck Whye,education,tuition centre,"tuition centre in Teck Whye, Choa Chu Kang, Singapore",ChIJvTsDgNcR2jERjQy8Q7z6uoo,TutorJohn Learning Centre - Choa Chu Kang Tuition Centre,"143 Teck Whye Ln, #01-231, Singapore 680143",4.9,185,"[""establishment"", ""point_of_interest""]",1.3803544,103.7534201,True
Choa Chu Kang,Teck Whye,education,tuition centre,"tuition centre in Teck Whye, Choa Chu Kang, Singapore",ChIJuzAmzEER2jERFgICe8sAm50,Five Star Tuition Centre Pte Ltd - CCK & Bukit Panjang,"143 Teck Whye Ln, #01-233, Singapore 680143",5.0,264,"[""establishment"", ""point_of_interest"", ""school""]",1.3805922,103.7529199,True
Choa Chu Kang,Teck Whye,education,library,"library in Teck Whye, Choa Chu Kang, Singapore",ChIJ5-Dtl-kR2jERllI9-1NpYVY,Choa Chu Kang Library,"21 Choa Chu Kang Avenue 4 #04-01/02 and #05-06, Lot One Shopper’s Mall, Singapore 689812",4.3,280,"[""establishment"", ""library"", ""point_of_interest""]",1.384977,103.7452205,True
Choa Chu Kang,Teck Whye,transport,MRT station,"MRT station in Teck Whye, Choa Chu Kang, Singapore",ChIJaVWaf2UR2jERSrqsjpnIeA8,Teck Whye LRT Station (BP4),"10 Choa Chu Kang Wy, Singapore 688267",4.3,28,"[""establishment"", ""point_of_interest""]",1.376696,103.753675,True
Choa Chu Kang,Teck Whye,transport,MRT station,"MRT station in Teck Whye, Choa Chu Kang, Singapore",ChIJ3fQU87gR2jER-t4l9-JUnlM,Teck Whye,Singapore,4.0,21,"[""establishment"", ""point_of_interest"", ""transit_station""]",1.37666,103.7537,True
Choa Chu Kang,Teck Whye,transport,bus stop,"bus stop in Teck Whye, Choa Chu Kang, Singapore",ChIJzwEotr8R2jERuxmRJ9EQG2c,Aft Teck Whye Walk,Singapore,5.0,1,"[""establishment"", ""point_of_interest"", ""transit_station""]",1.382146,103.754486,True
Choa Chu Kang,Teck Whye,transport,bus stop,"bus stop in Teck Whye, Choa Chu Kang, Singapore",ChIJxe0CeekR2jERTvo3i83VqUY,Choa Chu Kang Interchange,"Choa Chu Kang, Singapore",3.7,93,"[""bus_station"", ""establishment"", ""point_of_interest"", ""transit_station""]",1.3859683,103.7459786,True
Choa Chu Kang,Teck Whye,transport,bus interchange,"bus interchange in Teck Whye, Choa Chu Kang, Singapore",ChIJC8_040gR2jERacObPHcY5gA,Choa Chu Kang Bus Interchange,"70 Choa Chu Kang Loop, Singapore 689688",4.3,57,"[""establishment"", ""point_of_interest""]",1.3857394,103.7451729,True
Choa Chu Kang,Teck Whye,food,hawker centre,"hawker centre in Teck Whye, Choa Chu Kang, Singapore",ChIJE2pmQcQR2jERMdl7yCj6_LM,Keat Hong Food Centre & Market,"253 Choa Chu Kang Ave 1, Singapore 680253",3.6,336,"[""establishment"", ""food"", ""point_of_interest"", ""restaurant""]",1.3766908,103.7445747,True
Choa Chu Kang,Teck Whye,food,hawker centre,"hawker centre in Teck Whye, Choa Chu Kang, Singapore",ChIJU5KbYb8R2jERt0l-XxTMFgI,Teck Whye Shopping Centre,"145 Teck Whye Ave, Singapore 680145",4.1,987,"[""establishment"", ""point_of_interest"", ""shopping_mall""]",1.3811374,103.7523181,True
Choa Chu Kang,Teck Whye,food,food court,"food court in Teck Whye, Choa Chu Kang, Singapore",ChIJi19VjekR2jERw69DzAIthBU,Food Junction,"21 Choa Chu Kang Ave 4, #04 - 16 Lot One, Singapore 689812",3.7,1292,"[""establishment"", ""food"", ""point_of_interest""]",1.3854472,103.7449054,True
Choa Chu Kang,Teck Whye,food,coffee shop,"coffee shop in Teck Whye, Choa Chu Kang, Singapore",ChIJJYcyrZgR2jERlbxWO4Qrz_M,"Blk 144, #01-223 Coffeeshop","01, 223 Teck Whye Ln, Singapore 680144",4.2,20,"[""cafe"", ""establishment"", ""food"", ""point_of_interest"", ""store""]",1.3808027,103.752585,True
Choa Chu Kang,Teck Whye,food,coffee shop,"coffee shop in Teck Whye, Choa Chu Kang, Singapore",ChIJ04WxPgAR2jERH-z8BbvHggQ,Hua Mu Lan Tea,"10 Choa Chu Kang Ave 4, MRT Inside The Food Inn, Singapore 689810",4.9,172,"[""cafe"", ""establishment"", ""food"", ""point_of_interest"", ""store""]",1.3854085,103.7443327,True
Choa Chu Kang,Teck Whye,food,restaurant,"restaurant in Teck Whye, Choa Chu Kang, Singapore",ChIJachyI7kR2jERSFpre7YXAeQ,Sinaran Seafood And Catering,"26 Teck Whye Ln, #01-170 Block 26, Singapore 680026",4.2,735,"[""establishment"", ""food"", ""point_of_interest"", ""restaurant""]",1.3776353,103.7556506,True
Choa Chu Kang,Teck Whye,food,restaurant,"restaurant in Teck Whye, Choa Chu Kang, Singapore",ChIJlW0um74R2jERJB9IfmT4Qmo,Rasa Rasa @ Teck Whye,"160A Jln Teck Whye, Singapore 681160",4.0,1462,"[""cafe"", ""establishment"", ""food"", ""point_of_interest"", ""restaurant"", ""store""]",1.3803814,103.7572992,True
Choa Chu Kang,Teck Whye,food,cafe,"cafe in Teck Whye, Choa Chu Kang, Singapore",ChIJB4DN1L4R2jERRJdF4b8bKN8,Tiong Wah Restaurant,"16 Teck Whye Ln, Block 16, Singapore 680016",4.2,292,"[""cafe"", ""establishment"", ""food"", ""point_of_interest"", ""restaurant"", ""store""]",1.3784114,103.7546976,True
Choa Chu Kang,Teck Whye,shopping,shopping mall,"shopping mall in Teck Whye, Choa Chu Kang, Singapore",ChIJU5KbYb8R2jERt0l-XxTMFgI,Teck Whye Shopping Centre,"145 Teck Whye Ave, Singapore 680145",4.1,987,"[""establishment"", ""point_of_interest"", ""shopping_mall""]",1.3811374,103.7523181,True
Choa Chu Kang,Teck Whye,shopping,supermarket,"supermarket in Teck Whye, Choa Chu Kang, Singapore",ChIJoTxBzrgR2jERavGEbvzC5Ys,Sheng Siong Supermarket,"18 Teck Whye Ln, #01-95 Block 18, Singapore 680018",4.2,774,"[""establishment"", ""food"", ""grocery_or_supermarket"", ""point_of_interest"", ""store"", ""supermarket""]",1.3782442,103.7542891,True
Choa Chu Kang,Teck Whye,shopping,supermarket,"supermarket in Teck Whye, Choa Chu Kang, Singapore",ChIJUyCFc78R2jER66jgvwK72GQ,Prime Supermarket,"142 01, 281 Teck Whye Ln, Singapore 680142",4.0,164,"[""establishment"", ""food"", ""grocery_or_supermarket"", ""point_of_interest"", ""store"", ""supermarket""]",1.3807287,103.7521568,True
Choa Chu Kang,Teck Whye,shopping,grocery store,"grocery store in Teck Whye, Choa Chu Kang, Singapore",ChIJT7Abab8R2jERgZYAd7wZGRw,FairPrice Jalan Teck Whye,"140 Teck Whye Ln, #01-351, Singapore 680140",3.9,637,"[""establishment"", ""food"", ""grocery_or_supermarket"", ""point_of_interest"", ""store"", ""supermarket""]",1.3800633,103.7531633,True
Choa Chu Kang,Teck Whye,shopping,convenience store,"convenience store in Teck Whye, Choa Chu Kang, Singapore",ChIJnzRHJm4R2jERYJHl7D_Ebig,KS MINIMART,"143 Teck Whye Ln, #01 231B, Singapore 680143",5.0,1,"[""convenience_store"", ""establishment"", ""food"", ""point_of_interest"", ""store""]",1.3800357,103.7527058,True
Choa Chu Kang,Teck Whye,shopping,convenience store,"convenience store in Teck Whye, Choa Chu Kang, Singapore",ChIJU5KbYb8R2jERgVOdRbbTujs,7-Eleven,"Teck Whye Ln, #01-331 Block 137, Singapore 680137",3.1,10,"[""convenience_store"", ""establishment"", ""food"", ""point_of_interest"", ""store""]",1.3800476,103.7525025,True
Choa Chu Kang,Teck Whye,shopping,wet market,"wet market in Teck Whye, Choa Chu Kang, Singapore",ChIJW-4wFvQR2jERVo2FJjUF2vc,Yew Tee Market,"622 Choa Chu Kang Street 62, Singapore 680622",3.9,141,"[""establishment"", ""point_of_interest""]",1.3985843,103.7472226,True
Choa Chu Kang,Teck Whye,recreation,gym,"gym in Teck Whye, Choa Chu Kang, Singapore",ChIJo-H2DwAR2jERSQNla9xggfU,Anytime Fitness Teck Whye,"Teck Whye Ln, Block 26, Singapore 680026",4.6,93,"[""establishment"", ""gym"", ""health"", ""point_of_interest""]",1.3775467,103.7556928,True
Choa Chu Kang,Teck Whye,recreation,gym,"gym in Teck Whye, Choa Chu Kang, Singapore",ChIJgVqV6K0R2jERx19-94Knvow,Anytime Fitness Choa Chu Kang Centre,"309 Choa Chu Kang Ave 4, #03-01, Singapore 680309",4.2,183,"[""establishment"", ""gym"", ""health"", ""point_of_interest""]",1.3850879,103.7457341,True
Choa Chu Kang,Teck Whye,recreation,sports centre,"sports centre in Teck Whye, Choa Chu Kang, Singapore",ChIJ_WX9ue0R2jER865IJyACAoc,Choa Chu Kang Sport Centre,"1 Choa Chu Kang Street 53, Singapore 689236",4.2,959,"[""establishment"", ""gym"", ""health"", ""point_of_interest"", ""stadium""]",1.3910172,103.7482599,True
Choa Chu Kang,Teck Whye,recreation,swimming complex,"swimming complex in Teck Whye, Choa Chu Kang, Singapore",ChIJ_WX9ue0R2jERj69SXrt_lJU,Choa Chu Kang Swimming Complex (The Swimming Place),"1 Choa Chu Kang Street 53, Singapore 689236",4.2,79,"[""establishment"", ""health"", ""point_of_interest"", ""school""]",1.390985,103.748067,True
Choa Chu Kang,Teck Whye,recreation,cinema,"cinema in Teck Whye, Choa Chu Kang, Singapore",ChIJi19VjekR2jERWaroR6pc860,Shaw Theatres,"21 Choa Chu Kang Ave 4, Singapore 689812",4.1,905,"[""establishment"", ""movie_theater"", ""point_of_interest""]",1.3850351,103.7451224,True
Choa Chu Kang,Teck Whye,recreation,cinema,"cinema in Teck Whye, Choa Chu Kang, Singapore",ChIJFx7cQgAR2jERum7NN5FvIOk,Shaw Theatres JEM,"50 Jurong Gateway Rd, #05 04, Singapore 608549",4.0,81,"[""establishment"", ""movie_theater"", ""point_of_interest""]",1.33312,103.7432173,True
Choa Chu Kang,Teck Whye,recreation,community club,"community club in Teck Whye, Choa Chu Kang, Singapore",ChIJv4y6fsAR2jERWc-2HlwTnmE,Chua Chu Kang Community Club,"35 Teck Whye Ave, Chua Chu Kang Community Club, Singapura 688892",,0,"[""premise"", ""street_address""]",1.3811897,103.7516564,True
Choa Chu Kang,Teck Whye,recreation,playground,"playground in Teck Whye, Choa Chu Kang, Singapore",ChIJZ3ACqhQR2jERx_j0-Cfw6rg,Teck Whye View Playground,Singapore,4.6,19,"[""establishment"", ""point_of_interest""]",1.3799328,103.758892,True
Choa Chu Kang,Teck Whye,recreation,playground,"playground in Teck Whye, Choa Chu Kang, Singapore",ChIJl-IVHwAR2jERoPhqWhsVR4Y,132 Teck Whye Playground,"Choa Chu Kang Ave 1, Block 132, Singapore 680132",5.0,1,"[""establishment"", ""point_of_interest""]",1.3806015,103.7503708,True
Choa Chu Kang,Teck Whye,nature,park,"park in Teck Whye, Choa Chu Kang, Singapore",ChIJ7f9_i8AR2jERt4VIjb8jqtQ,Teck Whye Garden,Singapore,1.0,1,"[""establishment"", ""park"", ""point_of_interest""]",1.3807018,103.7508205,True
Choa Chu Kang,Teck Whye,nature,park,"park in Teck Whye, Choa Chu Kang, Singapore",ChIJZ3ACqhQR2jERx_j0-Cfw6rg,Teck Whye View Playground,Singapore,4.6,19,"[""establishment"", ""point_of_interest""]",1.3799328,103.758892,True
Choa Chu Kang,Teck Whye,nature,nature reserve,"nature reserve in Teck Whye, Choa Chu Kang, Singapore",ChIJs3oprUQQ2jERp8A9mbkPZJE,Bukit Batok Nature Park,"Cnr Bukit Batok East Avenue 2, Bukit Batok East Ave 6, and, Singapore 659761",4.5,3266,"[""establishment"", ""park"", ""point_of_interest""]",1.3485421,103.7641994,True
Choa Chu Kang,Teck Whye,nature,nature reserve,"nature reserve in Teck Whye, Choa Chu Kang, Singapore",ChIJq_5RjPUQ2jERQZR7bzih7tw,Hindhede Nature Park,"Hindhede Dr, Singapore",4.5,970,"[""establishment"", ""park"", ""point_of_interest"", ""tourist_attraction""]",1.3491093,103.7754308,True
Choa Chu Kang,Teck Whye,nature,garden,"garden in Teck Whye, Choa Chu Kang, Singapore",ChIJsQreV8AR2jERjx98Uh4KjWk,Teck Whye Gardens,"203 Choa Chu Kang Ave 1, Singapore",3.9,15,"[""establishment"", ""point_of_interest""]",1.3809042,103.7500203,True
Choa Chu Kang,Teck Whye,nature,waterfront,"waterfront in Teck Whye, Choa Chu Kang, Singapore",ChIJh7igdIER2jERvzXtNoQZYhM,Teck Whye View,"161B Jln Teck Whye, Singapore 682161",5.0,13,"[""establishment"", ""point_of_interest""]",1.3798551,103.7585958,True
Choa Chu Kang,Teck Whye,nature,park connector,"park connector in Teck Whye, Choa Chu Kang, Singapore",ChIJRzglD-wR2jERgCmyEeAecXI,Choa Chu Kang Park,"Choa Chu Kang Dr, Singapore 688845",4.3,1911,"[""establishment"", ""park"", ""point_of_interest"", ""tourist_attraction""]",1.3874864,103.7474293,True
Choa Chu Kang,Teck Whye,nature,park connector,"park connector in Teck Whye, Choa Chu Kang, Singapore",ChIJAfY-aQAR2jERJU4PExbtgb0,BUKIT PANJANG NORTH PARK CONNECTOR,"Segar Cl, Singapore",5.0,1,"[""establishment"", ""point_of_interest""]",1.3891486,103.7603213,True
Choa Chu Kang,Yew Tee,education,kindergarten,"kindergarten in Yew Tee, Choa Chu Kang, Singapore",ChIJqxup_x8S2jERtdgCFdt0Kjs,PCF Sparkletots Preschool @ Yew Tee Blk 690D,"Blk 690D Choa Chu Kang Cres, #01-74, Singapore 684690",5.0,2,"[""establishment"", ""point_of_interest"", ""school""]",1.4021252,103.7520201,True
Choa Chu Kang,Yew Tee,education,kindergarten,"kindergarten in Yew Tee, Choa Chu Kang, Singapore",ChIJmRqPF8QR2jERBjbHumdR_z4,Greenfield Montessori,"688C Choa Chu Kang Cres, Block 688C, Singapore 683688",4.8,33,"[""establishment"", ""point_of_interest""]",1.4032512,103.7507755,True
Choa Chu Kang,Yew Tee,education,childcare centre,"childcare centre in Yew Tee, Choa Chu Kang, Singapore",ChIJkZEm_NoR2jER2JHSz_r0VHQ,Greenery Childcare Centre,"483 Choa Chu Kang Ave 5, #01-164, Singapore 680483",5.0,25,"[""establishment"", ""point_of_interest"", ""school""]",1.3758855,103.7376734,True
Choa Chu Kang,Yew Tee,education,primary school,"primary school in Yew Tee, Choa Chu Kang, Singapore",ChIJyyRcW_MR2jERtxnlA3qyVV0,Yew Tee Primary School,"10 Choa Chu Kang Street 64, Singapore 689100",,0,"[""establishment"", ""point_of_interest"", ""primary_school"", ""school""]",1.396978,103.7511849,True
Choa Chu Kang,Yew Tee,education,secondary school,"secondary school in Yew Tee, Choa Chu Kang, Singapore",ChIJe5r-9JUR2jERqq2Ga_xE6HU,Chua Chu Kang Secondary School,"31 Teck Whye Cres, Singapore 688848",,0,"[""establishment"", ""point_of_interest"", ""school"", ""secondary_school""]",1.3831667,103.7551671,True
Choa Chu Kang,Yew Tee,education,secondary school,"secondary school in Yew Tee, Choa Chu Kang, Singapore",ChIJ9TMrne8R2jER9MbWpucSlBU,Kranji Secondary School,"61 Choa Chu Kang Street 51, Singapore 689333",,0,"[""establishment"", ""point_of_interest"", ""school""]",1.3906192,103.7415227,True
Choa Chu Kang,Yew Tee,education,junior college,"junior college in Yew Tee, Choa Chu Kang, Singapore",ChIJz_-CGpUR2jERsxAVVh_vnoY,Jurong Pioneer Junior College,"21 Teck Whye Walk, Singapore 688258",3.8,86,"[""establishment"", ""point_of_interest"", ""university""]",1.3847446,103.753857,True
Choa Chu Kang,Yew Tee,education,junior college,"junior college in Yew Tee, Choa Chu Kang, Singapore",ChIJESRAQ1sa2jERlSmmrDCCriw,Anglo-Chinese Junior College,"25 Dover Cl E, Singapore 139745",4.0,119,"[""establishment"", ""point_of_interest"", ""school"", ""university""]",1.3031354,103.785109,True
Choa Chu Kang,Yew Tee,education,polytechnic,"polytechnic in Yew Tee, Choa Chu Kang, Singapore",ChIJHxfJeecR2jERy04VMjd1fM0,ITE College West,"1 Choa Chu Kang Grv, Singapore 688236",4.2,411,"[""establishment"", ""point_of_interest"", ""university""]",1.3754113,103.7521285,True
Choa Chu Kang,Yew Tee,education,polytechnic,"polytechnic in Yew Tee, Choa Chu Kang, Singapore",ChIJW1axjb8R2jERYKqQVcmPwj0,Choa Chu Kang Polyclinic (NUP),"2 Teck Whye Cres, Singapore 688846",2.4,271,"[""establishment"", ""health"", ""point_of_interest""]",1.38219,103.7509283,True
Choa Chu Kang,Yew Tee,education,university,"university in Yew Tee, Choa Chu Kang, Singapore",ChIJgTBZgg8R2jERImrXMPrHxdw,EduFirst Learning Centre (Choa Chu Kang Yew Tee Branch) - English Math Chinese Science Student Care Tuition Singapore,"626 Choa Chu Kang Street 62, #01-180, Singapore 680626",4.7,40,"[""establishment"", ""point_of_interest""]",1.3983667,103.745797,True
Choa Chu Kang,Yew Tee,education,tuition centre,"tuition centre in Yew Tee, Choa Chu Kang, Singapore",ChIJnaMykicR2jER3Xno5vA2bKw,"Top Grades Tuition & Enrichment @ Yew Tee, Choa Chu Kang - Visit our IG for Genuine Feedback fr Parents & Students","Blk 517 Choa Chu Kang Street 51, #01-30, Singapore 680517",5.0,88,"[""establishment"", ""point_of_interest""]",1.3924541,103.7433484,True
Choa Chu Kang,Yew Tee,education,library,"library in Yew Tee, Choa Chu Kang, Singapore",ChIJ5-Dtl-kR2jERllI9-1NpYVY,Choa Chu Kang Library,"21 Choa Chu Kang Avenue 4 #04-01/02 and #05-06, Lot One Shopper’s Mall, Singapore 689812",4.3,280,"[""establishment"", ""library"", ""point_of_interest""]",1.384977,103.7452205,True
Choa Chu Kang,Yew Tee,transport,MRT station,"MRT station in Yew Tee, Choa Chu Kang, Singapore",ChIJXda8xtoR2jERkD1aoLDmzhI,Yew Tee,"61 Choa Chu Kang Dr, Singapore 689715",4.1,133,"[""establishment"", ""point_of_interest"", ""subway_station"", ""transit_station""]",1.3975657,103.7474517,True
Choa Chu Kang,Yew Tee,transport,MRT station,"MRT station in Yew Tee, Choa Chu Kang, Singapore",ChIJg9zFkjAR2jERXmWQPEs55Kg,Yew Tee MRT Station (NS5),"61 Choa Chu Kang Dr, Singapore 689715",4.5,749,"[""establishment"", ""point_of_interest""]",1.3973666,103.7474715,True
Choa Chu Kang,Yew Tee,transport,bus stop,"bus stop in Yew Tee, Choa Chu Kang, Singapore",ChIJUzOd9fMR2jERZz6ereXhra8,Yew Tee Stn,Singapore,4.3,16,"[""establishment"", ""point_of_interest"", ""transit_station""]",1.3973214,103.7475378,True
Choa Chu Kang,Yew Tee,transport,bus stop,"bus stop in Yew Tee, Choa Chu Kang, Singapore",ChIJN3hidfQR2jERr8CzSfsZPig,Opp Yew Tee Stn,Singapore,4.5,4,"[""establishment"", ""point_of_interest"", ""transit_station""]",1.397438,103.747864,True
Choa Chu Kang,Yew Tee,transport,bus interchange,"bus interchange in Yew Tee, Choa Chu Kang, Singapore",ChIJxe0CeekR2jERTvo3i83VqUY,Choa Chu Kang Interchange,"Choa Chu Kang, Singapore",3.7,93,"[""bus_station"", ""establishment"", ""point_of_interest"", ""transit_station""]",1.3859683,103.7459786,True
Choa Chu Kang,Yew Tee,food,hawker centre,"hawker centre in Yew Tee, Choa Chu Kang, Singapore",ChIJWxEUrdkR2jERM4uTxwEQ3ZY,Blk 253 Choa Chu Kang Market & Food Centre,"Block 253 Choa Chu Kang Ave 1, Singapore 680253",3.8,219,"[""establishment"", ""food"", ""point_of_interest"", ""restaurant""]",1.3766662,103.7445867,True
Choa Chu Kang,Yew Tee,food,hawker centre,"hawker centre in Yew Tee, Choa Chu Kang, Singapore",ChIJE2pmQcQR2jERMdl7yCj6_LM,Keat Hong Food Centre & Market,"253 Choa Chu Kang Ave 1, Singapore 680253",3.6,336,"[""establishment"", ""food"", ""point_of_interest"", ""restaurant""]",1.3766908,103.7445747,True
Choa Chu Kang,Yew Tee,food,food court,"food court in Yew Tee, Choa Chu Kang, Singapore",ChIJucjD4T8Q2jERVgeeSlTgLOE,Kopitiam Corner,"624 Choa Chu Kang Street 62, #02-222 224 Square, Singapore 680624",3.7,572,"[""establishment"", ""food"", ""point_of_interest""]",1.3981277,103.7468169,True
Choa Chu Kang,Yew Tee,food,food court,"food court in Yew Tee, Choa Chu Kang, Singapore",ChIJ2xwx_PMR2jERB955as6dQeU,Koufu,"21 Choa Chu Kang North 6, B1 - 17/22, Singapore 689578",3.7,534,"[""establishment"", ""food"", ""point_of_interest""]",1.3968675,103.7469276,True
Choa Chu Kang,Yew Tee,food,coffee shop,"coffee shop in Yew Tee, Choa Chu Kang, Singapore",ChIJ-R18oJkT2jERjb5BLbsu-dM,Blue Owl Café (Yew Tee — Takeaway Coffee),"609 Choa Chu Kang Street 62, Singapore 680609",5.0,81,"[""cafe"", ""establishment"", ""food"", ""point_of_interest""]",1.3993314,103.7447307,True
Choa Chu Kang,Yew Tee,food,coffee shop,"coffee shop in Yew Tee, Choa Chu Kang, Singapore",ChIJF6L3RxsR2jERsa-T6m-jewk,Cafe Toofee,"625 Choa Chu Kang Street 62, #11-206, Singapore 680625",5.0,12,"[""cafe"", ""establishment"", ""food"", ""point_of_interest""]",1.3986727,103.7460623,True
Choa Chu Kang,Yew Tee,food,restaurant,"restaurant in Yew Tee, Choa Chu Kang, Singapore",ChIJM9H3S3kR2jERDSkclfQn8NY,Saizeriya - Yew Tee Point,"〒689578, Choa Chu Kang North 6, 21号, YewTee Point, #01-17",3.5,426,"[""establishment"", ""food"", ""point_of_interest"", ""restaurant""]",1.397305,103.7467908,True
Choa Chu Kang,Yew Tee,food,restaurant,"restaurant in Yew Tee, Choa Chu Kang, Singapore",ChIJR6-rTh4R2jERY9kBnJwfyy4,SYED CAFE Exclusive,"28 Choa Chu Kang Dr, #01-02 Safra, Singapore 689964",4.2,736,"[""establishment"", ""food"", ""point_of_interest"", ""restaurant""]",1.3887327,103.7472679,True
Choa Chu Kang,Yew Tee,shopping,shopping mall,"shopping mall in Yew Tee, Choa Chu Kang, Singapore",ChIJL3h_-fMR2jERaA6mW3u-wNU,YewTee Point,"21 Choa Chu Kang North 6, Singapore 689578",4.1,2745,"[""establishment"", ""point_of_interest"", ""shopping_mall""]",1.39716,103.7468352,True
Choa Chu Kang,Yew Tee,shopping,shopping mall,"shopping mall in Yew Tee, Choa Chu Kang, Singapore",ChIJp4CPcscR2jERIEqVvSuOfmc,Yew Tee Square,"624 Choa Chu Kang Street 62, Singapore 680624",4.3,292,"[""establishment"", ""point_of_interest"", ""shopping_mall""]",1.3980053,103.7468974,True
Choa Chu Kang,Yew Tee,shopping,supermarket,"supermarket in Yew Tee, Choa Chu Kang, Singapore",ChIJeRqQ8_MR2jERWHiWayirJ7g,FairPrice Finest,"61 Choa Chu Kang Dr, #01-01 MRT Station, Singapore 689715",4.3,607,"[""establishment"", ""food"", ""grocery_or_supermarket"", ""point_of_interest"", ""store"", ""supermarket""]",1.3974601,103.7474636,True
Choa Chu Kang,Yew Tee,shopping,supermarket,"supermarket in Yew Tee, Choa Chu Kang, Singapore",ChIJ2xwx_PMR2jERRAWDe04IwWg,FairPrice Yew Tee Point,"21 Choa Chu Kang North 6, #B1-01, YewTee Point, Singapore 689578",4.2,630,"[""establishment"", ""food"", ""grocery_or_supermarket"", ""point_of_interest"", ""store"", ""supermarket""]",1.3972005,103.7463681,True
Choa Chu Kang,Yew Tee,shopping,convenience store,"convenience store in Yew Tee, Choa Chu Kang, Singapore",ChIJx4SrEPQR2jERYHsJxQ_5KFs,7-Eleven,"Blk.623 Choa Chu Kang Street 62, #01-216A Next to Yew Tee MRT Station, Singapore 680623",2.4,45,"[""convenience_store"", ""establishment"", ""food"", ""point_of_interest"", ""store""]",1.3981564,103.7471165,True
Choa Chu Kang,Yew Tee,shopping,convenience store,"convenience store in Yew Tee, Choa Chu Kang, Singapore",ChIJE3WPyR8S2jERqwXJHvswCAY,7-Eleven + Mr Softee,"Choa Chu Kang Dr, #01-306, Singapore 682689",3.5,23,"[""convenience_store"", ""establishment"", ""food"", ""point_of_interest"", ""store""]",1.403112,103.7497763,True
Choa Chu Kang,Yew Tee,shopping,wet market,"wet market in Yew Tee, Choa Chu Kang, Singapore",ChIJW-4wFvQR2jERVo2FJjUF2vc,Yew Tee Market,"622 Choa Chu Kang Street 62, Singapore 680622",3.9,141,"[""establishment"", ""point_of_interest""]",1.3985843,103.7472226,True
Choa Chu Kang,Yew Tee,recreation,gym,"gym in Yew Tee, Choa Chu Kang, Singapore",ChIJQy8bLdUR2jERSWcTQMqhVAw,24/7 FITNESS Yew Tee,"61 Choa Chu Kang Dr, #02-01 MRT, Singapore 689715",4.8,118,"[""establishment"", ""gym"", ""health"", ""point_of_interest""]",1.3970933,103.7473217,True
Choa Chu Kang,Yew Tee,recreation,gym,"gym in Yew Tee, Choa Chu Kang, Singapore",ChIJNwuGbrcR2jERgxca13aS0-U,Anytime Fitness Yew Tee Community Club,"20 Choa Chu Kang Street 52, #03-01, Singapore 689286",4.6,141,"[""establishment"", ""gym"", ""health"", ""point_of_interest""]",1.3948751,103.744688,True
Choa Chu Kang,Yew Tee,recreation,sports centre,"sports centre in Yew Tee, Choa Chu Kang, Singapore",ChIJ_WX9ue0R2jER865IJyACAoc,Choa Chu Kang Sport Centre,"1 Choa Chu Kang Street 53, Singapore 689236",4.2,959,"[""establishment"", ""gym"", ""health"", ""point_of_interest"", ""stadium""]",1.3910172,103.7482599,True
Choa Chu Kang,Yew Tee,recreation,sports centre,"sports centre in Yew Tee, Choa Chu Kang, Singapore",ChIJqQr7ofER2jERH_EFPnj1qC4,Yew Tee Community Club,"20 Choa Chu Kang Street 52, #01-01 Yew Tee Community Building, Singapore 689286",4.2,778,"[""establishment"", ""point_of_interest""]",1.3948528,103.7447108,True
Choa Chu Kang,Yew Tee,recreation,swimming complex,"swimming complex in Yew Tee, Choa Chu Kang, Singapore",ChIJ_WX9ue0R2jERj69SXrt_lJU,Choa Chu Kang Swimming Complex (The Swimming Place),"1 Choa Chu Kang Street 53, Singapore 689236",4.2,79,"[""establishment"", ""health"", ""point_of_interest"", ""school""]",1.390985,103.748067,True
Choa Chu Kang,Yew Tee,recreation,cinema,"cinema in Yew Tee, Choa Chu Kang, Singapore",ChIJi19VjekR2jERWaroR6pc860,Shaw Theatres,"21 Choa Chu Kang Ave 4, Singapore 689812",4.1,905,"[""establishment"", ""movie_theater"", ""point_of_interest""]",1.3850351,103.7451224,True
Choa Chu Kang,Yew Tee,recreation,community club,"community club in Yew Tee, Choa Chu Kang, Singapore",ChIJVVVVVegR2jER_ncZsSw8hfM,Keat Hong Community Club,"2 Choa Chu Kang Loop, #01-01, Singapore 689687",4.2,1115,"[""establishment"", ""point_of_interest""]",1.3841444,103.744825,True
Choa Chu Kang,Yew Tee,recreation,playground,"playground in Yew Tee, Choa Chu Kang, Singapore",ChIJ2eXtg0IR2jERYSIcEnmYWd0,Yew Tee Park Playground,"602 Choa Chu Kang Street 62, Singapore 680602",4.6,12,"[""establishment"", ""point_of_interest""]",1.3974266,103.7436794,True
Choa Chu Kang,Yew Tee,recreation,playground,"playground in Yew Tee, Choa Chu Kang, Singapore",ChIJ_6ftJ_ER2jERjyRotGhn7to,Yew Tee Park,"Choa Chu Kang North 6, Singapore",4.3,136,"[""establishment"", ""park"", ""point_of_interest""]",1.3973527,103.7436456,True
Choa Chu Kang,Yew Tee,nature,park,"park in Yew Tee, Choa Chu Kang, Singapore",ChIJ_6ftJ_ER2jERjyRotGhn7to,Yew Tee Park,"Choa Chu Kang North 6, Singapore",4.3,136,"[""establishment"", ""park"", ""point_of_interest""]",1.3973527,103.7436456,True
Choa Chu Kang,Yew Tee,nature,park,"park in Yew Tee, Choa Chu Kang, Singapore",ChIJ2eXtg0IR2jERYSIcEnmYWd0,Yew Tee Park Playground,"602 Choa Chu Kang Street 62, Singapore 680602",4.6,12,"[""establishment"", ""point_of_interest""]",1.3974266,103.7436794,True
Choa Chu Kang,Yew Tee,nature,nature reserve,"nature reserve in Yew Tee, Choa Chu Kang, Singapore",ChIJ3dcI_PUN2jERTnYeNNfju5c,Kranji Marshes,"11 Neo Tiew Lane 2, Singapore 718814",4.1,469,"[""establishment"", ""park"", ""point_of_interest""]",1.4196408,103.7205184,True
Choa Chu Kang,Yew Tee,nature,nature reserve,"nature reserve in Yew Tee, Choa Chu Kang, Singapore",ChIJe0cEPoIS2jERs_rS2qvGOxw,Sungei Buloh Wetland Reserve,"301 Neo Tiew Cres, Singapore 718925",4.6,4695,"[""establishment"", ""park"", ""point_of_interest"", ""tourist_attraction""]",1.4464304,103.723404,True
Choa Chu Kang,Yew Tee,nature,garden,"garden in Yew Tee, Choa Chu Kang, Singapore",ChIJRzglD-wR2jERgCmyEeAecXI,Choa Chu Kang Park,"Choa Chu Kang Dr, Singapore 688845",4.3,1911,"[""establishment"", ""park"", ""point_of_interest"", ""tourist_attraction""]",1.3874864,103.7474293,True
Choa Chu Kang,Yew Tee,nature,waterfront,"waterfront in Yew Tee, Choa Chu Kang, Singapore",ChIJ2WNRKrER2jER3AtxY3AFgPU,The Life Style Corridor - Yew Tee,"Choa Chu Kang Dr, Singapore",5.0,4,"[""establishment"", ""point_of_interest""]",1.4018467,103.7485493,True
Choa Chu Kang,Yew Tee,nature,waterfront,"waterfront in Yew Tee, Choa Chu Kang, Singapore",ChIJv7B8VQAR2jERRQiTx7TMXgA,Yew Tee Waterplay Plaza,"Choa Chu Kang Street 62, Singapore",4.9,7,"[""establishment"", ""point_of_interest""]",1.3990591,103.7478256,True
Choa Chu Kang,Yew Tee,nature,park connector,"park connector in Yew Tee, Choa Chu Kang, Singapore",ChIJeyJ1LR8R2jERnVG-iAYYCZU,Pang Sua Park Connector,"Bef, Choa Chu Kang North 5, Singapore",4.7,24,"[""establishment"", ""point_of_interest""]",1.3935116,103.7525523,True
