planning_area,subzone,poi_dimension,place_query_type,search_query,place_id,place_name,formatted_address,rating,user_ratings_total,types,lat,lng,need_reviews
Sembawang,Admiralty,education,education facilities schools childcare libraries,"education facilities schools childcare libraries near Admiralty, Sembawang, Singapore",ChIJNX1sv2YT2jERoF5IpESJXlw,My Little Campus - MLC (Sembawang),"406 Sembawang Dr, #01-828, Singapore 750406",5.0,13,"[""establishment"", ""point_of_interest"", ""school""]",1.4530174,103.8170112,True
Sembawang,Admiralty,education,education facilities schools childcare libraries,"education facilities schools childcare libraries near Admiralty, Sembawang, Singapore",ChIJSTHr5WAT2jER8sdXJTNxrzo,My First Skool at Blk 491 Admiralty Link,"491 Admiralty Link, #01-191, Singapore 750491",5.0,3,"[""establishment"", ""point_of_interest"", ""school""]",1.4561222,103.8175959,True
Sembawang,Admiralty,education,education facilities schools childcare libraries,"education facilities schools childcare libraries near Admiralty, Sembawang, Singapore",ChIJs_kR2cIT2jERvkkE_qfSPAU,Wharton Montessori Preschool @ Sembawang,"8 Admiralty St, #01-13, Admirax 757438",5.0,20,"[""establishment"", ""point_of_interest"", ""school""]",1.4625623,103.8160974,True
Sembawang,Admiralty,education,education facilities schools childcare libraries,"education facilities schools childcare libraries near Admiralty, Sembawang, Singapore",ChIJEXlbHVwT2jER5BU273xZK0s,Little Footprints Preschool @ Admiralty,"8 Admiralty St, #01-03, Admirax, Singapore 757438",4.8,36,"[""establishment"", ""point_of_interest"", ""school""]",1.4625623,103.8160974,True
Sembawang,Admiralty,education,education facilities schools childcare libraries,"education facilities schools childcare libraries near Admiralty, Sembawang, Singapore",ChIJZZaMpAkT2jEREgLhS6GBRwQ,My First Skool at Kampung Admiralty,"Woodlands Drive 71, #06-02 Blk 676, Singapore 730676",5.0,15,"[""establishment"", ""point_of_interest"", ""school""]",1.4397745,103.8008056,True
Sembawang,Admiralty,education,education facilities schools childcare libraries,"education facilities schools childcare libraries near Admiralty, Sembawang, Singapore",ChIJO5JBPuUT2jERGtV9cpphGt8,EduFirst Learning Centre (Sembawang) - English Math Chinese Science Tuition Centre Student Care Singapore,"2 Sembawang Cres, #02 05 06 Canberra Community Club, Singapore 757632",4.8,96,"[""establishment"", ""point_of_interest""]",1.4448348,103.8196639,True
Sembawang,Admiralty,education,education facilities schools childcare libraries,"education facilities schools childcare libraries near Admiralty, Sembawang, Singapore",ChIJVVWlLmcT2jER4K3Oh72uq7o,Reliance Learning Lab,"483 Admiralty Link, #01-25, Singapore 750483",4.8,28,"[""establishment"", ""point_of_interest""]",1.4560624,103.8154224,True
Sembawang,Admiralty,education,education facilities schools childcare libraries,"education facilities schools childcare libraries near Admiralty, Sembawang, Singapore",ChIJNTlHDncU2jERMf2p39hUWew,Maplebear Sembawang,"29 Jln Lengkok Sembawang, Singapore 759218",5.0,26,"[""establishment"", ""point_of_interest"", ""school""]",1.4282383,103.8249065,True
Sembawang,Admiralty,education,education facilities schools childcare libraries,"education facilities schools childcare libraries near Admiralty, Sembawang, Singapore",ChIJ0_2v-goT2jERnC823Yt8ZYg,First Steps Preschool @ Admiralty,"701 Woodlands Drive 40, Singapore 730701",5.0,11,"[""establishment"", ""point_of_interest""]",1.441439,103.7962129,True
Sembawang,Admiralty,education,education facilities schools childcare libraries,"education facilities schools childcare libraries near Admiralty, Sembawang, Singapore",ChIJnVjyIGMT2jER1AP2Rg9FFT4,Star Learners @ Sembawang Way | Preschool & Childcare,"355 Sembawang Wy, #02-02, Singapore 750355",5.0,116,"[""establishment"", ""point_of_interest"", ""school""]",1.4500614,103.8184399,True
Sembawang,Admiralty,education,education facilities schools childcare libraries,"education facilities schools childcare libraries near Admiralty, Sembawang, Singapore",ChIJ_5R36voV2jERNLwksv34gLs,MindChamps MindSpace @ Sembawang Shopping Centre (Canberra) | After School Student Care | MindChamps Enrichment for P1-P5,"604 Sembawang Rd, #03-14 Sembawang Shopping Centre, Singapore 758459",5.0,42,"[""establishment"", ""point_of_interest""]",1.4420175,103.8250677,True
Sembawang,Admiralty,education,education facilities schools childcare libraries,"education facilities schools childcare libraries near Admiralty, Sembawang, Singapore",ChIJHyby1H8U2jERcLpQogdt3pc,Star Learners @ Sembawang Place | Preschool & Childcare,"587 Sembawang Pl, Singapore 758440",4.8,51,"[""establishment"", ""point_of_interest"", ""school""]",1.43938,103.824555,True
Sembawang,Admiralty,education,education facilities schools childcare libraries,"education facilities schools childcare libraries near Admiralty, Sembawang, Singapore",ChIJW6IeMH0T2jERiY_tOOMSWeI,Sembawang Library,"30 Sembawang Dr, #05 - 01 Sun Plaza, Singapore 757713",3.9,193,"[""establishment"", ""library"", ""point_of_interest""]",1.4482825,103.8195571,True
Sembawang,Admiralty,education,education facilities schools childcare libraries,"education facilities schools childcare libraries near Admiralty, Sembawang, Singapore",ChIJqVqJA6YT2jERen84koMFzGM,Woodlands Library,"900 S Woodlands Dr, #01-03 Civic Centre, Singapore 730900",4.3,488,"[""establishment"", ""library"", ""point_of_interest""]",1.4349053,103.78678,True
Sembawang,Admiralty,education,education facilities schools childcare libraries,"education facilities schools childcare libraries near Admiralty, Sembawang, Singapore",ChIJm3Mfpf0T2jER_xZHp65wiaI,PlayFACTO School @ Sembawang,"Block 463B Sembawang Dr, #01-385, Singapore 752463",5.0,54,"[""establishment"", ""point_of_interest"", ""school""]",1.4560176,103.8137696,True
Sembawang,Admiralty,education,education facilities schools childcare libraries,"education facilities schools childcare libraries near Admiralty, Sembawang, Singapore",ChIJ1fYfwGAa2jERy7f1JLymou0,SP - Library & FabLab,"500 Dover Rd, Singapore 139651",4.2,34,"[""establishment"", ""library"", ""point_of_interest""]",1.3087569,103.7799417,True
Sembawang,Admiralty,education,education facilities schools childcare libraries,"education facilities schools childcare libraries near Admiralty, Sembawang, Singapore",ChIJ3wtO3HsT2jER8wM-bCGc8f0,Maplebear Woodlands,"3 Gambas Cres, #01-06/07 Nordcom 1, Singapore 757088",4.7,3,"[""establishment"", ""point_of_interest"", ""school""]",1.4441588,103.8141318,True
Sembawang,Admiralty,education,education facilities schools childcare libraries,"education facilities schools childcare libraries near Admiralty, Sembawang, Singapore",ChIJTXdxQk4b2jER4HdHnRNjvLY,HV Little Library,"2 Holland Ave, Block 2, Singapore 271002",4.9,64,"[""establishment"", ""library"", ""point_of_interest""]",1.3095115,103.7956789,True
Sembawang,Admiralty,education,education facilities schools childcare libraries,"education facilities schools childcare libraries near Admiralty, Sembawang, Singapore",ChIJf5_pqVIS2jERAkF9nM8cvqk,Little Muslim Readers (Woodlands),"11 Woodlands Cl, Singapore 737853",5.0,1,"[""establishment"", ""point_of_interest""]",1.4343653,103.8024411,True
Sembawang,Admiralty,education,education facilities schools childcare libraries,"education facilities schools childcare libraries near Admiralty, Sembawang, Singapore",ChIJ37jPtXsT2jER6-IkTUpKHRE,Star Learners @ Gambas | Preschool & Childcare,"7 Gambas Cres, #01-18/19/20, Singapore 757087",5.0,42,"[""establishment"", ""point_of_interest"", ""school""]",1.445007,103.8121599,True
Sembawang,Admiralty,transport,public transport MRT LRT bus stops,"public transport MRT LRT bus stops near Admiralty, Sembawang, Singapore",ChIJOd6hDXUT2jER-A0rbWceli0,Admiralty Stn,Singapore,4.0,25,"[""bus_station"", ""establishment"", ""point_of_interest"", ""transit_station""]",1.4406899,103.8007386,True
Sembawang,Admiralty,transport,public transport MRT LRT bus stops,"public transport MRT LRT bus stops near Admiralty, Sembawang, Singapore",ChIJ9dSHDHUT2jER2OAwCRnDDKk,Admiralty,Singapore,4.4,1244,"[""establishment"", ""point_of_interest"", ""subway_station"", ""transit_station""]",1.44059,103.80099,True
Sembawang,Admiralty,transport,public transport MRT LRT bus stops,"public transport MRT LRT bus stops near Admiralty, Sembawang, Singapore",ChIJj1a7FnUT2jERxLXgssXN7qI,Opp Admiralty Stn,Singapore,4.0,6,"[""establishment"", ""point_of_interest"", ""transit_station""]",1.440888,103.800186,True
Sembawang,Admiralty,transport,public transport MRT LRT bus stops,"public transport MRT LRT bus stops near Admiralty, Sembawang, Singapore",ChIJd7lCjHUT2jERTa_f-Zpy8uI,Bef Admiralty Stn/Blk 680,Singapore,5.0,5,"[""establishment"", ""point_of_interest"", ""transit_station""]",1.439739,103.802505,True
Sembawang,Admiralty,transport,public transport MRT LRT bus stops,"public transport MRT LRT bus stops near Admiralty, Sembawang, Singapore",ChIJLRPA9XQT2jERV4TFlKxVCt4,Bef Admiralty Pr Sch,Singapore,5.0,2,"[""establishment"", ""point_of_interest"", ""transit_station""]",1.442676,103.801247,True
Sembawang,Admiralty,transport,public transport MRT LRT bus stops,"public transport MRT LRT bus stops near Admiralty, Sembawang, Singapore",ChIJ74T2JmcT2jERUmMuHJxp0Nc,Blk 483,Singapore,5.0,5,"[""establishment"", ""point_of_interest"", ""transit_station""]",1.455935,103.814911,True
Sembawang,Admiralty,transport,public transport MRT LRT bus stops,"public transport MRT LRT bus stops near Admiralty, Sembawang, Singapore",ChIJWUPdyWIT2jERxPOWpY4QJ5A,Sembawang,Singapore,4.3,1509,"[""establishment"", ""point_of_interest"", ""subway_station"", ""transit_station""]",1.44909,103.820049,True
Sembawang,Admiralty,transport,public transport MRT LRT bus stops,"public transport MRT LRT bus stops near Admiralty, Sembawang, Singapore",ChIJhYoZF30T2jERKXxkIsA9i-U,Sembawang Interchange,"11A Sembawang Vis, Singapore 757527",3.1,11,"[""bus_station"", ""establishment"", ""point_of_interest"", ""transit_station""]",1.4472813,103.8195946,True
Sembawang,Admiralty,transport,public transport MRT LRT bus stops,"public transport MRT LRT bus stops near Admiralty, Sembawang, Singapore",ChIJFwAAJH0T2jERZszqZqhHLU8,Sun Plaza/ Sembawang Stn,Singapore,4.1,12,"[""establishment"", ""point_of_interest"", ""transit_station""]",1.448032,103.818954,True
Sembawang,Admiralty,transport,public transport MRT LRT bus stops,"public transport MRT LRT bus stops near Admiralty, Sembawang, Singapore",ChIJFRGNxWIT2jERHr5yWEgmc-I,Sembawang Stn,Singapore,4.2,13,"[""establishment"", ""point_of_interest"", ""transit_station""]",1.449262,103.819794,True
Sembawang,Admiralty,transport,public transport MRT LRT bus stops,"public transport MRT LRT bus stops near Admiralty, Sembawang, Singapore",ChIJpVpZpH0T2jERJ34jp7Mdpmg,Blk 328,Singapore,4.0,3,"[""establishment"", ""point_of_interest"", ""transit_station""]",1.445829,103.819687,True
Sembawang,Admiralty,transport,public transport MRT LRT bus stops,"public transport MRT LRT bus stops near Admiralty, Sembawang, Singapore",ChIJox37CGEa2jERvtedS0eQ6FA,Dover Stn Exit A,Singapore,4.6,7,"[""establishment"", ""point_of_interest"", ""transit_station""]",1.311234,103.778381,True
Sembawang,Admiralty,transport,public transport MRT LRT bus stops,"public transport MRT LRT bus stops near Admiralty, Sembawang, Singapore",ChIJQZIHGH0T2jEREkExkuNf8v0,Sembawang Interchange,Singapore,3.9,24,"[""bus_station"", ""establishment"", ""point_of_interest"", ""transit_station""]",1.447482,103.819412,True
Sembawang,Admiralty,transport,public transport MRT LRT bus stops,"public transport MRT LRT bus stops near Admiralty, Sembawang, Singapore",ChIJlScR1Z8T2jERPClc7k5jIrI,Blk 676a,Singapore,5.0,1,"[""establishment"", ""point_of_interest"", ""transit_station""]",1.439275,103.801224,True
Sembawang,Admiralty,transport,public transport MRT LRT bus stops,"public transport MRT LRT bus stops near Admiralty, Sembawang, Singapore",ChIJ6Snd0nMT2jERTC9iGs73eXg,Opp Admiralty Sec Sch,Singapore,5.0,4,"[""establishment"", ""point_of_interest"", ""transit_station""]",1.446563,103.803337,True
Sembawang,Admiralty,transport,public transport MRT LRT bus stops,"public transport MRT LRT bus stops near Admiralty, Sembawang, Singapore",ChIJIXvVDGEa2jERvVGUrQkCgRk,Dover Stn Exit B,Singapore,3.6,5,"[""establishment"", ""point_of_interest"", ""transit_station""]",1.311679,103.778687,True
Sembawang,Admiralty,transport,public transport MRT LRT bus stops,"public transport MRT LRT bus stops near Admiralty, Sembawang, Singapore",ChIJq-wYhnQT2jERQt29Y73i0bM,Opp Admiralty Pr Sch,Singapore,4.0,1,"[""establishment"", ""point_of_interest"", ""transit_station""]",1.443511,103.801064,True
Sembawang,Admiralty,transport,public transport MRT LRT bus stops,"public transport MRT LRT bus stops near Admiralty, Sembawang, Singapore",ChIJQa_MxmIT2jERxtFfsKMOCW0,Opp Sembawang Stn,Singapore,2.5,4,"[""establishment"", ""point_of_interest"", ""transit_station""]",1.449535,103.819931,True
Sembawang,Admiralty,transport,public transport MRT LRT bus stops,"public transport MRT LRT bus stops near Admiralty, Sembawang, Singapore",ChIJz-AErIIU2jERp1S-ZC-kFO4,Bef Sembawang Stn,Singapore,3.6,5,"[""establishment"", ""point_of_interest"", ""transit_station""]",1.4483416,103.8219993,True
Sembawang,Admiralty,transport,public transport MRT LRT bus stops,"public transport MRT LRT bus stops near Admiralty, Sembawang, Singapore",ChIJM97_9IYU2jERFVaWfl5Bm1o,Canberra Stn,"Canberra Link, Singapore 752106",3.7,3,"[""bus_station"", ""establishment"", ""point_of_interest"", ""transit_station""]",1.442578,103.830139,True
Sembawang,Admiralty,food,food dining hawker centres restaurants cafes,"food dining hawker centres restaurants cafes near Admiralty, Sembawang, Singapore",ChIJSYCHb3UT2jERZBT2RKbXINU,Kampung Admiralty Hawker Centre,"676 Woodlands Drive 71, Singapore 730676",4.1,4925,"[""establishment"", ""food"", ""point_of_interest"", ""restaurant""]",1.4398741,103.8006515,True
Sembawang,Admiralty,food,food dining hawker centres restaurants cafes,"food dining hawker centres restaurants cafes near Admiralty, Sembawang, Singapore",ChIJf-MrLT8V2jERx_aVOpIuLng,Bukit Canberra Hawker Centre,"21 Canberra Link, Singapore 756973",4.2,1945,"[""establishment"", ""food"", ""point_of_interest"", ""restaurant""]",1.4489743,103.8228369,True
Sembawang,Admiralty,food,food dining hawker centres restaurants cafes,"food dining hawker centres restaurants cafes near Admiralty, Sembawang, Singapore",ChIJlU1sIyYV2jERZ_plMDpdCcU,Charcoal Mookata 1018 Sembawang - The Addiction Bistro,"1018 Sembawang Rd, Singapore 758495",4.8,1889,"[""establishment"", ""food"", ""point_of_interest"", ""restaurant""]",1.4533182,103.8323377,True
Sembawang,Admiralty,food,food dining hawker centres restaurants cafes,"food dining hawker centres restaurants cafes near Admiralty, Sembawang, Singapore",ChIJH1HG6tEW2jERGsch7FbDL5g,Sembawang Hills Food Centre,"590 Upper Thomson Rd, Singapore 574419",3.9,2392,"[""establishment"", ""food"", ""point_of_interest"", ""restaurant""]",1.3722883,103.8290075,True
Sembawang,Admiralty,food,food dining hawker centres restaurants cafes,"food dining hawker centres restaurants cafes near Admiralty, Sembawang, Singapore",ChIJEcljAGoU2jERqtf7wNTnNlg,Yishun Park Hawker Centre,"51 Yishun Ave 11, Singapore 768867",4.1,7320,"[""establishment"", ""food"", ""point_of_interest"", ""restaurant"", ""tourist_attraction""]",1.4250185,103.8447207,True
Sembawang,Admiralty,food,food dining hawker centres restaurants cafes,"food dining hawker centres restaurants cafes near Admiralty, Sembawang, Singapore",ChIJpdCbpXwT2jERo9jX2FUvxpI,Broadway Food Centre @ 334A Sembawang Close,"334 Sembawang Cl, Block 334, Singapore 750334",3.7,684,"[""establishment"", ""food"", ""point_of_interest"", ""restaurant"", ""store""]",1.4481094,103.8164216,True
Sembawang,Admiralty,food,food dining hawker centres restaurants cafes,"food dining hawker centres restaurants cafes near Admiralty, Sembawang, Singapore",ChIJC9Hm5-EV2jERDZzDm3SWbV0,Nanyang Braised House @ 602B Sembawang,"602B Sembawang Rd, Singapore 758458",4.3,129,"[""establishment"", ""food"", ""point_of_interest"", ""restaurant""]",1.4411812,103.8247401,True
Sembawang,Admiralty,food,food dining hawker centres restaurants cafes,"food dining hawker centres restaurants cafes near Admiralty, Sembawang, Singapore",ChIJLyVUnQ8R2jERUApgCyTj3Pg,Senja Hawker Centre,"2 Senja Cl, Singapore 677632",4.1,1304,"[""establishment"", ""food"", ""point_of_interest"", ""restaurant""]",1.3870687,103.7607865,True
Sembawang,Admiralty,food,food dining hawker centres restaurants cafes,"food dining hawker centres restaurants cafes near Admiralty, Sembawang, Singapore",ChIJde_Sl0kS2jERbyHYOmhy2u0,Cheval Cafe Bar Bistro,"1 Equestrian Walk, Singapore Turf Club Riding Centre, Singapore 737863",4.3,846,"[""bar"", ""cafe"", ""establishment"", ""food"", ""point_of_interest"", ""restaurant""]",1.4281829,103.7674324,True
Sembawang,Admiralty,food,food dining hawker centres restaurants cafes,"food dining hawker centres restaurants cafes near Admiralty, Sembawang, Singapore",ChIJM3nIlt4T2jERgtbFZ-FeGdk,Parched by Parchmen (Woodlands),"Woodlands MRT Station (Thomson-East Coast Line, B1-18 Exit 7, Singapore 737736",4.5,142,"[""cafe"", ""establishment"", ""food"", ""point_of_interest""]",1.4344735,103.7880359,True
Sembawang,Admiralty,food,food dining hawker centres restaurants cafes,"food dining hawker centres restaurants cafes near Admiralty, Sembawang, Singapore",ChIJL720Ss8T2jERR06dZ7js_Q4,San Yi Xuan,"676 Woodlands Drive 71, Singapore 730670",2.7,24,"[""establishment"", ""food"", ""point_of_interest"", ""restaurant""]",1.4397745,103.8008056,True
Sembawang,Admiralty,food,food dining hawker centres restaurants cafes,"food dining hawker centres restaurants cafes near Admiralty, Sembawang, Singapore",ChIJpeGNLD4T2jERv5gXZcuGmyA,FoodXchange @ Admiralty,"8A Admiralty St, #01-38, Singapore 757437",4.0,143,"[""establishment"", ""point_of_interest""]",1.4629485,103.8142623,True
Sembawang,Admiralty,food,food dining hawker centres restaurants cafes,"food dining hawker centres restaurants cafes near Admiralty, Sembawang, Singapore",ChIJ6bLO-a8T2jERR1UyO8aD93k,Yassin Kampung @ Admiralty,"Kampung Admiralty, Block, 676 Woodlands Drive 71, #01-03, Singapore 730676",3.7,1288,"[""establishment"", ""food"", ""point_of_interest"", ""restaurant""]",1.4397131,103.8007348,True
Sembawang,Admiralty,food,food dining hawker centres restaurants cafes,"food dining hawker centres restaurants cafes near Admiralty, Sembawang, Singapore",ChIJDYBHP6wT2jERs-wydSak8MY,Woodlands Street 12 Hawker Centre,"2 Woodlands Street 12, Singapore 738620",4.0,147,"[""establishment"", ""food"", ""point_of_interest"", ""restaurant""]",1.4334815,103.7798733,True
Sembawang,Admiralty,food,food dining hawker centres restaurants cafes,"food dining hawker centres restaurants cafes near Admiralty, Sembawang, Singapore",ChIJvXpwCEkT2jERC75xam14_vs,Kampung Admiralty,"676 Woodlands Drive 71, Singapore 730676",4.3,902,"[""establishment"", ""point_of_interest"", ""shopping_mall""]",1.4398814,103.8007278,True
Sembawang,Admiralty,food,food dining hawker centres restaurants cafes,"food dining hawker centres restaurants cafes near Admiralty, Sembawang, Singapore",ChIJDV7CV_4T2jER_-hYLJoj33k,33 Sembawang Eating House,"33 Sembawang Rd, #01-04/07, Singapore 779084",4.1,255,"[""cafe"", ""establishment"", ""food"", ""point_of_interest"", ""store""]",1.4037889,103.8179051,True
Sembawang,Admiralty,food,food dining hawker centres restaurants cafes,"food dining hawker centres restaurants cafes near Admiralty, Sembawang, Singapore",ChIJm0HEkkwT2jERML-n6h6_zC4,China Street Admiralty 中國街,"678 Woodlands Ave 6, Singapore 730678",2.6,36,"[""establishment"", ""food"", ""point_of_interest"", ""restaurant""]",1.4406894,103.8011751,True
Sembawang,Admiralty,food,food dining hawker centres restaurants cafes,"food dining hawker centres restaurants cafes near Admiralty, Sembawang, Singapore",ChIJDVTpC_8S2jERSz_upFj7WYo,Rasa Istimewa Waterfront Restaurant,"6A Admiralty Rd W, Singapore 757445",4.2,2050,"[""establishment"", ""food"", ""point_of_interest"", ""restaurant""]",1.4539459,103.7776873,True
Sembawang,Admiralty,food,food dining hawker centres restaurants cafes,"food dining hawker centres restaurants cafes near Admiralty, Sembawang, Singapore",ChIJlasVwWMT2jER3xm0KeBW8vc,喜多福,"406A Sembawang Dr, Singapore 751406",3.6,239,"[""cafe"", ""establishment"", ""food"", ""point_of_interest"", ""store""]",1.4526094,103.8171997,True
Sembawang,Admiralty,food,food dining hawker centres restaurants cafes,"food dining hawker centres restaurants cafes near Admiralty, Sembawang, Singapore",ChIJRws40gwT2jERTt8G6PIDi9g,Fork & Spoon,"768 Woodlands Ave 6, #01-32 Woodlands Mart, Singapore 730768",4.0,1081,"[""establishment"", ""food"", ""point_of_interest""]",1.4451588,103.7983815,True
Sembawang,Admiralty,shopping,shopping groceries malls supermarkets markets,"shopping groceries malls supermarkets markets near Admiralty, Sembawang, Singapore",ChIJk32Wj2ET2jERlCt-VO4D4IY,Sembawang Mart,"511 Canberra Rd, Singapore 750511",3.9,815,"[""establishment"", ""point_of_interest"", ""shopping_mall""]",1.453728,103.8196335,True
Sembawang,Admiralty,shopping,shopping groceries malls supermarkets markets,"shopping groceries malls supermarkets markets near Admiralty, Sembawang, Singapore",ChIJ5-zrBoEU2jERhLnuZ0bgvUw,Sembawang Shopping Centre,"604 Sembawang Rd, Singapore 758459",4.0,5347,"[""establishment"", ""point_of_interest"", ""shopping_mall""]",1.441615,103.8246417,True
Sembawang,Admiralty,shopping,shopping groceries malls supermarkets markets,"shopping groceries malls supermarkets markets near Admiralty, Sembawang, Singapore",ChIJHYe2MX0T2jER6vve5JwvRvw,Sun Plaza,"30 Sembawang Dr, Singapore 757713",4.0,6097,"[""establishment"", ""point_of_interest"", ""shopping_mall""]",1.4481945,103.8196247,True
Sembawang,Admiralty,shopping,shopping groceries malls supermarkets markets,"shopping groceries malls supermarkets markets near Admiralty, Sembawang, Singapore",ChIJ__-vgnUT2jERY0EmNA49OD4,Admiralty Place,"678A Woodlands Ave 6, Singapore 731678",4.1,195,"[""establishment"", ""point_of_interest"", ""shopping_mall""]",1.4403089,103.8014413,True
Sembawang,Admiralty,shopping,shopping groceries malls supermarkets markets,"shopping groceries malls supermarkets markets near Admiralty, Sembawang, Singapore",ChIJRawU9pk92jERgaijG0WpCUI,Giant Hypermarket - Tampines,"21 Tampines North Dr 2, #03-01, Singapore 528765",4.3,7921,"[""establishment"", ""food"", ""grocery_or_supermarket"", ""point_of_interest"", ""store"", ""supermarket""]",1.3721555,103.9319823,True
Sembawang,Admiralty,shopping,shopping groceries malls supermarkets markets,"shopping groceries malls supermarkets markets near Admiralty, Sembawang, Singapore",ChIJjXeDH3oU2jERBV22OV1TW9A,Chong Pang City (Shopping Belt),"Block 126 Yishun Street 11, #01-427, Singapore 760126",4.4,2308,"[""establishment"", ""food"", ""point_of_interest"", ""restaurant"", ""shopping_mall""]",1.4305711,103.8272411,True
Sembawang,Admiralty,shopping,shopping groceries malls supermarkets markets,"shopping groceries malls supermarkets markets near Admiralty, Sembawang, Singapore",ChIJqXtKrnIT2jER7Gg-cMTC1PE,Woodlands Mart,"768 Woodlands Ave 6, Singapore 730768",4.1,2689,"[""establishment"", ""point_of_interest"", ""shopping_mall""]",1.4454883,103.79799,True
Sembawang,Admiralty,shopping,shopping groceries malls supermarkets markets,"shopping groceries malls supermarkets markets near Admiralty, Sembawang, Singapore",ChIJvXpwCEkT2jERC75xam14_vs,Kampung Admiralty,"676 Woodlands Drive 71, Singapore 730676",4.3,902,"[""establishment"", ""point_of_interest"", ""shopping_mall""]",1.4398814,103.8007278,True
Sembawang,Admiralty,shopping,shopping groceries malls supermarkets markets,"shopping groceries malls supermarkets markets near Admiralty, Sembawang, Singapore",ChIJq1ymIRMT2jERzTwMeVukiWA,Sheng Siong Supermarket,"200 Woodlands Industrial Pk E7, #01-30, Singapore 757177",4.4,2036,"[""establishment"", ""food"", ""grocery_or_supermarket"", ""point_of_interest"", ""store"", ""supermarket""]",1.4508933,103.7968967,True
Sembawang,Admiralty,shopping,shopping groceries malls supermarkets markets,"shopping groceries malls supermarkets markets near Admiralty, Sembawang, Singapore",ChIJ7egDUyI92jERegSiojEDekc,Eastpoint Mall,"3 Simei Street 6, Singapore 528833",4.1,7614,"[""establishment"", ""point_of_interest"", ""shopping_mall""]",1.3427145,103.9530415,True
Sembawang,Admiralty,shopping,shopping groceries malls supermarkets markets,"shopping groceries malls supermarkets markets near Admiralty, Sembawang, Singapore",ChIJcdUlky0a2jERHuQ4kJzl9vA,Dawson Place,"57 Dawson Rd, Singapore 142057",3.9,1428,"[""establishment"", ""point_of_interest"", ""shopping_mall""]",1.2926472,103.8107529,True
Sembawang,Admiralty,shopping,shopping groceries malls supermarkets markets,"shopping groceries malls supermarkets markets near Admiralty, Sembawang, Singapore",ChIJdxS7gPEa2jER1iMe8Ai90Ts,West Coast Plaza,"154 W Coast Rd, Singapore 127371",4.0,3729,"[""establishment"", ""point_of_interest"", ""shopping_mall""]",1.303702,103.7659312,True
Sembawang,Admiralty,shopping,shopping groceries malls supermarkets markets,"shopping groceries malls supermarkets markets near Admiralty, Sembawang, Singapore",ChIJeRqAraYX2jERQpyIAXSU1SU,NEX,"Serangoon Central, 23, Singapore 556083",4.3,22292,"[""establishment"", ""point_of_interest"", ""shopping_mall""]",1.3507155,103.8720247,True
Sembawang,Admiralty,shopping,shopping groceries malls supermarkets markets,"shopping groceries malls supermarkets markets near Admiralty, Sembawang, Singapore",ChIJ7cjSMX0T2jERRJiMb6Q0fvY,FairPrice Sun Plaza,"30 Sembawang Dr, #B1-01 / 02 Sun Plaza, Singapore 757713",4.1,1290,"[""establishment"", ""food"", ""grocery_or_supermarket"", ""point_of_interest"", ""store"", ""supermarket""]",1.4481787,103.8194632,True
Sembawang,Admiralty,shopping,shopping groceries malls supermarkets markets,"shopping groceries malls supermarkets markets near Admiralty, Sembawang, Singapore",ChIJ9RT-5DYV2jERKbQXNwU4m6A,Northpoint City,"930 Yishun Ave 2, Singapore 769098",4.3,16044,"[""establishment"", ""point_of_interest"", ""shopping_mall""]",1.4293478,103.8358671,True
Sembawang,Admiralty,shopping,shopping groceries malls supermarkets markets,"shopping groceries malls supermarkets markets near Admiralty, Sembawang, Singapore",ChIJg0iEvagT2jERLpza72gaJ08,Causeway Point,"1 Woodlands Sq, Singapore 738099",4.3,13829,"[""establishment"", ""point_of_interest"", ""shopping_mall""]",1.4360933,103.7859471,True
Sembawang,Admiralty,shopping,shopping groceries malls supermarkets markets,"shopping groceries malls supermarkets markets near Admiralty, Sembawang, Singapore",ChIJ91hVlEIa2jERm_cxYZ2WKow,The Star Vista,"1 Vista Exchange Grn, Singapore 138617",4.3,9041,"[""establishment"", ""point_of_interest"", ""shopping_mall""]",1.3068072,103.7883997,True
Sembawang,Admiralty,shopping,shopping groceries malls supermarkets markets,"shopping groceries malls supermarkets markets near Admiralty, Sembawang, Singapore",ChIJK52N1cUR2jERUTiO_ETnynU,One Holland Village,"7 Holland Vlg Wy, Singapore 275748",4.4,768,"[""establishment"", ""point_of_interest"", ""shopping_mall""]",1.311462,103.7937523,True
Sembawang,Admiralty,shopping,shopping groceries malls supermarkets markets,"shopping groceries malls supermarkets markets near Admiralty, Sembawang, Singapore",ChIJ9_7w3iQZ2jER7mtoL9cUKdU,FairPrice Xtra VivoCity,"1 HarbourFront Walk, #01-23 & #B2-23, 1 HarbourFront Walk, #B2-23 VivoCity, Singapore 098585",4.5,2150,"[""establishment"", ""food"", ""grocery_or_supermarket"", ""point_of_interest"", ""store"", ""supermarket""]",1.2642274,103.8229442,True
Sembawang,Admiralty,shopping,shopping groceries malls supermarkets markets,"shopping groceries malls supermarkets markets near Admiralty, Sembawang, Singapore",ChIJBdDSv2QT2jER-wexzmZHtHg,Giant Express,"468B Admiralty Dr, #01-29 Blue Riverview, Singapore 752468",3.8,226,"[""establishment"", ""food"", ""grocery_or_supermarket"", ""point_of_interest"", ""store"", ""supermarket""]",1.4499499,103.8142723,True
Sembawang,Admiralty,recreation,recreation sports gyms swimming community clubs,"recreation sports gyms swimming community clubs near Admiralty, Sembawang, Singapore",ChIJYe_UNiYV2jERlvWhqzwZneA,Bukit Canberra Sport Centre,"21 Canberra Link, Singapore 756973",4.4,75,"[""establishment"", ""point_of_interest""]",1.449033,103.8231799,True
Sembawang,Admiralty,recreation,recreation sports gyms swimming community clubs,"recreation sports gyms swimming community clubs near Admiralty, Sembawang, Singapore",ChIJFwBnxn0T2jERFDDiOhsMo_U,Canberra Community Club,"2 Sembawang Cres, #01-01, Singapore 757632",4.1,1059,"[""establishment"", ""point_of_interest""]",1.4449347,103.8197721,True
Sembawang,Admiralty,recreation,recreation sports gyms swimming community clubs,"recreation sports gyms swimming community clubs near Admiralty, Sembawang, Singapore",ChIJH8K10p8T2jERZ1EVYVpGL8c,Woodlands Galaxy Community Club,"31 Woodlands Ave 6, Singapore 738991",4.3,1009,"[""establishment"", ""point_of_interest""]",1.4390853,103.8026836,True
Sembawang,Admiralty,recreation,recreation sports gyms swimming community clubs,"recreation sports gyms swimming community clubs near Admiralty, Sembawang, Singapore",ChIJV5hnA6wT2jERqD4CwNu0SpM,Woodlands Sport Centre,"2 Woodlands Street 12, Singapore 738599",4.1,2050,"[""establishment"", ""gym"", ""health"", ""point_of_interest"", ""stadium""]",1.434104,103.779798,True
Sembawang,Admiralty,recreation,recreation sports gyms swimming community clubs,"recreation sports gyms swimming community clubs near Admiralty, Sembawang, Singapore",ChIJ07CwhJgV2jERPh1RvfSWQ9c,Bukit Canberra Swimming Complex,"21 Canberra Link, Singapore 756973",3.6,148,"[""establishment"", ""point_of_interest""]",1.4469472,103.8234656,True
Sembawang,Admiralty,recreation,recreation sports gyms swimming community clubs,"recreation sports gyms swimming community clubs near Admiralty, Sembawang, Singapore",ChIJ20yZ-zIV2jERs0E6KSZWLiI,Bukit Canberra Swimming Lessons by Singapore Swimming Academy,"21 Canberra Link, Singapore 756973",4.7,54,"[""establishment"", ""health"", ""point_of_interest"", ""school""]",1.4470444,103.8234166,True
Sembawang,Admiralty,recreation,recreation sports gyms swimming community clubs,"recreation sports gyms swimming community clubs near Admiralty, Sembawang, Singapore",ChIJHaFvfZgV2jER7Y7GcRY7kFk,Bukit Canberra ActiveSG Gym,"21 Canberra Link, Singapore 756973",3.8,200,"[""establishment"", ""gym"", ""health"", ""point_of_interest""]",1.4473162,103.8235641,True
Sembawang,Admiralty,recreation,recreation sports gyms swimming community clubs,"recreation sports gyms swimming community clubs near Admiralty, Sembawang, Singapore",ChIJVQ8bzSoa2jERbYemdYtj8kM,Delta Swimming Complex,"900 Tiong Bahru Rd, Singapore 158790",4.0,450,"[""establishment"", ""point_of_interest""]",1.2897143,103.8202466,True
Sembawang,Admiralty,recreation,recreation sports gyms swimming community clubs,"recreation sports gyms swimming community clubs near Admiralty, Sembawang, Singapore",ChIJs45bbr0R2jERwByR91EdWqw,Senja-Cashew Community Club,"101 Bukit Panjang Rd, Singapore 679910",4.3,1262,"[""establishment"", ""point_of_interest""]",1.381403,103.764651,True
Sembawang,Admiralty,recreation,recreation sports gyms swimming community clubs,"recreation sports gyms swimming community clubs near Admiralty, Sembawang, Singapore",ChIJ7ZgOOiAV2jERCFeUkkIYSag,Sembawang Recreation Centre,"301 Canberra Rd, Singapore 759774",4.5,89,"[""establishment"", ""point_of_interest""]",1.4585179,103.821852,True
Sembawang,Admiralty,recreation,recreation sports gyms swimming community clubs,"recreation sports gyms swimming community clubs near Admiralty, Sembawang, Singapore",ChIJkeX4YFsa2jERDRq9DzW0FHI,ACJC Sports Complex,"25 Dover Cl E, Singapore 139745",4.1,51,"[""establishment"", ""point_of_interest""]",1.301924,103.7863617,True
Sembawang,Admiralty,recreation,recreation sports gyms swimming community clubs,"recreation sports gyms swimming community clubs near Admiralty, Sembawang, Singapore",ChIJ0S3wSmoa2jER2aq7I8gFiy0,Buona Vista Community Club,"36 Holland Dr, Singapore 270036",4.2,1126,"[""establishment"", ""point_of_interest""]",1.3094603,103.7926982,True
Sembawang,Admiralty,recreation,recreation sports gyms swimming community clubs,"recreation sports gyms swimming community clubs near Admiralty, Sembawang, Singapore",ChIJByE8bGAV2jEReIAf4jZEwD0,Bukit Canberra Sport Hall,"21 Canberra Link, Singapore 756973",4.2,188,"[""establishment"", ""point_of_interest""]",1.4488728,103.8239457,True
Sembawang,Admiralty,recreation,recreation sports gyms swimming community clubs,"recreation sports gyms swimming community clubs near Admiralty, Sembawang, Singapore",ChIJq6qquv8S2jERFxNiPdcRSiY,Marsiling Community Club,"100 Admiralty Rd, Singapore 739980",4.1,595,"[""establishment"", ""point_of_interest""]",1.4408695,103.7737248,True
Sembawang,Admiralty,recreation,recreation sports gyms swimming community clubs,"recreation sports gyms swimming community clubs near Admiralty, Sembawang, Singapore",ChIJOZIFa34Z2jERL9_IhYLjUH4,Henderson Community Club,"500 Bukit Merah Vw, Singapore 159682",4.1,352,"[""establishment"", ""point_of_interest""]",1.2858271,103.823121,True
Sembawang,Admiralty,recreation,recreation sports gyms swimming community clubs,"recreation sports gyms swimming community clubs near Admiralty, Sembawang, Singapore",ChIJi3j7l5sU2jEROGUByFjhrSM,Sembawang Community Club,"117B Canberra Cres, #01-370, Singapore 752117",4.1,449,"[""establishment"", ""point_of_interest""]",1.4514788,103.828856,True
Sembawang,Admiralty,recreation,recreation sports gyms swimming community clubs,"recreation sports gyms swimming community clubs near Admiralty, Sembawang, Singapore",ChIJ2cCNCFga2jER5JmIg6WzSNk,University Sports Centre,"2 Sports Dr., Singapore 117288",4.5,114,"[""establishment"", ""gym"", ""health"", ""point_of_interest""]",1.2997617,103.7754896,True
Sembawang,Admiralty,recreation,recreation sports gyms swimming community clubs,"recreation sports gyms swimming community clubs near Admiralty, Sembawang, Singapore",ChIJ44exaL0b2jERbSxwV6gNBdw,Telok Blangah Community Club,"450 Telok Blangah Street 31, Singapore 108943",4.3,218,"[""establishment"", ""point_of_interest""]",1.274783,103.8078165,True
Sembawang,Admiralty,recreation,recreation sports gyms swimming community clubs,"recreation sports gyms swimming community clubs near Admiralty, Sembawang, Singapore",ChIJxYtuyK4T2jERUES3ObueCCk,Swimwerks Asia Pte Ltd,"3 Gambas Cres, #07-11 Nordcom 1, Singapore 757088",4.7,209,"[""establishment"", ""health"", ""point_of_interest"", ""school""]",1.4441588,103.8141318,True
Sembawang,Admiralty,recreation,recreation sports gyms swimming community clubs,"recreation sports gyms swimming community clubs near Admiralty, Sembawang, Singapore",ChIJNxUbXa8T2jERhN40iZySOUk,Tao Li Swimming Club (Sembawang),"249 Sembawang Rd, Singapore 758352",4.0,4,"[""establishment"", ""point_of_interest""]",1.416388,103.8165544,True
Sembawang,Admiralty,nature,parks gardens nature waterfront park connectors,"parks gardens nature waterfront park connectors near Admiralty, Sembawang, Singapore",ChIJi090zPwS2jERiJCqFWoP8Z4,Woodlands Waterfront Park,"Admiralty Rd W, Singapore 759956",4.5,3993,"[""establishment"", ""park"", ""point_of_interest"", ""tourist_attraction""]",1.4530529,103.7804801,True
Sembawang,Admiralty,nature,parks gardens nature waterfront park connectors,"parks gardens nature waterfront park connectors near Admiralty, Sembawang, Singapore",ChIJ4QhPDSMT2jER-K6cnYYSNZw,Ulu Sembawang Park Connector,"403R Jln Ulu Sembawang, Singapore 779563",4.4,108,"[""establishment"", ""park"", ""point_of_interest""]",1.422046,103.7928186,True
Sembawang,Admiralty,nature,parks gardens nature waterfront park connectors,"parks gardens nature waterfront park connectors near Admiralty, Sembawang, Singapore",ChIJW08LC5oU2jER6b7cHRVBP6Q,Simpang Kiri Park Connector,"Sembawang Rd, Singapore 758495",4.4,153,"[""establishment"", ""park"", ""point_of_interest"", ""tourist_attraction""]",1.4529108,103.8324722,True
Sembawang,Admiralty,nature,parks gardens nature waterfront park connectors,"parks gardens nature waterfront park connectors near Admiralty, Sembawang, Singapore",ChIJEx8IrV8T2jERo0MtLUXpAQE,Sembawang Park Connector,Singapore,4.6,7,"[""establishment"", ""point_of_interest""]",1.4451081,103.8119827,True
Sembawang,Admiralty,nature,parks gardens nature waterfront park connectors,"parks gardens nature waterfront park connectors near Admiralty, Sembawang, Singapore",ChIJMxZeJ5sT2jERG3KCuLiIsjw,Woodlands Park Connector (SLE),Singapore,4.7,9,"[""establishment"", ""park"", ""point_of_interest""]",1.4254469,103.7905053,True
Sembawang,Admiralty,nature,parks gardens nature waterfront park connectors,"parks gardens nature waterfront park connectors near Admiralty, Sembawang, Singapore",ChIJNRelbgMT2jERD6Ak-zoK23U,Admiralty Park,"31 Riverside Rd, Singapore 730000",4.5,4075,"[""establishment"", ""park"", ""point_of_interest"", ""tourist_attraction""]",1.4465535,103.7806565,True
Sembawang,Admiralty,nature,parks gardens nature waterfront park connectors,"parks gardens nature waterfront park connectors near Admiralty, Sembawang, Singapore",ChIJeVFZLHYT2jERzcUhTfnaBoU,Greenwood Sanctuary @ Admiralty,"685 Woodlands Drive 73, Singapore 730685",4.3,225,"[""establishment"", ""park"", ""point_of_interest"", ""tourist_attraction""]",1.4395812,103.8069317,True
Sembawang,Admiralty,nature,parks gardens nature waterfront park connectors,"parks gardens nature waterfront park connectors near Admiralty, Sembawang, Singapore",ChIJDXSq2WAT2jERo3eAWsc06vA,Jelutung Harbour Park,"Admiralty Link, Singapore",4.4,257,"[""establishment"", ""park"", ""point_of_interest""]",1.455741,103.8170574,True
Sembawang,Admiralty,nature,parks gardens nature waterfront park connectors,"parks gardens nature waterfront park connectors near Admiralty, Sembawang, Singapore",ChIJJ9TgVLwU2jERIYaBgBL-vn0,Sembawang Park,"Sembawang Rd, Singapore",4.4,5952,"[""establishment"", ""park"", ""point_of_interest"", ""tourist_attraction""]",1.4616659,103.8368876,True
Sembawang,Admiralty,nature,parks gardens nature waterfront park connectors,"parks gardens nature waterfront park connectors near Admiralty, Sembawang, Singapore",ChIJ5-TwAwAT2jERYr0Hko5aNNo,Admiralty West Park Connector,"Admiralty Rd W, Singapore",,0,"[""establishment"", ""point_of_interest""]",1.4560244,103.7986363,True
Sembawang,Admiralty,nature,parks gardens nature waterfront park connectors,"parks gardens nature waterfront park connectors near Admiralty, Sembawang, Singapore",ChIJied_ZdIT2jERfFB2io7NbV0,Central Catchment Park Connector,"Mandai Rd, Singapore",4.5,547,"[""establishment"", ""point_of_interest""]",1.4105867,103.7783568,True
Sembawang,Admiralty,nature,parks gardens nature waterfront park connectors,"parks gardens nature waterfront park connectors near Admiralty, Sembawang, Singapore",ChIJG3sM6aoV2jER4nop3XpNYF0,Canberra Park Connector,"119-120 Canberra Cres, Singapore 753120",4.0,5,"[""establishment"", ""point_of_interest""]",1.4461619,103.8303655,True
Sembawang,Admiralty,nature,parks gardens nature waterfront park connectors,"parks gardens nature waterfront park connectors near Admiralty, Sembawang, Singapore",ChIJ0ZnzsXUW2jER9IrUeleR7To,Sengkang Riverside Park,"Anchorvale Street, Singapore 544834",4.4,2243,"[""establishment"", ""park"", ""point_of_interest"", ""tourist_attraction""]",1.3993143,103.8848743,True
Sembawang,Admiralty,nature,parks gardens nature waterfront park connectors,"parks gardens nature waterfront park connectors near Admiralty, Sembawang, Singapore",ChIJywjk7i8V2jERP6UhBhji4eU,Khatib Bongsu Park Connector,"346 Yishun Ave 11, Singapore 760346",4.6,12,"[""establishment"", ""park"", ""point_of_interest""]",1.429097,103.8431386,True
Sembawang,Admiralty,nature,parks gardens nature waterfront park connectors,"parks gardens nature waterfront park connectors near Admiralty, Sembawang, Singapore",ChIJ29ynd_QT2jERXRJNmoqh1Q4,Woodlands Waterfront Dog Run,"Woodlands Waterfront Park, Singapore",4.2,20,"[""establishment"", ""park"", ""point_of_interest""]",1.4522047,103.7796906,True
Sembawang,Admiralty,nature,parks gardens nature waterfront park connectors,"parks gardens nature waterfront park connectors near Admiralty, Sembawang, Singapore",ChIJnf4kI_oV2jERjBhVJDjC-wE,Simpang Kiri PCN,"38A Jln Selimang, Singapore 758999",4.5,18,"[""establishment"", ""point_of_interest""]",1.456077,103.840478,True
Sembawang,Admiralty,nature,parks gardens nature waterfront park connectors,"parks gardens nature waterfront park connectors near Admiralty, Sembawang, Singapore",ChIJ9_q8-xwV2jER_EKQTIcVe1s,Canberra PCN,Singapore 752106,5.0,3,"[""establishment"", ""park"", ""point_of_interest""]",1.4461703,103.8304004,True
Sembawang,Admiralty,nature,parks gardens nature waterfront park connectors,"parks gardens nature waterfront park connectors near Admiralty, Sembawang, Singapore",ChIJ-ekfxYQV2jER-RqV7eG8w4w,Jalan Sendudok Park,"Jln Sendudok, Singapore 752106",4.3,40,"[""establishment"", ""park"", ""point_of_interest""]",1.4438091,103.8272669,True
Sembawang,Admiralty,nature,parks gardens nature waterfront park connectors,"parks gardens nature waterfront park connectors near Admiralty, Sembawang, Singapore",ChIJybLQqoAU2jERLZ4G1LR2qPE,Jalan Kemuning Park,"26 Jln Kemuning, Singapore 769748",4.1,43,"[""establishment"", ""park"", ""point_of_interest"", ""tourist_attraction""]",1.4393425,103.8269594,True
Sembawang,Admiralty,nature,parks gardens nature waterfront park connectors,"parks gardens nature waterfront park connectors near Admiralty, Sembawang, Singapore",ChIJbYUUl6MV2jERWVjlEhSn1Oc,Butterfly Garden,"21 Canberra Link, Singapore 752350",4.4,8,"[""establishment"", ""point_of_interest""]",1.4485031,103.8236094,True
Sembawang,Sembawang Central,education,education facilities schools childcare libraries,"education facilities schools childcare libraries near Sembawang Central, Sembawang, Singapore",ChIJNX1sv2YT2jERoF5IpESJXlw,My Little Campus - MLC (Sembawang),"406 Sembawang Dr, #01-828, Singapore 750406",5.0,13,"[""establishment"", ""point_of_interest"", ""school""]",1.4530174,103.8170112,True
Sembawang,Sembawang Central,education,education facilities schools childcare libraries,"education facilities schools childcare libraries near Sembawang Central, Sembawang, Singapore",ChIJnVjyIGMT2jER1AP2Rg9FFT4,Star Learners @ Sembawang Way | Preschool & Childcare,"355 Sembawang Wy, #02-02, Singapore 750355",5.0,116,"[""establishment"", ""point_of_interest"", ""school""]",1.4500614,103.8184399,True
Sembawang,Sembawang Central,education,education facilities schools childcare libraries,"education facilities schools childcare libraries near Sembawang Central, Sembawang, Singapore",ChIJO5JBPuUT2jERGtV9cpphGt8,EduFirst Learning Centre (Sembawang) - English Math Chinese Science Tuition Centre Student Care Singapore,"2 Sembawang Cres, #02 05 06 Canberra Community Club, Singapore 757632",4.8,96,"[""establishment"", ""point_of_interest""]",1.4448348,103.8196639,True
Sembawang,Sembawang Central,education,education facilities schools childcare libraries,"education facilities schools childcare libraries near Sembawang Central, Sembawang, Singapore",ChIJHyby1H8U2jERcLpQogdt3pc,Star Learners @ Sembawang Place | Preschool & Childcare,"587 Sembawang Pl, Singapore 758440",4.8,51,"[""establishment"", ""point_of_interest"", ""school""]",1.43938,103.824555,True
Sembawang,Sembawang Central,education,education facilities schools childcare libraries,"education facilities schools childcare libraries near Sembawang Central, Sembawang, Singapore",ChIJR_6ffJ0U2jERSG0JOI8z4Hg,Evangel Student Care Centre,"503B Canberra Link, Singapore 752503",3.3,9,"[""establishment"", ""point_of_interest""]",1.4504404,103.8219638,True
Sembawang,Sembawang Central,education,education facilities schools childcare libraries,"education facilities schools childcare libraries near Sembawang Central, Sembawang, Singapore",ChIJS2ZmifMT2jERJLNa2c6hKYY,The Schoolhouse Sembawang (Sembawang Country Club),"249 Sembawang Rd, Sembawang Country Club, Singapore 758352",5.0,34,"[""establishment"", ""point_of_interest"", ""school""]",1.4173031,103.8155762,True
Sembawang,Sembawang Central,education,education facilities schools childcare libraries,"education facilities schools childcare libraries near Sembawang Central, Sembawang, Singapore",ChIJ_5R36voV2jERNLwksv34gLs,MindChamps MindSpace @ Sembawang Shopping Centre (Canberra) | After School Student Care | MindChamps Enrichment for P1-P5,"604 Sembawang Rd, #03-14 Sembawang Shopping Centre, Singapore 758459",5.0,42,"[""establishment"", ""point_of_interest""]",1.4420175,103.8250677,True
Sembawang,Sembawang Central,education,education facilities schools childcare libraries,"education facilities schools childcare libraries near Sembawang Central, Sembawang, Singapore",ChIJNTlHDncU2jERMf2p39hUWew,Maplebear Sembawang,"29 Jln Lengkok Sembawang, Singapore 759218",5.0,26,"[""establishment"", ""point_of_interest"", ""school""]",1.4282383,103.8249065,True
Sembawang,Sembawang Central,education,education facilities schools childcare libraries,"education facilities schools childcare libraries near Sembawang Central, Sembawang, Singapore",ChIJQa1BbpsU2jERS4Jm93Wg1pg,Spring Buds Learning Campus,"878A Sembawang Rd, Singapore 758467",5.0,13,"[""establishment"", ""point_of_interest"", ""school""]",1.450282,103.82841,True
Sembawang,Sembawang Central,education,education facilities schools childcare libraries,"education facilities schools childcare libraries near Sembawang Central, Sembawang, Singapore",ChIJpSXNEDsT2jERgDKKY-Q1taY,Rainbow Cove @ Sembawang,"50 Gambas Crescent, Proxima@Gambas, #01-25, Singapore 757022",5.0,20,"[""establishment"", ""point_of_interest"", ""school""]",1.4423232,103.8182047,True
Sembawang,Sembawang Central,education,education facilities schools childcare libraries,"education facilities schools childcare libraries near Sembawang Central, Sembawang, Singapore",ChIJB2TKBoEU2jERCJ3KTuFewEY,My First Skool at Sembawang Shopping Centre,"604 Sembawang Rd, #02-31, Singapore 758459",4.2,5,"[""establishment"", ""point_of_interest"", ""school""]",1.4420175,103.8250677,True
Sembawang,Sembawang Central,education,education facilities schools childcare libraries,"education facilities schools childcare libraries near Sembawang Central, Sembawang, Singapore",ChIJW6IeMH0T2jERiY_tOOMSWeI,Sembawang Library,"30 Sembawang Dr, #05 - 01 Sun Plaza, Singapore 757713",3.9,193,"[""establishment"", ""library"", ""point_of_interest""]",1.4482825,103.8195571,True
Sembawang,Sembawang Central,education,education facilities schools childcare libraries,"education facilities schools childcare libraries near Sembawang Central, Sembawang, Singapore",ChIJU3LhjmET2jER_ebn9Gr60JY,Little green house - Sembawang,"Block 511 Canberra Rd, #03-02 Sembawang Mart, Singapore 750511",4.7,14,"[""establishment"", ""point_of_interest"", ""school""]",1.4538337,103.8195883,True
Sembawang,Sembawang Central,education,education facilities schools childcare libraries,"education facilities schools childcare libraries near Sembawang Central, Sembawang, Singapore",ChIJm3Mfpf0T2jER_xZHp65wiaI,PlayFACTO School @ Sembawang,"Block 463B Sembawang Dr, #01-385, Singapore 752463",5.0,54,"[""establishment"", ""point_of_interest"", ""school""]",1.4560176,103.8137696,True
Sembawang,Sembawang Central,education,education facilities schools childcare libraries,"education facilities schools childcare libraries near Sembawang Central, Sembawang, Singapore",ChIJ37jPtXsT2jER6-IkTUpKHRE,Star Learners @ Gambas | Preschool & Childcare,"7 Gambas Cres, #01-18/19/20, Singapore 757087",5.0,42,"[""establishment"", ""point_of_interest"", ""school""]",1.445007,103.8121599,True
Sembawang,Sembawang Central,education,education facilities schools childcare libraries,"education facilities schools childcare libraries near Sembawang Central, Sembawang, Singapore",ChIJY3tQdjQT2jERxXZJAWvMV7Y,SAIL Playhouse Pte Ltd,"6 Gambas Cres, Singapore 757046",5.0,23,"[""establishment"", ""point_of_interest"", ""school""]",1.4427271,103.8172381,True
Sembawang,Sembawang Central,education,education facilities schools childcare libraries,"education facilities schools childcare libraries near Sembawang Central, Sembawang, Singapore",ChIJFwBnxn0T2jERFDDiOhsMo_U,Canberra Community Club,"2 Sembawang Cres, #01-01, Singapore 757632",4.1,1059,"[""establishment"", ""point_of_interest""]",1.4449347,103.8197721,True
Sembawang,Sembawang Central,education,education facilities schools childcare libraries,"education facilities schools childcare libraries near Sembawang Central, Sembawang, Singapore",ChIJjxeoub4T2jEROJtpVYn5dcs,Agape Little Uni Gambas (Nordcom II),"2 Gambas Cres, #01-15 Nordcom II, Singapore 757044",4.7,40,"[""establishment"", ""point_of_interest"", ""school""]",1.4434524,103.8155447,True
Sembawang,Sembawang Central,education,education facilities schools childcare libraries,"education facilities schools childcare libraries near Sembawang Central, Sembawang, Singapore",ChIJjc4Gd2IT2jERErJlDYsVmmM,Glory Joy Child Development Centre,"501B Wellington Cir, #01-06, Singapore 752501",4.8,27,"[""establishment"", ""point_of_interest"", ""school""]",1.4521332,103.8214902,True
Sembawang,Sembawang Central,education,education facilities schools childcare libraries,"education facilities schools childcare libraries near Sembawang Central, Sembawang, Singapore",ChIJFwBnxn0T2jEREmxVhIycr_4,Jac's Learning Centre,"2 Sembawang Cres, #02-04, Singapore 757632",5.0,1,"[""establishment"", ""point_of_interest""]",1.4448218,103.8196335,True
Sembawang,Sembawang Central,transport,public transport MRT LRT bus stops,"public transport MRT LRT bus stops near Sembawang Central, Sembawang, Singapore",ChIJWUPdyWIT2jERxPOWpY4QJ5A,Sembawang,Singapore,4.3,1509,"[""establishment"", ""point_of_interest"", ""subway_station"", ""transit_station""]",1.44909,103.820049,True
Sembawang,Sembawang Central,transport,public transport MRT LRT bus stops,"public transport MRT LRT bus stops near Sembawang Central, Sembawang, Singapore",ChIJhYoZF30T2jERKXxkIsA9i-U,Sembawang Interchange,"11A Sembawang Vis, Singapore 757527",3.1,11,"[""bus_station"", ""establishment"", ""point_of_interest"", ""transit_station""]",1.4472813,103.8195946,True
Sembawang,Sembawang Central,transport,public transport MRT LRT bus stops,"public transport MRT LRT bus stops near Sembawang Central, Sembawang, Singapore",ChIJQZIHGH0T2jEREkExkuNf8v0,Sembawang Interchange,Singapore,3.9,24,"[""bus_station"", ""establishment"", ""point_of_interest"", ""transit_station""]",1.447482,103.819412,True
Sembawang,Sembawang Central,transport,public transport MRT LRT bus stops,"public transport MRT LRT bus stops near Sembawang Central, Sembawang, Singapore",ChIJKfHphWET2jERpSO7IMj-LzQ,Sembawang Bus Interchange,"11A Sembawang Vis, Singapore 757527",3.6,18,"[""establishment"", ""point_of_interest""]",1.4477914,103.8196332,True
Sembawang,Sembawang Central,transport,public transport MRT LRT bus stops,"public transport MRT LRT bus stops near Sembawang Central, Sembawang, Singapore",ChIJFRGNxWIT2jERHr5yWEgmc-I,Sembawang Stn,Singapore,4.2,13,"[""establishment"", ""point_of_interest"", ""transit_station""]",1.449262,103.819794,True
Sembawang,Sembawang Central,transport,public transport MRT LRT bus stops,"public transport MRT LRT bus stops near Sembawang Central, Sembawang, Singapore",ChIJFwAAJH0T2jERZszqZqhHLU8,Sun Plaza/ Sembawang Stn,Singapore,4.1,12,"[""establishment"", ""point_of_interest"", ""transit_station""]",1.448032,103.818954,True
Sembawang,Sembawang Central,transport,public transport MRT LRT bus stops,"public transport MRT LRT bus stops near Sembawang Central, Sembawang, Singapore",ChIJe9StPwAT2jERYKkQKQ7XxRI,Sembawang MRT Station Exit D pick-up point,"3 Canberra Rd, Singapore 759763",4.2,16,"[""establishment"", ""point_of_interest""]",1.4490683,103.8214676,True
Sembawang,Sembawang Central,transport,public transport MRT LRT bus stops,"public transport MRT LRT bus stops near Sembawang Central, Sembawang, Singapore",ChIJQa_MxmIT2jERxtFfsKMOCW0,Opp Sembawang Stn,Singapore,2.5,4,"[""establishment"", ""point_of_interest"", ""transit_station""]",1.449535,103.819931,True
Sembawang,Sembawang Central,transport,public transport MRT LRT bus stops,"public transport MRT LRT bus stops near Sembawang Central, Sembawang, Singapore",ChIJn1X-9oAU2jER5Ck93fMW5f0,Aft Sembawang Shop Ctr,Singapore,4.0,6,"[""establishment"", ""point_of_interest"", ""transit_station""]",1.440851,103.82473,True
Sembawang,Sembawang Central,transport,public transport MRT LRT bus stops,"public transport MRT LRT bus stops near Sembawang Central, Sembawang, Singapore",ChIJz-AErIIU2jERp1S-ZC-kFO4,Bef Sembawang Stn,Singapore,3.6,5,"[""establishment"", ""point_of_interest"", ""transit_station""]",1.4483416,103.8219993,True
Sembawang,Sembawang Central,transport,public transport MRT LRT bus stops,"public transport MRT LRT bus stops near Sembawang Central, Sembawang, Singapore",ChIJpVpZpH0T2jERJ34jp7Mdpmg,Blk 328,Singapore,4.0,3,"[""establishment"", ""point_of_interest"", ""transit_station""]",1.445829,103.819687,True
Sembawang,Sembawang Central,transport,public transport MRT LRT bus stops,"public transport MRT LRT bus stops near Sembawang Central, Sembawang, Singapore",ChIJ74T2JmcT2jERUmMuHJxp0Nc,Blk 483,Singapore,5.0,5,"[""establishment"", ""point_of_interest"", ""transit_station""]",1.455935,103.814911,True
Sembawang,Sembawang Central,transport,public transport MRT LRT bus stops,"public transport MRT LRT bus stops near Sembawang Central, Sembawang, Singapore",ChIJrxoGDrwU2jERHffKeoRNv84,Sembawang Pk,Singapore,4.6,7,"[""establishment"", ""point_of_interest"", ""transit_station""]",1.462115,103.837921,True
Sembawang,Sembawang Central,transport,public transport MRT LRT bus stops,"public transport MRT LRT bus stops near Sembawang Central, Sembawang, Singapore",ChIJ6X5na30T2jERf4kI-uNQXFk,Sembawang Interchange/Opp Blk 315,Singapore,5.0,1,"[""establishment"", ""point_of_interest"", ""transit_station""]",1.447221,103.820183,True
Sembawang,Sembawang Central,transport,public transport MRT LRT bus stops,"public transport MRT LRT bus stops near Sembawang Central, Sembawang, Singapore",ChIJM97_9IYU2jERFVaWfl5Bm1o,Canberra Stn,"Canberra Link, Singapore 752106",3.7,3,"[""bus_station"", ""establishment"", ""point_of_interest"", ""transit_station""]",1.442578,103.830139,True
Sembawang,Sembawang Central,food,food dining hawker centres restaurants cafes,"food dining hawker centres restaurants cafes near Sembawang Central, Sembawang, Singapore",ChIJf-MrLT8V2jERx_aVOpIuLng,Bukit Canberra Hawker Centre,"21 Canberra Link, Singapore 756973",4.2,1945,"[""establishment"", ""food"", ""point_of_interest"", ""restaurant""]",1.4489743,103.8228369,True
Sembawang,Sembawang Central,food,food dining hawker centres restaurants cafes,"food dining hawker centres restaurants cafes near Sembawang Central, Sembawang, Singapore",ChIJH1HG6tEW2jERGsch7FbDL5g,Sembawang Hills Food Centre,"590 Upper Thomson Rd, Singapore 574419",3.9,2392,"[""establishment"", ""food"", ""point_of_interest"", ""restaurant""]",1.3722883,103.8290075,True
Sembawang,Sembawang Central,food,food dining hawker centres restaurants cafes,"food dining hawker centres restaurants cafes near Sembawang Central, Sembawang, Singapore",ChIJEcljAGoU2jERqtf7wNTnNlg,Yishun Park Hawker Centre,"51 Yishun Ave 11, Singapore 768867",4.1,7320,"[""establishment"", ""food"", ""point_of_interest"", ""restaurant"", ""tourist_attraction""]",1.4250185,103.8447207,True
Sembawang,Sembawang Central,food,food dining hawker centres restaurants cafes,"food dining hawker centres restaurants cafes near Sembawang Central, Sembawang, Singapore",ChIJk_idN3oU2jEReqhHxnv3lgI,Chong Pang Food Centre,"Block 105 Yishun Ring Rd, Singapore 760105",4.1,8604,"[""establishment"", ""food"", ""point_of_interest"", ""restaurant""]",1.4318039,103.8281477,True
Sembawang,Sembawang Central,food,food dining hawker centres restaurants cafes,"food dining hawker centres restaurants cafes near Sembawang Central, Sembawang, Singapore",ChIJlU1sIyYV2jERZ_plMDpdCcU,Charcoal Mookata 1018 Sembawang - The Addiction Bistro,"1018 Sembawang Rd, Singapore 758495",4.8,1889,"[""establishment"", ""food"", ""point_of_interest"", ""restaurant""]",1.4533182,103.8323377,True
Sembawang,Sembawang Central,food,food dining hawker centres restaurants cafes,"food dining hawker centres restaurants cafes near Sembawang Central, Sembawang, Singapore",ChIJC9Hm5-EV2jERDZzDm3SWbV0,Nanyang Braised House @ 602B Sembawang,"602B Sembawang Rd, Singapore 758458",4.3,129,"[""establishment"", ""food"", ""point_of_interest"", ""restaurant""]",1.4411812,103.8247401,True
Sembawang,Sembawang Central,food,food dining hawker centres restaurants cafes,"food dining hawker centres restaurants cafes near Sembawang Central, Sembawang, Singapore",ChIJpdCbpXwT2jERo9jX2FUvxpI,Broadway Food Centre @ 334A Sembawang Close,"334 Sembawang Cl, Block 334, Singapore 750334",3.7,684,"[""establishment"", ""food"", ""point_of_interest"", ""restaurant"", ""store""]",1.4481094,103.8164216,True
Sembawang,Sembawang Central,food,food dining hawker centres restaurants cafes,"food dining hawker centres restaurants cafes near Sembawang Central, Sembawang, Singapore",ChIJSYCHb3UT2jERZBT2RKbXINU,Kampung Admiralty Hawker Centre,"676 Woodlands Drive 71, Singapore 730676",4.1,4925,"[""establishment"", ""food"", ""point_of_interest"", ""restaurant""]",1.4398741,103.8006515,True
Sembawang,Sembawang Central,food,food dining hawker centres restaurants cafes,"food dining hawker centres restaurants cafes near Sembawang Central, Sembawang, Singapore",ChIJVUlNTwAV2jERBMGa8ej29i4,The Cheeky Chick,"21 Canberra Link, Singapore 756973",5.0,2,"[""establishment"", ""food"", ""point_of_interest"", ""restaurant""]",1.4489242,103.8233731,True
Sembawang,Sembawang Central,food,food dining hawker centres restaurants cafes,"food dining hawker centres restaurants cafes near Sembawang Central, Sembawang, Singapore",ChIJeSCldOcV2jERB-b3ekPlE4E,A Hot Hideout @ Sembawang (SSC),"604 Sembawang Rd, #02-24 Sembawang Shopping Centre, Singapore 758459",4.9,1950,"[""establishment"", ""food"", ""point_of_interest"", ""restaurant""]",1.4418852,103.8244734,True
Sembawang,Sembawang Central,food,food dining hawker centres restaurants cafes,"food dining hawker centres restaurants cafes near Sembawang Central, Sembawang, Singapore",ChIJZ3DSTIAU2jERJ4a-7q8eHCI,You Huak Restaurant,"22 Jln Tampang, Opp Sembawang Shopping Centre, Singapore 758966",3.8,26,"[""establishment"", ""food"", ""point_of_interest"", ""restaurant""]",1.4415831,103.8234984,True
Sembawang,Sembawang Central,food,food dining hawker centres restaurants cafes,"food dining hawker centres restaurants cafes near Sembawang Central, Sembawang, Singapore",ChIJDV7CV_4T2jER_-hYLJoj33k,33 Sembawang Eating House,"33 Sembawang Rd, #01-04/07, Singapore 779084",4.1,255,"[""cafe"", ""establishment"", ""food"", ""point_of_interest"", ""store""]",1.4037889,103.8179051,True
Sembawang,Sembawang Central,food,food dining hawker centres restaurants cafes,"food dining hawker centres restaurants cafes near Sembawang Central, Sembawang, Singapore",ChIJlVPRYegV2jERH6ZuPKWfFqc,HaHa Family,"21 Canberra Link, #01-12, Singapore 752350",4.7,38,"[""establishment"", ""food"", ""point_of_interest"", ""restaurant""]",1.4490444,103.8230595,True
Sembawang,Sembawang Central,food,food dining hawker centres restaurants cafes,"food dining hawker centres restaurants cafes near Sembawang Central, Sembawang, Singapore",ChIJlasVwWMT2jER3xm0KeBW8vc,喜多福,"406A Sembawang Dr, Singapore 751406",3.6,239,"[""cafe"", ""establishment"", ""food"", ""point_of_interest"", ""store""]",1.4526094,103.8171997,True
Sembawang,Sembawang Central,food,food dining hawker centres restaurants cafes,"food dining hawker centres restaurants cafes near Sembawang Central, Sembawang, Singapore",ChIJsXARLD4T2jERoYXuAon8mHQ,Kopitiam @ Sembawang MRT Station,"11 Canberra Road, #01-05, Sembawang MRT, Station, Singapore 759775",3.5,689,"[""establishment"", ""food"", ""point_of_interest""]",1.4490028,103.8195388,True
Sembawang,Sembawang Central,food,food dining hawker centres restaurants cafes,"food dining hawker centres restaurants cafes near Sembawang Central, Sembawang, Singapore",ChIJ799KvIAU2jERyriGPUJyu48,Flamingg Mangos,"50 Jln Malu-malu, Sembawang Springs Estate, Singapore 769665",4.0,446,"[""establishment"", ""food"", ""point_of_interest"", ""restaurant""]",1.4434154,103.8261095,True
Sembawang,Sembawang Central,food,food dining hawker centres restaurants cafes,"food dining hawker centres restaurants cafes near Sembawang Central, Sembawang, Singapore",ChIJseQsTQ0Z2jERqpBTWF0Zf84,Maxwell Food Centre,"1 Kadayanallur St, Singapore 069184",4.4,23480,"[""establishment"", ""food"", ""point_of_interest"", ""restaurant"", ""tourist_attraction""]",1.2803361,103.844767,True
Sembawang,Sembawang Central,food,food dining hawker centres restaurants cafes,"food dining hawker centres restaurants cafes near Sembawang Central, Sembawang, Singapore",ChIJdZupgcsb2jERP1Byeb2I-24,Alexandra Village Food Centre,"120 Bukit Merah Lane 1, Singapore 150120",4.2,6383,"[""establishment"", ""food"", ""point_of_interest"", ""restaurant""]",1.2863397,103.8045184,True
Sembawang,Sembawang Central,food,food dining hawker centres restaurants cafes,"food dining hawker centres restaurants cafes near Sembawang Central, Sembawang, Singapore",ChIJ7SUpBGoa2jER31LgG0EuOmk,Holland Drive Market & Food Centre,"44 Holland Dr, Singapore 270044",4.1,3184,"[""establishment"", ""food"", ""point_of_interest"", ""restaurant""]",1.308167,103.7927992,True
Sembawang,Sembawang Central,food,food dining hawker centres restaurants cafes,"food dining hawker centres restaurants cafes near Sembawang Central, Sembawang, Singapore",ChIJ-5yAbEYV2jERb4bgiFcMhqw,Food Village,"115 Canberra Walk, #01, Singapore 750115",3.6,287,"[""cafe"", ""establishment"", ""food"", ""point_of_interest"", ""store""]",1.4462151,103.8286761,True
Sembawang,Sembawang Central,shopping,shopping groceries malls supermarkets markets,"shopping groceries malls supermarkets markets near Sembawang Central, Sembawang, Singapore",ChIJk32Wj2ET2jERlCt-VO4D4IY,Sembawang Mart,"511 Canberra Rd, Singapore 750511",3.9,815,"[""establishment"", ""point_of_interest"", ""shopping_mall""]",1.453728,103.8196335,True
Sembawang,Sembawang Central,shopping,shopping groceries malls supermarkets markets,"shopping groceries malls supermarkets markets near Sembawang Central, Sembawang, Singapore",ChIJ5-zrBoEU2jERhLnuZ0bgvUw,Sembawang Shopping Centre,"604 Sembawang Rd, Singapore 758459",4.0,5347,"[""establishment"", ""point_of_interest"", ""shopping_mall""]",1.441615,103.8246417,True
Sembawang,Sembawang Central,shopping,shopping groceries malls supermarkets markets,"shopping groceries malls supermarkets markets near Sembawang Central, Sembawang, Singapore",ChIJHYe2MX0T2jER6vve5JwvRvw,Sun Plaza,"30 Sembawang Dr, Singapore 757713",4.0,6097,"[""establishment"", ""point_of_interest"", ""shopping_mall""]",1.4481945,103.8196247,True
Sembawang,Sembawang Central,shopping,shopping groceries malls supermarkets markets,"shopping groceries malls supermarkets markets near Sembawang Central, Sembawang, Singapore",ChIJjXeDH3oU2jERBV22OV1TW9A,Chong Pang City (Shopping Belt),"Block 126 Yishun Street 11, #01-427, Singapore 760126",4.4,2308,"[""establishment"", ""food"", ""point_of_interest"", ""restaurant"", ""shopping_mall""]",1.4305711,103.8272411,True
Sembawang,Sembawang Central,shopping,shopping groceries malls supermarkets markets,"shopping groceries malls supermarkets markets near Sembawang Central, Sembawang, Singapore",ChIJsRx3HQAV2jERrqLJZX2VZu4,Sheng Siong Supermarket,"Blk 120 Canberra Cres, #01-10, Singapore 750120",4.2,16,"[""establishment"", ""food"", ""grocery_or_supermarket"", ""point_of_interest"", ""store""]",1.4456498,103.8308956,True
Sembawang,Sembawang Central,shopping,shopping groceries malls supermarkets markets,"shopping groceries malls supermarkets markets near Sembawang Central, Sembawang, Singapore",ChIJDWvnA4EU2jERUand1XdYVOg,FairPrice Finest Sembawang Shopping Centre,"604 Sembawang Rd, #B1-25, Singapore 758459",3.4,74,"[""bar"", ""establishment"", ""food"", ""grocery_or_supermarket"", ""point_of_interest"", ""store"", ""supermarket""]",1.4417819,103.8252023,True
Sembawang,Sembawang Central,shopping,shopping groceries malls supermarkets markets,"shopping groceries malls supermarkets markets near Sembawang Central, Sembawang, Singapore",ChIJexbbYoYU2jERNnDL7LAbLn0,Canberra Plaza,"133 Canberra Vw, Singapore 750133",4.1,1642,"[""establishment"", ""point_of_interest"", ""shopping_mall""]",1.4429738,103.8306379,True
Sembawang,Sembawang Central,shopping,shopping groceries malls supermarkets markets,"shopping groceries malls supermarkets markets near Sembawang Central, Sembawang, Singapore",ChIJg0iEvagT2jERLpza72gaJ08,Causeway Point,"1 Woodlands Sq, Singapore 738099",4.3,13829,"[""establishment"", ""point_of_interest"", ""shopping_mall""]",1.4360933,103.7859471,True
Sembawang,Sembawang Central,shopping,shopping groceries malls supermarkets markets,"shopping groceries malls supermarkets markets near Sembawang Central, Sembawang, Singapore",ChIJ_-EOspoU2jERvfgqq4YcwNI,Sheng Siong Supermarket,"105 Canberra St, #02-05, EastBrook@Canberra 750105",4.4,1148,"[""establishment"", ""food"", ""grocery_or_supermarket"", ""point_of_interest"", ""store"", ""supermarket""]",1.4488842,103.8323044,True
Sembawang,Sembawang Central,shopping,shopping groceries malls supermarkets markets,"shopping groceries malls supermarkets markets near Sembawang Central, Sembawang, Singapore",ChIJ7cjSMX0T2jERRJiMb6Q0fvY,FairPrice Sun Plaza,"30 Sembawang Dr, #B1-01 / 02 Sun Plaza, Singapore 757713",4.1,1290,"[""establishment"", ""food"", ""grocery_or_supermarket"", ""point_of_interest"", ""store"", ""supermarket""]",1.4481787,103.8194632,True
Sembawang,Sembawang Central,shopping,shopping groceries malls supermarkets markets,"shopping groceries malls supermarkets markets near Sembawang Central, Sembawang, Singapore",ChIJX679FAAT2jER6PrBrib7CEg,ShengSiong Supermarket,"361 Sembawang Cres, Singapore 750361",4.9,7,"[""establishment"", ""food"", ""grocery_or_supermarket"", ""point_of_interest"", ""store""]",1.4461659,103.8140741,True
Sembawang,Sembawang Central,shopping,shopping groceries malls supermarkets markets,"shopping groceries malls supermarkets markets near Sembawang Central, Sembawang, Singapore",ChIJedK5PUYT2jERAnGwSFWfmpM,Prime Supermarket,"365 Sembawang Crescent, #01-01, Sun Breeze, Singapore 750365",3.9,188,"[""establishment"", ""food"", ""grocery_or_supermarket"", ""point_of_interest"", ""store"", ""supermarket""]",1.4446627,103.815949,True
Sembawang,Sembawang Central,shopping,shopping groceries malls supermarkets markets,"shopping groceries malls supermarkets markets near Sembawang Central, Sembawang, Singapore",ChIJAQAQzRQU2jERLmj7diPcCTI,Wisteria Mall,"598 Yishun Ring Rd, Singapore 768698",4.0,1663,"[""establishment"", ""food"", ""grocery_or_supermarket"", ""point_of_interest"", ""shopping_mall"", ""store"", ""supermarket""]",1.4183525,103.8411119,True
Sembawang,Sembawang Central,shopping,shopping groceries malls supermarkets markets,"shopping groceries malls supermarkets markets near Sembawang Central, Sembawang, Singapore",ChIJ9RT-5DYV2jERKbQXNwU4m6A,Northpoint City,"930 Yishun Ave 2, Singapore 769098",4.3,16044,"[""establishment"", ""point_of_interest"", ""shopping_mall""]",1.4293478,103.8358671,True
Sembawang,Sembawang Central,shopping,shopping groceries malls supermarkets markets,"shopping groceries malls supermarkets markets near Sembawang Central, Sembawang, Singapore",ChIJ_6IAj2ET2jER7PJkQr7sJWc,FairPrice Canberra Road,"511 Canberra Road, #02-03, Sembawang Mart, Singapore 750511",4.2,322,"[""establishment"", ""food"", ""grocery_or_supermarket"", ""point_of_interest"", ""store"", ""supermarket""]",1.453728,103.8196335,True
Sembawang,Sembawang Central,shopping,shopping groceries malls supermarkets markets,"shopping groceries malls supermarkets markets near Sembawang Central, Sembawang, Singapore",ChIJvXpwCEkT2jERC75xam14_vs,Kampung Admiralty,"676 Woodlands Drive 71, Singapore 730676",4.3,902,"[""establishment"", ""point_of_interest"", ""shopping_mall""]",1.4398814,103.8007278,True
Sembawang,Sembawang Central,shopping,shopping groceries malls supermarkets markets,"shopping groceries malls supermarkets markets near Sembawang Central, Sembawang, Singapore",ChIJs5FVJhIX2jER7efvOK7ObVM,The Woodleigh Mall,"11 Bidadari Park Dr, Singapore 367803",4.0,1386,"[""establishment"", ""point_of_interest"", ""shopping_mall""]",1.3386593,103.8717689,True
Sembawang,Sembawang Central,shopping,shopping groceries malls supermarkets markets,"shopping groceries malls supermarkets markets near Sembawang Central, Sembawang, Singapore",ChIJq1ymIRMT2jERzTwMeVukiWA,Sheng Siong Supermarket,"200 Woodlands Industrial Pk E7, #01-30, Singapore 757177",4.4,2036,"[""establishment"", ""food"", ""grocery_or_supermarket"", ""point_of_interest"", ""store"", ""supermarket""]",1.4508933,103.7968967,True
Sembawang,Sembawang Central,shopping,shopping groceries malls supermarkets markets,"shopping groceries malls supermarkets markets near Sembawang Central, Sembawang, Singapore",ChIJk_idN3oU2jEReqhHxnv3lgI,Chong Pang Food Centre,"Block 105 Yishun Ring Rd, Singapore 760105",4.1,8604,"[""establishment"", ""food"", ""point_of_interest"", ""restaurant""]",1.4318039,103.8281477,True
Sembawang,Sembawang Central,shopping,shopping groceries malls supermarkets markets,"shopping groceries malls supermarkets markets near Sembawang Central, Sembawang, Singapore",ChIJv6TxPRIU2jERTIL4lT3CLTI,Khatib Central,"848 Yishun Street 81, Singapore 760848",4.1,1120,"[""establishment"", ""point_of_interest"", ""shopping_mall""]",1.4165374,103.8349115,True
Sembawang,Sembawang Central,recreation,recreation sports gyms swimming community clubs,"recreation sports gyms swimming community clubs near Sembawang Central, Sembawang, Singapore",ChIJYe_UNiYV2jERlvWhqzwZneA,Bukit Canberra Sport Centre,"21 Canberra Link, Singapore 756973",4.4,75,"[""establishment"", ""point_of_interest""]",1.449033,103.8231799,True
Sembawang,Sembawang Central,recreation,recreation sports gyms swimming community clubs,"recreation sports gyms swimming community clubs near Sembawang Central, Sembawang, Singapore",ChIJi3j7l5sU2jEROGUByFjhrSM,Sembawang Community Club,"117B Canberra Cres, #01-370, Singapore 752117",4.1,449,"[""establishment"", ""point_of_interest""]",1.4514788,103.828856,True
Sembawang,Sembawang Central,recreation,recreation sports gyms swimming community clubs,"recreation sports gyms swimming community clubs near Sembawang Central, Sembawang, Singapore",ChIJFwBnxn0T2jERFDDiOhsMo_U,Canberra Community Club,"2 Sembawang Cres, #01-01, Singapore 757632",4.1,1059,"[""establishment"", ""point_of_interest""]",1.4449347,103.8197721,True
Sembawang,Sembawang Central,recreation,recreation sports gyms swimming community clubs,"recreation sports gyms swimming community clubs near Sembawang Central, Sembawang, Singapore",ChIJ07CwhJgV2jERPh1RvfSWQ9c,Bukit Canberra Swimming Complex,"21 Canberra Link, Singapore 756973",3.6,148,"[""establishment"", ""point_of_interest""]",1.4469472,103.8234656,True
Sembawang,Sembawang Central,recreation,recreation sports gyms swimming community clubs,"recreation sports gyms swimming community clubs near Sembawang Central, Sembawang, Singapore",ChIJ20yZ-zIV2jERs0E6KSZWLiI,Bukit Canberra Swimming Lessons by Singapore Swimming Academy,"21 Canberra Link, Singapore 756973",4.7,54,"[""establishment"", ""health"", ""point_of_interest"", ""school""]",1.4470444,103.8234166,True
Sembawang,Sembawang Central,recreation,recreation sports gyms swimming community clubs,"recreation sports gyms swimming community clubs near Sembawang Central, Sembawang, Singapore",ChIJHaFvfZgV2jER7Y7GcRY7kFk,Bukit Canberra ActiveSG Gym,"21 Canberra Link, Singapore 756973",3.8,200,"[""establishment"", ""gym"", ""health"", ""point_of_interest""]",1.4473162,103.8235641,True
Sembawang,Sembawang Central,recreation,recreation sports gyms swimming community clubs,"recreation sports gyms swimming community clubs near Sembawang Central, Sembawang, Singapore",ChIJxYtuyK4T2jERUES3ObueCCk,Swimwerks Asia Pte Ltd,"3 Gambas Cres, #07-11 Nordcom 1, Singapore 757088",4.7,209,"[""establishment"", ""health"", ""point_of_interest"", ""school""]",1.4441588,103.8141318,True
Sembawang,Sembawang Central,recreation,recreation sports gyms swimming community clubs,"recreation sports gyms swimming community clubs near Sembawang Central, Sembawang, Singapore",ChIJh5xHu58V2jERWpPz1Rp_i4Q,Swimming Lesson by Training 360 Swimming & Lifesaving,"21 Canberra Link, Singapore BUKIT CANBERRA SWIMMING COMPLEX, Singapore 756973",5.0,261,"[""establishment"", ""point_of_interest""]",1.4488628,103.8236134,True
Sembawang,Sembawang Central,recreation,recreation sports gyms swimming community clubs,"recreation sports gyms swimming community clubs near Sembawang Central, Sembawang, Singapore",ChIJNxUbXa8T2jERhN40iZySOUk,Tao Li Swimming Club (Sembawang),"249 Sembawang Rd, Singapore 758352",4.0,4,"[""establishment"", ""point_of_interest""]",1.416388,103.8165544,True
Sembawang,Sembawang Central,recreation,recreation sports gyms swimming community clubs,"recreation sports gyms swimming community clubs near Sembawang Central, Sembawang, Singapore",ChIJV5hnA6wT2jERqD4CwNu0SpM,Woodlands Sport Centre,"2 Woodlands Street 12, Singapore 738599",4.1,2050,"[""establishment"", ""gym"", ""health"", ""point_of_interest"", ""stadium""]",1.434104,103.779798,True
Sembawang,Sembawang Central,recreation,recreation sports gyms swimming community clubs,"recreation sports gyms swimming community clubs near Sembawang Central, Sembawang, Singapore",ChIJZ77tp3sT2jERmdKtCn0V5pI,JustSwim Singapore,"10 Admiralty St, Singapore 757695",4.8,307,"[""establishment"", ""point_of_interest""]",1.4617114,103.812554,True
Sembawang,Sembawang Central,recreation,recreation sports gyms swimming community clubs,"recreation sports gyms swimming community clubs near Sembawang Central, Sembawang, Singapore",ChIJ7ZgOOiAV2jERCFeUkkIYSag,Sembawang Recreation Centre,"301 Canberra Rd, Singapore 759774",4.5,89,"[""establishment"", ""point_of_interest""]",1.4585179,103.821852,True
Sembawang,Sembawang Central,recreation,recreation sports gyms swimming community clubs,"recreation sports gyms swimming community clubs near Sembawang Central, Sembawang, Singapore",ChIJByE8bGAV2jEReIAf4jZEwD0,Bukit Canberra Sport Hall,"21 Canberra Link, Singapore 756973",4.2,188,"[""establishment"", ""point_of_interest""]",1.4488728,103.8239457,True
Sembawang,Sembawang Central,recreation,recreation sports gyms swimming community clubs,"recreation sports gyms swimming community clubs near Sembawang Central, Sembawang, Singapore",ChIJU5I1EQAV2jER9o68jMdoijY,Forest Gym,"345 Old Nelson Rd, Singapore 758692",4.4,7,"[""establishment"", ""gym"", ""health"", ""point_of_interest""]",1.4483633,103.8243021,True
Sembawang,Sembawang Central,recreation,recreation sports gyms swimming community clubs,"recreation sports gyms swimming community clubs near Sembawang Central, Sembawang, Singapore",ChIJ76LWZF4V2jERGqofDZZuMIw,BBF GYM,"65 Jln Malu-malu, Singapore 769680",5.0,155,"[""establishment"", ""gym"", ""health"", ""point_of_interest""]",1.4436313,103.8258049,True
Sembawang,Sembawang Central,recreation,recreation sports gyms swimming community clubs,"recreation sports gyms swimming community clubs near Sembawang Central, Sembawang, Singapore",ChIJTSDLM50U2jERQoCxNiUI-VY,ActiveSG Sports Centre,"21 Canberra Link, Singapore 756973",5.0,1,"[""establishment"", ""point_of_interest""]",1.4488628,103.8236134,True
Sembawang,Sembawang Central,recreation,recreation sports gyms swimming community clubs,"recreation sports gyms swimming community clubs near Sembawang Central, Sembawang, Singapore",ChIJq6qqmhEU2jER0yE06FDEo-U,Nee Soon South Community Club,"30 Yishun Street 81, Singapore 768455",4.1,354,"[""establishment"", ""point_of_interest""]",1.4149934,103.8348043,True
Sembawang,Sembawang Central,recreation,recreation sports gyms swimming community clubs,"recreation sports gyms swimming community clubs near Sembawang Central, Sembawang, Singapore",ChIJnaRlNkwV2jERTGfYnQLn4dg,Chong Pang Community Club (Temporary Site),"126 Yishun Street 11, #01-427, Singapore 760126",4.1,20,"[""establishment"", ""point_of_interest""]",1.4334595,103.8298854,True
Sembawang,Sembawang Central,recreation,recreation sports gyms swimming community clubs,"recreation sports gyms swimming community clubs near Sembawang Central, Sembawang, Singapore",ChIJq7C_6m8U2jERTnac8Wp_HgY,Nee Soon Central Community Club,"1 Northpoint Drive, South Wing, #01-201 Northpoint City, Singapore 768019",4.3,557,"[""establishment"", ""point_of_interest""]",1.4264417,103.8359416,True
Sembawang,Sembawang Central,recreation,recreation sports gyms swimming community clubs,"recreation sports gyms swimming community clubs near Sembawang Central, Sembawang, Singapore",ChIJG5IXA4EU2jERHyM2XzCqhh8,Anytime Fitness Sembawang,"604 Sembawang Rd, Sembawang Shopping Centre, West 2F, Singapore 758459",4.8,401,"[""establishment"", ""gym"", ""health"", ""point_of_interest""]",1.4420175,103.8250677,True
Sembawang,Sembawang Central,nature,parks gardens nature waterfront park connectors,"parks gardens nature waterfront park connectors near Sembawang Central, Sembawang, Singapore",ChIJW08LC5oU2jER6b7cHRVBP6Q,Simpang Kiri Park Connector,"Sembawang Rd, Singapore 758495",4.4,153,"[""establishment"", ""park"", ""point_of_interest"", ""tourist_attraction""]",1.4529108,103.8324722,True
Sembawang,Sembawang Central,nature,parks gardens nature waterfront park connectors,"parks gardens nature waterfront park connectors near Sembawang Central, Sembawang, Singapore",ChIJEx8IrV8T2jERo0MtLUXpAQE,Sembawang Park Connector,Singapore,4.6,7,"[""establishment"", ""point_of_interest""]",1.4451081,103.8119827,True
Sembawang,Sembawang Central,nature,parks gardens nature waterfront park connectors,"parks gardens nature waterfront park connectors near Sembawang Central, Sembawang, Singapore",ChIJ4QhPDSMT2jER-K6cnYYSNZw,Ulu Sembawang Park Connector,"403R Jln Ulu Sembawang, Singapore 779563",4.4,108,"[""establishment"", ""park"", ""point_of_interest""]",1.422046,103.7928186,True
Sembawang,Sembawang Central,nature,parks gardens nature waterfront park connectors,"parks gardens nature waterfront park connectors near Sembawang Central, Sembawang, Singapore",ChIJi090zPwS2jERiJCqFWoP8Z4,Woodlands Waterfront Park,"Admiralty Rd W, Singapore 759956",4.5,3993,"[""establishment"", ""park"", ""point_of_interest"", ""tourist_attraction""]",1.4530529,103.7804801,True
Sembawang,Sembawang Central,nature,parks gardens nature waterfront park connectors,"parks gardens nature waterfront park connectors near Sembawang Central, Sembawang, Singapore",ChIJied_ZdIT2jERfFB2io7NbV0,Central Catchment Park Connector,"Mandai Rd, Singapore",4.5,547,"[""establishment"", ""point_of_interest""]",1.4105867,103.7783568,True
Sembawang,Sembawang Central,nature,parks gardens nature waterfront park connectors,"parks gardens nature waterfront park connectors near Sembawang Central, Sembawang, Singapore",ChIJG3sM6aoV2jER4nop3XpNYF0,Canberra Park Connector,"119-120 Canberra Cres, Singapore 753120",4.0,5,"[""establishment"", ""point_of_interest""]",1.4461619,103.8303655,True
Sembawang,Sembawang Central,nature,parks gardens nature waterfront park connectors,"parks gardens nature waterfront park connectors near Sembawang Central, Sembawang, Singapore",ChIJMxZeJ5sT2jERG3KCuLiIsjw,Woodlands Park Connector (SLE),Singapore,4.7,9,"[""establishment"", ""park"", ""point_of_interest""]",1.4254469,103.7905053,True
Sembawang,Sembawang Central,nature,parks gardens nature waterfront park connectors,"parks gardens nature waterfront park connectors near Sembawang Central, Sembawang, Singapore",ChIJJ9TgVLwU2jERIYaBgBL-vn0,Sembawang Park,"Sembawang Rd, Singapore",4.4,5952,"[""establishment"", ""park"", ""point_of_interest"", ""tourist_attraction""]",1.4616659,103.8368876,True
Sembawang,Sembawang Central,nature,parks gardens nature waterfront park connectors,"parks gardens nature waterfront park connectors near Sembawang Central, Sembawang, Singapore",ChIJWwsOaXkT2jERYqyeEFN3rPA,Sembawang Hot Spring Park,"Along, 500 Gambas Ave, Singapore 756952",4.3,1778,"[""establishment"", ""park"", ""point_of_interest""]",1.4343488,103.8224691,True
Sembawang,Sembawang Central,nature,parks gardens nature waterfront park connectors,"parks gardens nature waterfront park connectors near Sembawang Central, Sembawang, Singapore",ChIJ9_q8-xwV2jER_EKQTIcVe1s,Canberra PCN,Singapore 752106,5.0,3,"[""establishment"", ""park"", ""point_of_interest""]",1.4461703,103.8304004,True
Sembawang,Sembawang Central,nature,parks gardens nature waterfront park connectors,"parks gardens nature waterfront park connectors near Sembawang Central, Sembawang, Singapore",ChIJt_SUIbsT2jERcmX0AYkpiMg,Ulu Sembawang PCN (Mandai Rd),"Jln Ulu Sembawang, Singapore",4.4,71,"[""establishment"", ""park"", ""point_of_interest""]",1.4126059,103.7882632,True
Sembawang,Sembawang East,education,education facilities schools childcare libraries,"education facilities schools childcare libraries near Sembawang East, Sembawang, Singapore",ChIJNX1sv2YT2jERoF5IpESJXlw,My Little Campus - MLC (Sembawang),"406 Sembawang Dr, #01-828, Singapore 750406",5.0,13,"[""establishment"", ""point_of_interest"", ""school""]",1.4530174,103.8170112,True
Sembawang,Sembawang East,education,education facilities schools childcare libraries,"education facilities schools childcare libraries near Sembawang East, Sembawang, Singapore",ChIJnVjyIGMT2jER1AP2Rg9FFT4,Star Learners @ Sembawang Way | Preschool & Childcare,"355 Sembawang Wy, #02-02, Singapore 750355",5.0,116,"[""establishment"", ""point_of_interest"", ""school""]",1.4500614,103.8184399,True
Sembawang,Sembawang East,education,education facilities schools childcare libraries,"education facilities schools childcare libraries near Sembawang East, Sembawang, Singapore",ChIJ3dAcH58V2jERTkXEyPUAvJA,Skool4Kidz Preschool @ Sembawang Canberra East Creek,"101 Canberra St, Level 1 Child Care, Singapore 750101",4.5,35,"[""establishment"", ""point_of_interest"", ""school""]",1.4517087,103.8314254,True
Sembawang,Sembawang East,education,education facilities schools childcare libraries,"education facilities schools childcare libraries near Sembawang East, Sembawang, Singapore",ChIJO5JBPuUT2jERGtV9cpphGt8,EduFirst Learning Centre (Sembawang) - English Math Chinese Science Tuition Centre Student Care Singapore,"2 Sembawang Cres, #02 05 06 Canberra Community Club, Singapore 757632",4.8,96,"[""establishment"", ""point_of_interest""]",1.4448348,103.8196639,True
Sembawang,Sembawang East,education,education facilities schools childcare libraries,"education facilities schools childcare libraries near Sembawang East, Sembawang, Singapore",ChIJHyby1H8U2jERcLpQogdt3pc,Star Learners @ Sembawang Place | Preschool & Childcare,"587 Sembawang Pl, Singapore 758440",4.8,51,"[""establishment"", ""point_of_interest"", ""school""]",1.43938,103.824555,True
Sembawang,Sembawang East,education,education facilities schools childcare libraries,"education facilities schools childcare libraries near Sembawang East, Sembawang, Singapore",ChIJU3LhjmET2jER_ebn9Gr60JY,Little green house - Sembawang,"Block 511 Canberra Rd, #03-02 Sembawang Mart, Singapore 750511",4.7,14,"[""establishment"", ""point_of_interest"", ""school""]",1.4538337,103.8195883,True
Sembawang,Sembawang East,education,education facilities schools childcare libraries,"education facilities schools childcare libraries near Sembawang East, Sembawang, Singapore",ChIJR_6ffJ0U2jERSG0JOI8z4Hg,Evangel Student Care Centre,"503B Canberra Link, Singapore 752503",3.3,9,"[""establishment"", ""point_of_interest""]",1.4504404,103.8219638,True
Sembawang,Sembawang East,education,education facilities schools childcare libraries,"education facilities schools childcare libraries near Sembawang East, Sembawang, Singapore",ChIJjxeoub4T2jEROJtpVYn5dcs,Agape Little Uni Gambas (Nordcom II),"2 Gambas Cres, #01-15 Nordcom II, Singapore 757044",4.7,40,"[""establishment"", ""point_of_interest"", ""school""]",1.4434524,103.8155447,True
Sembawang,Sembawang East,education,education facilities schools childcare libraries,"education facilities schools childcare libraries near Sembawang East, Sembawang, Singapore",ChIJW6IeMH0T2jERiY_tOOMSWeI,Sembawang Library,"30 Sembawang Dr, #05 - 01 Sun Plaza, Singapore 757713",3.9,193,"[""establishment"", ""library"", ""point_of_interest""]",1.4482825,103.8195571,True
Sembawang,Sembawang East,education,education facilities schools childcare libraries,"education facilities schools childcare libraries near Sembawang East, Sembawang, Singapore",ChIJm3Mfpf0T2jER_xZHp65wiaI,PlayFACTO School @ Sembawang,"Block 463B Sembawang Dr, #01-385, Singapore 752463",5.0,54,"[""establishment"", ""point_of_interest"", ""school""]",1.4560176,103.8137696,True
Sembawang,Sembawang East,education,education facilities schools childcare libraries,"education facilities schools childcare libraries near Sembawang East, Sembawang, Singapore",ChIJQa1BbpsU2jERS4Jm93Wg1pg,Spring Buds Learning Campus,"878A Sembawang Rd, Singapore 758467",5.0,13,"[""establishment"", ""point_of_interest"", ""school""]",1.450282,103.82841,True
Sembawang,Sembawang East,education,education facilities schools childcare libraries,"education facilities schools childcare libraries near Sembawang East, Sembawang, Singapore",ChIJjc4Gd2IT2jERErJlDYsVmmM,Glory Joy Child Development Centre,"501B Wellington Cir, #01-06, Singapore 752501",4.8,27,"[""establishment"", ""point_of_interest"", ""school""]",1.4521332,103.8214902,True
Sembawang,Sembawang East,education,education facilities schools childcare libraries,"education facilities schools childcare libraries near Sembawang East, Sembawang, Singapore",ChIJ37jPtXsT2jER6-IkTUpKHRE,Star Learners @ Gambas | Preschool & Childcare,"7 Gambas Cres, #01-18/19/20, Singapore 757087",5.0,42,"[""establishment"", ""point_of_interest"", ""school""]",1.445007,103.8121599,True
Sembawang,Sembawang East,education,education facilities schools childcare libraries,"education facilities schools childcare libraries near Sembawang East, Sembawang, Singapore",ChIJ_5R36voV2jERNLwksv34gLs,MindChamps MindSpace @ Sembawang Shopping Centre (Canberra) | After School Student Care | MindChamps Enrichment for P1-P5,"604 Sembawang Rd, #03-14 Sembawang Shopping Centre, Singapore 758459",5.0,42,"[""establishment"", ""point_of_interest""]",1.4420175,103.8250677,True
Sembawang,Sembawang East,education,education facilities schools childcare libraries,"education facilities schools childcare libraries near Sembawang East, Sembawang, Singapore",ChIJNTlHDncU2jERMf2p39hUWew,Maplebear Sembawang,"29 Jln Lengkok Sembawang, Singapore 759218",5.0,26,"[""establishment"", ""point_of_interest"", ""school""]",1.4282383,103.8249065,True
Sembawang,Sembawang East,education,education facilities schools childcare libraries,"education facilities schools childcare libraries near Sembawang East, Sembawang, Singapore",ChIJqcgiTn0T2jER1drwCtBmv3g,MindChamps Reading @ Sembawang Nordcom II (Reading & Phonics Classes for Kids),"2 Gambas Cres, #01-26/27/40/41 Nordcom II, Singapore 757044",5.0,4,"[""establishment"", ""point_of_interest""]",1.4433502,103.8155687,True
Sembawang,Sembawang East,education,education facilities schools childcare libraries,"education facilities schools childcare libraries near Sembawang East, Sembawang, Singapore",ChIJ3wtO3HsT2jER8wM-bCGc8f0,Maplebear Woodlands,"3 Gambas Cres, #01-06/07 Nordcom 1, Singapore 757088",4.7,3,"[""establishment"", ""point_of_interest"", ""school""]",1.4441588,103.8141318,True
Sembawang,Sembawang East,education,education facilities schools childcare libraries,"education facilities schools childcare libraries near Sembawang East, Sembawang, Singapore",ChIJ____L34U2jER77EwKDI25RM,Global Tots Preschool - Sembawang,"579 Sembawang Pl, Singapore 758427",4.4,24,"[""establishment"", ""point_of_interest"", ""school""]",1.43826,103.82473,True
Sembawang,Sembawang East,education,education facilities schools childcare libraries,"education facilities schools childcare libraries near Sembawang East, Sembawang, Singapore",ChIJCYoA8GYT2jERKrM4OZf5ewo,Mainspring Learning Centre,"466A Sembawang Dr, Singapore 751466",4.5,33,"[""establishment"", ""point_of_interest""]",1.4550697,103.8136665,True
Sembawang,Sembawang East,education,education facilities schools childcare libraries,"education facilities schools childcare libraries near Sembawang East, Sembawang, Singapore",ChIJS2ZmifMT2jERJLNa2c6hKYY,The Schoolhouse Sembawang (Sembawang Country Club),"249 Sembawang Rd, Sembawang Country Club, Singapore 758352",5.0,34,"[""establishment"", ""point_of_interest"", ""school""]",1.4173031,103.8155762,True
Sembawang,Sembawang East,transport,public transport MRT LRT bus stops,"public transport MRT LRT bus stops near Sembawang East, Sembawang, Singapore",ChIJWUPdyWIT2jERxPOWpY4QJ5A,Sembawang,Singapore,4.3,1509,"[""establishment"", ""point_of_interest"", ""subway_station"", ""transit_station""]",1.44909,103.820049,True
Sembawang,Sembawang East,transport,public transport MRT LRT bus stops,"public transport MRT LRT bus stops near Sembawang East, Sembawang, Singapore",ChIJhYoZF30T2jERKXxkIsA9i-U,Sembawang Interchange,"11A Sembawang Vis, Singapore 757527",3.1,11,"[""bus_station"", ""establishment"", ""point_of_interest"", ""transit_station""]",1.4472813,103.8195946,True
Sembawang,Sembawang East,transport,public transport MRT LRT bus stops,"public transport MRT LRT bus stops near Sembawang East, Sembawang, Singapore",ChIJFRGNxWIT2jERHr5yWEgmc-I,Sembawang Stn,Singapore,4.2,13,"[""establishment"", ""point_of_interest"", ""transit_station""]",1.449262,103.819794,True
Sembawang,Sembawang East,transport,public transport MRT LRT bus stops,"public transport MRT LRT bus stops near Sembawang East, Sembawang, Singapore",ChIJQZIHGH0T2jEREkExkuNf8v0,Sembawang Interchange,Singapore,3.9,24,"[""bus_station"", ""establishment"", ""point_of_interest"", ""transit_station""]",1.447482,103.819412,True
Sembawang,Sembawang East,transport,public transport MRT LRT bus stops,"public transport MRT LRT bus stops near Sembawang East, Sembawang, Singapore",ChIJFwAAJH0T2jERZszqZqhHLU8,Sun Plaza/ Sembawang Stn,Singapore,4.1,12,"[""establishment"", ""point_of_interest"", ""transit_station""]",1.448032,103.818954,True
Sembawang,Sembawang East,transport,public transport MRT LRT bus stops,"public transport MRT LRT bus stops near Sembawang East, Sembawang, Singapore",ChIJQa_MxmIT2jERxtFfsKMOCW0,Opp Sembawang Stn,Singapore,2.5,4,"[""establishment"", ""point_of_interest"", ""transit_station""]",1.449535,103.819931,True
Sembawang,Sembawang East,transport,public transport MRT LRT bus stops,"public transport MRT LRT bus stops near Sembawang East, Sembawang, Singapore",ChIJKfHphWET2jERpSO7IMj-LzQ,Sembawang Bus Interchange,"11A Sembawang Vis, Singapore 757527",3.6,18,"[""establishment"", ""point_of_interest""]",1.4477914,103.8196332,True
Sembawang,Sembawang East,transport,public transport MRT LRT bus stops,"public transport MRT LRT bus stops near Sembawang East, Sembawang, Singapore",ChIJe9StPwAT2jERYKkQKQ7XxRI,Sembawang MRT Station Exit D pick-up point,"3 Canberra Rd, Singapore 759763",4.2,16,"[""establishment"", ""point_of_interest""]",1.4490683,103.8214676,True
Sembawang,Sembawang East,transport,public transport MRT LRT bus stops,"public transport MRT LRT bus stops near Sembawang East, Sembawang, Singapore",ChIJz-AErIIU2jERp1S-ZC-kFO4,Bef Sembawang Stn,Singapore,3.6,5,"[""establishment"", ""point_of_interest"", ""transit_station""]",1.4483416,103.8219993,True
Sembawang,Sembawang East,transport,public transport MRT LRT bus stops,"public transport MRT LRT bus stops near Sembawang East, Sembawang, Singapore",ChIJ74T2JmcT2jERUmMuHJxp0Nc,Blk 483,Singapore,5.0,5,"[""establishment"", ""point_of_interest"", ""transit_station""]",1.455935,103.814911,True
Sembawang,Sembawang East,transport,public transport MRT LRT bus stops,"public transport MRT LRT bus stops near Sembawang East, Sembawang, Singapore",ChIJpVpZpH0T2jERJ34jp7Mdpmg,Blk 328,Singapore,4.0,3,"[""establishment"", ""point_of_interest"", ""transit_station""]",1.445829,103.819687,True
Sembawang,Sembawang East,transport,public transport MRT LRT bus stops,"public transport MRT LRT bus stops near Sembawang East, Sembawang, Singapore",ChIJrxoGDrwU2jERHffKeoRNv84,Sembawang Pk,Singapore,4.6,7,"[""establishment"", ""point_of_interest"", ""transit_station""]",1.462115,103.837921,True
Sembawang,Sembawang East,transport,public transport MRT LRT bus stops,"public transport MRT LRT bus stops near Sembawang East, Sembawang, Singapore",ChIJn1X-9oAU2jER5Ck93fMW5f0,Aft Sembawang Shop Ctr,Singapore,4.0,6,"[""establishment"", ""point_of_interest"", ""transit_station""]",1.440851,103.82473,True
Sembawang,Sembawang East,transport,public transport MRT LRT bus stops,"public transport MRT LRT bus stops near Sembawang East, Sembawang, Singapore",ChIJ6X5na30T2jERf4kI-uNQXFk,Sembawang Interchange/Opp Blk 315,Singapore,5.0,1,"[""establishment"", ""point_of_interest"", ""transit_station""]",1.447221,103.820183,True
Sembawang,Sembawang East,transport,public transport MRT LRT bus stops,"public transport MRT LRT bus stops near Sembawang East, Sembawang, Singapore",ChIJM97_9IYU2jERFVaWfl5Bm1o,Canberra Stn,"Canberra Link, Singapore 752106",3.7,3,"[""bus_station"", ""establishment"", ""point_of_interest"", ""transit_station""]",1.442578,103.830139,True
Sembawang,Sembawang East,food,food dining hawker centres restaurants cafes,"food dining hawker centres restaurants cafes near Sembawang East, Sembawang, Singapore",ChIJf-MrLT8V2jERx_aVOpIuLng,Bukit Canberra Hawker Centre,"21 Canberra Link, Singapore 756973",4.2,1945,"[""establishment"", ""food"", ""point_of_interest"", ""restaurant""]",1.4489743,103.8228369,True
Sembawang,Sembawang East,food,food dining hawker centres restaurants cafes,"food dining hawker centres restaurants cafes near Sembawang East, Sembawang, Singapore",ChIJH1HG6tEW2jERGsch7FbDL5g,Sembawang Hills Food Centre,"590 Upper Thomson Rd, Singapore 574419",3.9,2392,"[""establishment"", ""food"", ""point_of_interest"", ""restaurant""]",1.3722883,103.8290075,True
Sembawang,Sembawang East,food,food dining hawker centres restaurants cafes,"food dining hawker centres restaurants cafes near Sembawang East, Sembawang, Singapore",ChIJlU1sIyYV2jERZ_plMDpdCcU,Charcoal Mookata 1018 Sembawang - The Addiction Bistro,"1018 Sembawang Rd, Singapore 758495",4.8,1889,"[""establishment"", ""food"", ""point_of_interest"", ""restaurant""]",1.4533182,103.8323377,True
Sembawang,Sembawang East,food,food dining hawker centres restaurants cafes,"food dining hawker centres restaurants cafes near Sembawang East, Sembawang, Singapore",ChIJEcljAGoU2jERqtf7wNTnNlg,Yishun Park Hawker Centre,"51 Yishun Ave 11, Singapore 768867",4.1,7320,"[""establishment"", ""food"", ""point_of_interest"", ""restaurant"", ""tourist_attraction""]",1.4250185,103.8447207,True
Sembawang,Sembawang East,food,food dining hawker centres restaurants cafes,"food dining hawker centres restaurants cafes near Sembawang East, Sembawang, Singapore",ChIJk_idN3oU2jEReqhHxnv3lgI,Chong Pang Food Centre,"Block 105 Yishun Ring Rd, Singapore 760105",4.1,8604,"[""establishment"", ""food"", ""point_of_interest"", ""restaurant""]",1.4318039,103.8281477,True
Sembawang,Sembawang East,food,food dining hawker centres restaurants cafes,"food dining hawker centres restaurants cafes near Sembawang East, Sembawang, Singapore",ChIJpdCbpXwT2jERo9jX2FUvxpI,Broadway Food Centre @ 334A Sembawang Close,"334 Sembawang Cl, Block 334, Singapore 750334",3.7,684,"[""establishment"", ""food"", ""point_of_interest"", ""restaurant"", ""store""]",1.4481094,103.8164216,True
Sembawang,Sembawang East,food,food dining hawker centres restaurants cafes,"food dining hawker centres restaurants cafes near Sembawang East, Sembawang, Singapore",ChIJVewzJvAV2jERTyuLUkyMEME,8 Degrees Taiwanese Bistro 8度空間台灣小吃 Sembawang | Bubble tea | Luroufan | Taiwanese Street Food,"8 Jln Legundi, #01-03, Singapore 759274",4.5,556,"[""establishment"", ""food"", ""meal_takeaway"", ""point_of_interest"", ""restaurant"", ""store""]",1.4420144,103.8237711,True
Sembawang,Sembawang East,food,food dining hawker centres restaurants cafes,"food dining hawker centres restaurants cafes near Sembawang East, Sembawang, Singapore",ChIJSYCHb3UT2jERZBT2RKbXINU,Kampung Admiralty Hawker Centre,"676 Woodlands Drive 71, Singapore 730676",4.1,4925,"[""establishment"", ""food"", ""point_of_interest"", ""restaurant""]",1.4398741,103.8006515,True
Sembawang,Sembawang East,food,food dining hawker centres restaurants cafes,"food dining hawker centres restaurants cafes near Sembawang East, Sembawang, Singapore",ChIJjZkEenkU2jERDrlpcJ5BrXE,Chong Pang Nasi Lemak,"447 Sembawang Rd, Singapore 758404",4.1,2082,"[""establishment"", ""food"", ""point_of_interest"", ""restaurant""]",1.4286335,103.8265569,True
Sembawang,Sembawang East,food,food dining hawker centres restaurants cafes,"food dining hawker centres restaurants cafes near Sembawang East, Sembawang, Singapore",ChIJeSCldOcV2jERB-b3ekPlE4E,A Hot Hideout @ Sembawang (SSC),"604 Sembawang Rd, #02-24 Sembawang Shopping Centre, Singapore 758459",4.9,1950,"[""establishment"", ""food"", ""point_of_interest"", ""restaurant""]",1.4418852,103.8244734,True
Sembawang,Sembawang East,food,food dining hawker centres restaurants cafes,"food dining hawker centres restaurants cafes near Sembawang East, Sembawang, Singapore",ChIJZ3DSTIAU2jERJ4a-7q8eHCI,You Huak Restaurant,"22 Jln Tampang, Opp Sembawang Shopping Centre, Singapore 758966",3.8,26,"[""establishment"", ""food"", ""point_of_interest"", ""restaurant""]",1.4415831,103.8234984,True
Sembawang,Sembawang East,food,food dining hawker centres restaurants cafes,"food dining hawker centres restaurants cafes near Sembawang East, Sembawang, Singapore",ChIJ6c_XS6oV2jERnoFBMjB_LbE,Sembawang Eating House Seafood Restaurant,"500 Gambas Ave, Singapore 756952",4.3,216,"[""cafe"", ""establishment"", ""food"", ""meal_takeaway"", ""point_of_interest"", ""restaurant""]",1.4344224,103.823281,True
Sembawang,Sembawang East,food,food dining hawker centres restaurants cafes,"food dining hawker centres restaurants cafes near Sembawang East, Sembawang, Singapore",ChIJ-5yAbEYV2jERb4bgiFcMhqw,Food Village,"115 Canberra Walk, #01, Singapore 750115",3.6,287,"[""cafe"", ""establishment"", ""food"", ""point_of_interest"", ""store""]",1.4462151,103.8286761,True
Sembawang,Sembawang East,food,food dining hawker centres restaurants cafes,"food dining hawker centres restaurants cafes near Sembawang East, Sembawang, Singapore",ChIJlasVwWMT2jER3xm0KeBW8vc,喜多福,"406A Sembawang Dr, Singapore 751406",3.6,239,"[""cafe"", ""establishment"", ""food"", ""point_of_interest"", ""store""]",1.4526094,103.8171997,True
Sembawang,Sembawang East,food,food dining hawker centres restaurants cafes,"food dining hawker centres restaurants cafes near Sembawang East, Sembawang, Singapore",ChIJlVPRYegV2jERH6ZuPKWfFqc,HaHa Family,"21 Canberra Link, #01-12, Singapore 752350",4.7,38,"[""establishment"", ""food"", ""point_of_interest"", ""restaurant""]",1.4490444,103.8230595,True
