planning_area,subzone,poi_dimension,place_query_type,search_query,place_id,place_name,formatted_address,rating,user_ratings_total,types,lat,lng,need_reviews
Changi Bay,Changi Bay,education,education facilities schools childcare libraries,"education facilities schools childcare libraries near Changi Bay, Changi Bay, Singapore",ChIJV8XBQ8A82jERZE3PGgh94PQ,Learning Vision Changi Airport (Terminal 3),"65 AIRPORT BOULEVARD #04-02, Terminal 3, Singapore 819663",5.0,132,"[""establishment"", ""point_of_interest"", ""school""]",1.3519556,103.9842908,True
Changi Bay,Changi Bay,education,education facilities schools childcare libraries,"education facilities schools childcare libraries near Changi Bay, Changi Bay, Singapore",ChIJyxCrCdk82jERIy1QSIk6u5k,Learning Vision Changi Business Park,"7 Changi Business Park Vis, #02-01 Sookee HQ, Singapore 486042",4.8,37,"[""establishment"", ""point_of_interest"", ""school""]",1.3382767,103.9654209,True
Changi Bay,Changi Bay,education,education facilities schools childcare libraries,"education facilities schools childcare libraries near Changi Bay, Changi Bay, Singapore",ChIJq6qaUx892jERKuxoBdGvvEI,KidsCampus Changi Simei Childcare & Infant Care Centre,"10 Simei Street 2, #04-01 Community Club, Singapore 529915",5.0,61,"[""establishment"", ""point_of_interest""]",1.3449742,103.955191,True
Changi Bay,Changi Bay,education,education facilities schools childcare libraries,"education facilities schools childcare libraries near Changi Bay, Changi Bay, Singapore",ChIJkwcGHO092jERFwg7nid1_Ss,Maplebear Changi Business Park,"15A Changi Business Park Central 1, #01-01 Eightrium@Changi Business Park, Singapore 486035",4.5,15,"[""establishment"", ""point_of_interest"", ""school""]",1.3379282,103.964248,True
Changi Bay,Changi Bay,education,education facilities schools childcare libraries,"education facilities schools childcare libraries near Changi Bay, Changi Bay, Singapore",ChIJmYuPvtgb2jERieobmDfLkCQ,Busy Bees Asia,"8 Changi Business Park Ave 1, #03-51 South Tower, Singapore 486018",1.1,9,"[""establishment"", ""point_of_interest""]",1.3351166,103.9638926,True
Changi Bay,Changi Bay,education,education facilities schools childcare libraries,"education facilities schools childcare libraries near Changi Bay, Changi Bay, Singapore",ChIJ4f-PviI92jERgXmfZjwzxyc,Star Learners @ Changi Simei | Preschool & Childcare,"114 Simei Street 1, #01-614, Singapore 520114",4.9,31,"[""establishment"", ""point_of_interest"", ""school""]",1.34375,103.950429,True
Changi Bay,Changi Bay,education,education facilities schools childcare libraries,"education facilities schools childcare libraries near Changi Bay, Changi Bay, Singapore",ChIJq6qqWuA82jERLD2Y_HDd6ww,Kinderland Preschool @ Upper Changi,"86 Jln Pergam, Singapore 488362",4.8,29,"[""establishment"", ""point_of_interest"", ""school""]",1.3469764,103.9623476,True
Changi Bay,Changi Bay,education,education facilities schools childcare libraries,"education facilities schools childcare libraries near Changi Bay, Changi Bay, Singapore",ChIJEUv2lq8j2jERSz1QvxJ17bg,Mulberry Learning @ East Coast (Bayshore),"440A Upper E Coast Rd, Level 1, Singapore 466497",4.0,3,"[""establishment"", ""point_of_interest"", ""school""]",1.3141562,103.9406255,True
Changi Bay,Changi Bay,education,education facilities schools childcare libraries,"education facilities schools childcare libraries near Changi Bay, Changi Bay, Singapore",ChIJD9x1U4w82jER_CyCuY7iR6s,MindChamps PreSchool,"65 Airport Boulevard #03-22/29, Terminal 3 Singapore Changi Airport, Singapore 819663",4.9,105,"[""establishment"", ""point_of_interest"", ""school""]",1.3563,103.987354,True
Changi Bay,Changi Bay,education,education facilities schools childcare libraries,"education facilities schools childcare libraries near Changi Bay, Changi Bay, Singapore",ChIJw8IVMqk92jERhPm5ecCjtU8,Brave Feats Student Care (Bedok),"21 Bedok North Street 1, #02-02 Common Ground Civics Centre, Singapore 469659",5.0,33,"[""establishment"", ""point_of_interest""]",1.3269455,103.9308431,True
Changi Bay,Changi Bay,education,education facilities schools childcare libraries,"education facilities schools childcare libraries near Changi Bay, Changi Bay, Singapore",ChIJmXIi2yE92jERwRy6es4I66I,Changi Education Centre,"232 Simei Street 4, Block 233, Singapore 520232",,0,"[""establishment"", ""point_of_interest""]",1.3441738,103.9569776,True
Changi Bay,Changi Bay,education,education facilities schools childcare libraries,"education facilities schools childcare libraries near Changi Bay, Changi Bay, Singapore",ChIJA1mNy2w92jER8gTLiIgpHVU,Thong Kheng Student Care Centre,"842B Tampines St 82, Block 842C Block 842C, Singapore 522842",5.0,1,"[""establishment"", ""point_of_interest""]",1.3508916,103.9370027,True
Changi Bay,Changi Bay,education,education facilities schools childcare libraries,"education facilities schools childcare libraries near Changi Bay, Changi Bay, Singapore",ChIJtSMs4s9U4IIRzzT9udgOSiE,Ms Nat Learning Exploration,"3 Simei Street 6, #04-12/13/14 Easpoint mall, Singapore 528833",5.0,6,"[""establishment"", ""point_of_interest"", ""school""]",1.3427145,103.9530415,True
Changi Bay,Changi Bay,education,education facilities schools childcare libraries,"education facilities schools childcare libraries near Changi Bay, Changi Bay, Singapore",ChIJ1TyhXks92jERtiprK_owk2Y,Mulberry Learning @ Bedok - Childcare & Infant Care Centre,"11 Bedok North Street 1, #03-05 Heartbeat @ Bedok, Singapore 469662",4.9,31,"[""establishment"", ""point_of_interest""]",1.3271359,103.932401,True
Changi Bay,Changi Bay,education,education facilities schools childcare libraries,"education facilities schools childcare libraries near Changi Bay, Changi Bay, Singapore",ChIJKxUegiY92jERh5RG0tz3974,Star Learners @ Simei | Preschool & Childcare,"9 Harvey Ave, Singapore 489480",5.0,33,"[""establishment"", ""point_of_interest"", ""school""]",1.3378518,103.9549853,True
Changi Bay,Changi Bay,education,education facilities schools childcare libraries,"education facilities schools childcare libraries near Changi Bay, Changi Bay, Singapore",ChIJrzknUh892jERvwiQA4cBlu4,Changi Simei Community Club,"10 Simei Street 2, Singapore 529915",4.2,908,"[""establishment"", ""point_of_interest""]",1.3448021,103.9550323,True
Changi Bay,Changi Bay,education,education facilities schools childcare libraries,"education facilities schools childcare libraries near Changi Bay, Changi Bay, Singapore",ChIJFyzcZ5AW2jER01_mHnAYcWk,Kinderland Academy @ Yio Chu Kang,"449 Yio Chu Kang Rd, Singapore 805946",4.9,37,"[""establishment"", ""point_of_interest"", ""school""]",1.3909531,103.8541442,True
Changi Bay,Changi Bay,education,education facilities schools childcare libraries,"education facilities schools childcare libraries near Changi Bay, Changi Bay, Singapore",ChIJvTSq8hgY2jERbaUrIPmTWJ4,Learning Vision Lifelong Learning Institute (Paya Lebar),"11 Eunos Rd 8, #04-04, Singapore 408601",5.0,10,"[""establishment"", ""point_of_interest"", ""school""]",1.3198898,103.8923802,True
Changi Bay,Changi Bay,education,education facilities schools childcare libraries,"education facilities schools childcare libraries near Changi Bay, Changi Bay, Singapore",ChIJJfVEO6UZ2jERq7ZasSTiEgg,Central Library,"100 Victoria St, #B1-01 National Library / Lee Kong Chian Reference Library, Singapore 188064",4.5,299,"[""establishment"", ""library"", ""point_of_interest""]",1.2977181,103.8543361,True
Changi Bay,Changi Bay,education,education facilities schools childcare libraries,"education facilities schools childcare libraries near Changi Bay, Changi Bay, Singapore",ChIJAQDQQ38Z2jER_EqJkHCuyLw,Canopy Student Care (Tiong Bahru),"46 Jln. Bukit Ho Swee, #01-874, Singapore 160046",4.4,27,"[""establishment"", ""point_of_interest""]",1.2883461,103.8261998,True
Changi Bay,Changi Bay,transport,public transport MRT LRT bus stops,"public transport MRT LRT bus stops near Changi Bay, Changi Bay, Singapore",ChIJUZb9mok82jER1vr2cTklKsA,Changi Airport Ter 1,Singapore,4.3,81,"[""establishment"", ""point_of_interest"", ""transit_station""]",1.361112,103.990753,True
Changi Bay,Changi Bay,transport,public transport MRT LRT bus stops,"public transport MRT LRT bus stops near Changi Bay, Changi Bay, Singapore",ChIJSVkrDhc82jEROUZk7czAUKY,Changi Village Ter,Singapore,4.3,97,"[""establishment"", ""point_of_interest"", ""transit_station""]",1.3896606,103.9876493,True
Changi Bay,Changi Bay,transport,public transport MRT LRT bus stops,"public transport MRT LRT bus stops near Changi Bay, Changi Bay, Singapore",ChIJ1diILtw82jERZt2tCzXBOLU,Changi Business Pk Ter,Singapore 486041,4.2,11,"[""bus_station"", ""establishment"", ""point_of_interest"", ""transit_station""]",1.341888,103.96714,True
Changi Bay,Changi Bay,transport,public transport MRT LRT bus stops,"public transport MRT LRT bus stops near Changi Bay, Changi Bay, Singapore",ChIJ-cVUAa8k2jERaqbLecRt4r8,Changi Naval Base,Singapore,4.7,3,"[""establishment"", ""point_of_interest"", ""transit_station""]",1.3176786,104.0156915,True
Changi Bay,Changi Bay,transport,public transport MRT LRT bus stops,"public transport MRT LRT bus stops near Changi Bay, Changi Bay, Singapore",ChIJo5Hk6t882jERzLJrMbP9L2Y,Changi Ct,Singapore,3.0,5,"[""establishment"", ""point_of_interest"", ""transit_station""]",1.3435495,103.9621986,True
Changi Bay,Changi Bay,transport,public transport MRT LRT bus stops,"public transport MRT LRT bus stops near Changi Bay, Changi Bay, Singapore",ChIJF7Q9Fow82jERNvbZPNr07Xo,Changi Airport,"70 Airport Blvd., Singapore 819661",4.6,1688,"[""establishment"", ""point_of_interest"", ""subway_station"", ""transit_station""]",1.3569833,103.9882267,True
Changi Bay,Changi Bay,transport,public transport MRT LRT bus stops,"public transport MRT LRT bus stops near Changi Bay, Changi Bay, Singapore",ChIJH5miO8c82jER-ZVC8VgThJg,Changi Airport Ter 4,Singapore,3.8,43,"[""bus_station"", ""establishment"", ""point_of_interest"", ""transit_station""]",1.338994,103.982063,True
Changi Bay,Changi Bay,transport,public transport MRT LRT bus stops,"public transport MRT LRT bus stops near Changi Bay, Changi Bay, Singapore",ChIJoVX5Koc72jERtBARomQfzWc,Bef Changi Coast Rd,Singapore,4.0,1,"[""establishment"", ""point_of_interest"", ""transit_station""]",1.367866,104.009979,True
Changi Bay,Changi Bay,transport,public transport MRT LRT bus stops,"public transport MRT LRT bus stops near Changi Bay, Changi Bay, Singapore",ChIJtcq9et882jERXFLqMR93eiw,Upper Changi,Singapore,4.4,635,"[""establishment"", ""point_of_interest"", ""subway_station"", ""transit_station""]",1.34174,103.96147,True
Changi Bay,Changi Bay,transport,public transport MRT LRT bus stops,"public transport MRT LRT bus stops near Changi Bay, Changi Bay, Singapore",ChIJIXvVDGEa2jERvVGUrQkCgRk,Dover Stn Exit B,Singapore,3.6,5,"[""establishment"", ""point_of_interest"", ""transit_station""]",1.311679,103.778687,True
Changi Bay,Changi Bay,transport,public transport MRT LRT bus stops,"public transport MRT LRT bus stops near Changi Bay, Changi Bay, Singapore",ChIJ_-wTLTQ92jERFBXDhJ4I7Es,Aviation Park MRT Station (CR2),"Changi Coast Rd, Singapore",4.5,2,"[""establishment"", ""point_of_interest"", ""train_station"", ""transit_station""]",1.3697629,104.0044268,True
Changi Bay,Changi Bay,transport,public transport MRT LRT bus stops,"public transport MRT LRT bus stops near Changi Bay, Changi Bay, Singapore",ChIJ5_al89Ai2jERcSobpvC1uao,Upp East Coast Ter,Singapore,4.0,77,"[""establishment"", ""point_of_interest"", ""transit_station""]",1.31796,103.952568,True
Changi Bay,Changi Bay,transport,public transport MRT LRT bus stops,"public transport MRT LRT bus stops near Changi Bay, Changi Bay, Singapore",ChIJTfPc0pQ82jERidvCrXoIkiQ,Aft Aircraft Flyover,Singapore,3.3,8,"[""establishment"", ""point_of_interest"", ""transit_station""]",1.3461127,103.9835504,True
Changi Bay,Changi Bay,transport,public transport MRT LRT bus stops,"public transport MRT LRT bus stops near Changi Bay, Changi Bay, Singapore",ChIJgYo8HjM92jERI4poPTjz3FI,Tanah Merah Stn Exit 2,Singapore,4.2,24,"[""establishment"", ""point_of_interest"", ""transit_station""]",1.3275455,103.9460539,True
Changi Bay,Changi Bay,transport,public transport MRT LRT bus stops,"public transport MRT LRT bus stops near Changi Bay, Changi Bay, Singapore",ChIJY0kSiJkl2jERtzfFttAnxoE,Changi Bay Point,Singapore,4.6,299,"[""establishment"", ""point_of_interest""]",1.3697652,104.0137894,True
Changi Bay,Changi Bay,transport,public transport MRT LRT bus stops,"public transport MRT LRT bus stops near Changi Bay, Changi Bay, Singapore",ChIJ_U3m1ZQ82jERp3btif31U3M,Aft Changi Airport Ter 2,Singapore,2.3,4,"[""establishment"", ""point_of_interest"", ""transit_station""]",1.3479278,103.984891,True
Changi Bay,Changi Bay,transport,public transport MRT LRT bus stops,"public transport MRT LRT bus stops near Changi Bay, Changi Bay, Singapore",ChIJ80ix5Gga2jERdXgSC68O6Xs,Ghim Moh Ter,Singapore,4.5,11,"[""establishment"", ""point_of_interest"", ""transit_station""]",1.3110525,103.7893395,True
Changi Bay,Changi Bay,transport,public transport MRT LRT bus stops,"public transport MRT LRT bus stops near Changi Bay, Changi Bay, Singapore",ChIJz1vQEkYj2jER5sTymvMZ8hU,Tanah Merah Ferry Ter,Singapore,4.2,26,"[""establishment"", ""point_of_interest"", ""transit_station""]",1.315203,103.988892,True
Changi Bay,Changi Bay,transport,public transport MRT LRT bus stops,"public transport MRT LRT bus stops near Changi Bay, Changi Bay, Singapore",ChIJE4hhhwAc2jERShZX_1Jptm8,Beach Station Bus Terminal,"50 Siloso Bch Walk, Singapore 884011",4.6,10,"[""establishment"", ""point_of_interest""]",1.2514293,103.8185517,True
Changi Bay,Changi Bay,transport,public transport MRT LRT bus stops,"public transport MRT LRT bus stops near Changi Bay, Changi Bay, Singapore",ChIJG9N1bxgY2jER_rVH5jXdThE,Paya Lebar Stn Exit B,Singapore 409051,4.4,17,"[""establishment"", ""point_of_interest"", ""transit_station""]",1.3184895,103.8921308,True
Changi Bay,Changi Bay,food,food dining hawker centres restaurants cafes,"food dining hawker centres restaurants cafes near Changi Bay, Changi Bay, Singapore",ChIJq-d3hRY82jERfOWbep52mCs,Changi Village Hawker Centre,"2 Changi Village Rd, Singapore 500002",4.3,13986,"[""establishment"", ""food"", ""point_of_interest"", ""restaurant""]",1.3892375,103.9883008,True
Changi Bay,Changi Bay,food,food dining hawker centres restaurants cafes,"food dining hawker centres restaurants cafes near Changi Bay, Changi Bay, Singapore",ChIJRZsLfzs82jERdIDS29tBjQI,The Coastal Settlement,"200 Netheravon Rd, Singapore 508529",4.2,2570,"[""bar"", ""cafe"", ""establishment"", ""food"", ""point_of_interest"", ""restaurant""]",1.3889899,103.9778095,True
Changi Bay,Changi Bay,food,food dining hawker centres restaurants cafes,"food dining hawker centres restaurants cafes near Changi Bay, Changi Bay, Singapore",ChIJzTkdIhQ82jERAXk5hLrntNM,Changi Village Market,"3 Changi Village Rd, Singapore 500003",4.3,1139,"[""establishment"", ""food"", ""point_of_interest""]",1.3898191,103.9879138,True
Changi Bay,Changi Bay,food,food dining hawker centres restaurants cafes,"food dining hawker centres restaurants cafes near Changi Bay, Changi Bay, Singapore",ChIJXbOGa7Mi2jERyfMdzQOjbIc,Bedok Interchange Hawker Centre,"208B New Upper Changi Rd, Singapore 462208",4.1,2027,"[""establishment"", ""food"", ""point_of_interest"", ""restaurant""]",1.3246551,103.9305263,True
Changi Bay,Changi Bay,food,food dining hawker centres restaurants cafes,"food dining hawker centres restaurants cafes near Changi Bay, Changi Bay, Singapore",ChIJ_c6vFoMZ2jERBWATXfBQ7Aw,Zion Riverside Food Centre,"70 Zion Rd, Singapore 247792",4.2,3990,"[""establishment"", ""food"", ""point_of_interest"", ""restaurant""]",1.2924675,103.8313302,True
Changi Bay,Changi Bay,food,food dining hawker centres restaurants cafes,"food dining hawker centres restaurants cafes near Changi Bay, Changi Bay, Singapore",ChIJ7SUpBGoa2jER31LgG0EuOmk,Holland Drive Market & Food Centre,"44 Holland Dr, Singapore 270044",4.1,3184,"[""establishment"", ""food"", ""point_of_interest"", ""restaurant""]",1.308167,103.7927992,True
Changi Bay,Changi Bay,food,food dining hawker centres restaurants cafes,"food dining hawker centres restaurants cafes near Changi Bay, Changi Bay, Singapore",ChIJdZupgcsb2jERP1Byeb2I-24,Alexandra Village Food Centre,"120 Bukit Merah Lane 1, Singapore 150120",4.2,6383,"[""establishment"", ""food"", ""point_of_interest"", ""restaurant""]",1.2863397,103.8045184,True
Changi Bay,Changi Bay,food,food dining hawker centres restaurants cafes,"food dining hawker centres restaurants cafes near Changi Bay, Changi Bay, Singapore",ChIJYZ8284w82jERmqMxhqDAFWQ,Singapore Food Street,"65 Airport Boulevard, Transit, Level 3 Terminal T3, Singapore 819663",4.2,1165,"[""establishment"", ""food"", ""point_of_interest""]",1.3566264,103.9863923,True
Changi Bay,Changi Bay,food,food dining hawker centres restaurants cafes,"food dining hawker centres restaurants cafes near Changi Bay, Changi Bay, Singapore",ChIJPdJeaJI82jERZQ01avxjkZs,Changi Airport Terminal 2 Kopitiam,"60 Airport Boulevard Terminal 2, 60 Airport Blvd., Level 3M Singapore Changi Airport, Singapore 819643",4.5,11220,"[""establishment"", ""food"", ""point_of_interest""]",1.3555848,103.9884709,True
Changi Bay,Changi Bay,food,food dining hawker centres restaurants cafes,"food dining hawker centres restaurants cafes near Changi Bay, Changi Bay, Singapore",ChIJseQsTQ0Z2jERqpBTWF0Zf84,Maxwell Food Centre,"1 Kadayanallur St, Singapore 069184",4.4,23479,"[""establishment"", ""food"", ""point_of_interest"", ""restaurant"", ""tourist_attraction""]",1.2803361,103.844767,True
Changi Bay,Changi Bay,food,food dining hawker centres restaurants cafes,"food dining hawker centres restaurants cafes near Changi Bay, Changi Bay, Singapore",ChIJ3_Lpm-Eb2jERLpMzVFxi_vs,Seah Im Food Centre,"2 Seah Im Rd, Singapore 099114",4.1,7686,"[""establishment"", ""food"", ""point_of_interest"", ""restaurant""]",1.266651,103.8190281,True
Changi Bay,Changi Bay,food,food dining hawker centres restaurants cafes,"food dining hawker centres restaurants cafes near Changi Bay, Changi Bay, Singapore",ChIJKY77qdYb2jERgrqa1URSZIM,ABC Brickworks Market & Food Centre,"6 Jalan Bukit Merah, Singapore 150006",4.2,8448,"[""establishment"", ""food"", ""point_of_interest"", ""restaurant""]",1.2869047,103.8081551,True
Changi Bay,Changi Bay,food,food dining hawker centres restaurants cafes,"food dining hawker centres restaurants cafes near Changi Bay, Changi Bay, Singapore",ChIJkalS-tQb2jERyBBUWbQg3eg,Redhill Food Centre,"85 Redhill Ln, Singapore 150085",4.2,2651,"[""establishment"", ""food"", ""point_of_interest"", ""restaurant""]",1.287294,103.8181829,True
Changi Bay,Changi Bay,food,food dining hawker centres restaurants cafes,"food dining hawker centres restaurants cafes near Changi Bay, Changi Bay, Singapore",ChIJgdA9gxI92jERDUu5M8J1tuc,Hawker Centre @ Our Tampines Hub,"1 Tampines Walk, Singapore 529523",4.0,999,"[""establishment"", ""food"", ""point_of_interest"", ""restaurant""]",1.3538531,103.9398238,True
Changi Bay,Changi Bay,food,food dining hawker centres restaurants cafes,"food dining hawker centres restaurants cafes near Changi Bay, Changi Bay, Singapore",ChIJf3Yu7bsb2jERADDFSroHkq0,Pasir Panjang Food Centre,"121 Pasir Panjang Rd, Singapore 118543",4.0,3521,"[""establishment"", ""food"", ""point_of_interest"", ""restaurant""]",1.27598,103.7912552,True
Changi Bay,Changi Bay,food,food dining hawker centres restaurants cafes,"food dining hawker centres restaurants cafes near Changi Bay, Changi Bay, Singapore",ChIJG67CHhc82jER-V3_KHVPaJY,Weng Kee Original Taste Ipoh Hor Fun,"2 Changi Village Rd, #01-19, Singapore 500002",4.0,179,"[""establishment"", ""food"", ""point_of_interest"", ""restaurant""]",1.3891661,103.9881935,True
Changi Bay,Changi Bay,food,food dining hawker centres restaurants cafes,"food dining hawker centres restaurants cafes near Changi Bay, Changi Bay, Singapore",ChIJzyyRZWUb2jERYQW51dRsmjc,Margaret Drive Hawker Centre,"38A Margaret Dr, Singapore 142038",3.9,763,"[""establishment"", ""food"", ""point_of_interest"", ""restaurant""]",1.2974238,103.8047286,True
Changi Bay,Changi Bay,food,food dining hawker centres restaurants cafes,"food dining hawker centres restaurants cafes near Changi Bay, Changi Bay, Singapore",ChIJI-gKldYb2jERNcM2c5yLxNc,Bukit Merah Central Food Centre,"163 Bukit Merah Central, Singapore 150163",4.0,1388,"[""establishment"", ""food"", ""point_of_interest"", ""restaurant""]",1.2834536,103.8174057,True
Changi Bay,Changi Bay,food,food dining hawker centres restaurants cafes,"food dining hawker centres restaurants cafes near Changi Bay, Changi Bay, Singapore",ChIJ1Y5ET7A92jERgEtUCvAQepI,Pasir Ris Central Hawker Centre,"110 Pasir Ris Central, Singapore 519641",4.1,2146,"[""establishment"", ""food"", ""point_of_interest"", ""restaurant""]",1.373373,103.9516601,True
Changi Bay,Changi Bay,food,food dining hawker centres restaurants cafes,"food dining hawker centres restaurants cafes near Changi Bay, Changi Bay, Singapore",ChIJ5Y6l4Q0Z2jERYL0KDIjT6v0,Lau Pa Sat,"18 Raffles Quay, Singapore 048582",4.4,38467,"[""establishment"", ""food"", ""point_of_interest"", ""restaurant"", ""tourist_attraction""]",1.2805121,103.8503809,True
Changi Bay,Changi Bay,shopping,shopping groceries malls supermarkets markets,"shopping groceries malls supermarkets markets near Changi Bay, Changi Bay, Singapore",ChIJPyKq0o082jERd1bghvwiadU,Changi City Point,"5 Changi Business Park Central 1, Singapore 486038",4.3,12575,"[""establishment"", ""point_of_interest"", ""shopping_mall""]",1.3342732,103.9627387,True
Changi Bay,Changi Bay,shopping,shopping groceries malls supermarkets markets,"shopping groceries malls supermarkets markets near Changi Bay, Changi Bay, Singapore",ChIJzTkdIhQ82jERAXk5hLrntNM,Changi Village Market,"3 Changi Village Rd, Singapore 500003",4.3,1139,"[""establishment"", ""food"", ""point_of_interest""]",1.3898191,103.9879138,True
Changi Bay,Changi Bay,shopping,shopping groceries malls supermarkets markets,"shopping groceries malls supermarkets markets near Changi Bay, Changi Bay, Singapore",ChIJg27o3Q492jERFc2innzfKu0,FairPrice Finest (Jewel Changi Airport),"78 Airport Blvd., Jewel #B2-205, 206 Singapore Changi Airport, Singapore 819666",4.4,292,"[""establishment"", ""food"", ""grocery_or_supermarket"", ""point_of_interest"", ""store"", ""supermarket""]",1.3603912,103.989642,True
Changi Bay,Changi Bay,shopping,shopping groceries malls supermarkets markets,"shopping groceries malls supermarkets markets near Changi Bay, Changi Bay, Singapore",ChIJw3l-FL4X2jERw2pScvHQCbg,Jewel Changi Airport,Singapore,4.8,97710,"[""establishment"", ""point_of_interest"", ""shopping_mall"", ""tourist_attraction""]",1.3602094,103.9897598,True
Changi Bay,Changi Bay,shopping,shopping groceries malls supermarkets markets,"shopping groceries malls supermarkets markets near Changi Bay, Changi Bay, Singapore",ChIJhetLvt892jERcApqrWqLIdg,ACE Signature@LIV-Changi,"933 Upper Changi Rd N, #01-01 to #01-08, Singapore 506785",4.4,142,"[""establishment"", ""food"", ""grocery_or_supermarket"", ""point_of_interest"", ""store""]",1.3586073,103.9695464,True
Changi Bay,Changi Bay,shopping,shopping groceries malls supermarkets markets,"shopping groceries malls supermarkets markets near Changi Bay, Changi Bay, Singapore",ChIJxzqK6cg92jERB-QagzzIEzs,Loyang Point,"258-259 Pasir Ris Street 21, Singapore 510259",4.2,2195,"[""establishment"", ""point_of_interest"", ""shopping_mall""]",1.3669795,103.9645538,True
Changi Bay,Changi Bay,shopping,shopping groceries malls supermarkets markets,"shopping groceries malls supermarkets markets near Changi Bay, Changi Bay, Singapore",ChIJcxUE46c92jERhaFTIj2CI78,FairPrice Finest Changi Airport T3,"65 Airport Blvd., Terminal 3 Singapore Changi Airport, Terminal 3, Singapore 819663",3.7,73,"[""establishment"", ""food"", ""grocery_or_supermarket"", ""point_of_interest"", ""store"", ""supermarket""]",1.3556316,103.9869288,True
Changi Bay,Changi Bay,shopping,shopping groceries malls supermarkets markets,"shopping groceries malls supermarkets markets near Changi Bay, Changi Bay, Singapore",ChIJq-d3hRY82jERfOWbep52mCs,Changi Village Hawker Centre,"2 Changi Village Rd, Singapore 500002",4.3,13986,"[""establishment"", ""food"", ""point_of_interest"", ""restaurant""]",1.3892375,103.9883008,True
Changi Bay,Changi Bay,shopping,shopping groceries malls supermarkets markets,"shopping groceries malls supermarkets markets near Changi Bay, Changi Bay, Singapore",ChIJn-gIK6QZ2jERdYjUlDWvNNc,CS Fresh,"252 N Bridge Rd, #B1-01, Singapore 179103",4.3,1753,"[""establishment"", ""food"", ""grocery_or_supermarket"", ""point_of_interest"", ""restaurant"", ""storage"", ""store"", ""supermarket""]",1.2938879,103.853569,True
Changi Bay,Changi Bay,shopping,shopping groceries malls supermarkets markets,"shopping groceries malls supermarkets markets near Changi Bay, Changi Bay, Singapore",ChIJxUOYG7Mi2jERXAvFIJ8W2pM,FairPrice Finest Bedok Mall,"311 New Upper Changi Road B2, #60, Singapore 467360",4.3,1555,"[""establishment"", ""food"", ""grocery_or_supermarket"", ""point_of_interest"", ""store"", ""supermarket""]",1.3244384,103.9286889,True
Changi Bay,Changi Bay,shopping,shopping groceries malls supermarkets markets,"shopping groceries malls supermarkets markets near Changi Bay, Changi Bay, Singapore",ChIJ9_7w3iQZ2jER7mtoL9cUKdU,FairPrice Xtra VivoCity,"1 HarbourFront Walk, #01-23 & #B2-23, 1 HarbourFront Walk, #B2-23 VivoCity, Singapore 098585",4.5,2150,"[""establishment"", ""food"", ""grocery_or_supermarket"", ""point_of_interest"", ""store"", ""supermarket""]",1.2642274,103.8229442,True
Changi Bay,Changi Bay,shopping,shopping groceries malls supermarkets markets,"shopping groceries malls supermarkets markets near Changi Bay, Changi Bay, Singapore",ChIJl_sOMpIZ2jERxxBnQVJpECQ,CS Fresh Gold Paragon,"290 Orchard Rd, B1-21/22 Paragon, Singapore 238859",4.3,926,"[""establishment"", ""food"", ""grocery_or_supermarket"", ""point_of_interest"", ""store"", ""supermarket""]",1.3036312,103.835694,True
Changi Bay,Changi Bay,shopping,shopping groceries malls supermarkets markets,"shopping groceries malls supermarkets markets near Changi Bay, Changi Bay, Singapore",ChIJTyWXW4EZ2jERvzrznx6-XSc,"Little Farms Market, Valley Point (Grocery store)","491 River Valley Rd, #01-20, Singapore 248371",4.5,862,"[""establishment"", ""food"", ""grocery_or_supermarket"", ""point_of_interest"", ""store""]",1.2931219,103.8269124,True
Changi Bay,Changi Bay,shopping,shopping groceries malls supermarkets markets,"shopping groceries malls supermarkets markets near Changi Bay, Changi Bay, Singapore",ChIJP-DyGdUb2jER4JzqRS-ubV8,Redhill Market,"79 Redhill Ln, Singapore 150079",4.2,3625,"[""establishment"", ""point_of_interest""]",1.2878415,103.8182751,True
Changi Bay,Changi Bay,shopping,shopping groceries malls supermarkets markets,"shopping groceries malls supermarkets markets near Changi Bay, Changi Bay, Singapore",ChIJJ6SpJdwZ2jER3cMcWGFXnTc,"Little Farms Market, Tanglin Mall (Grocery store)","163 Tanglin Rd, #02-136, Singapore 247933",4.6,273,"[""cafe"", ""establishment"", ""food"", ""grocery_or_supermarket"", ""point_of_interest"", ""restaurant"", ""store""]",1.3050246,103.8235685,True
Changi Bay,Changi Bay,shopping,shopping groceries malls supermarkets markets,"shopping groceries malls supermarkets markets near Changi Bay, Changi Bay, Singapore",ChIJu3mTX4MZ2jERLCptOU3zEXQ,CS Fresh Great World,"1 Kim Seng Promenade, #B1 - 139, Singapore 237994",4.2,1115,"[""establishment"", ""food"", ""grocery_or_supermarket"", ""point_of_interest"", ""store"", ""supermarket""]",1.2942052,103.8319203,True
Changi Bay,Changi Bay,shopping,shopping groceries malls supermarkets markets,"shopping groceries malls supermarkets markets near Changi Bay, Changi Bay, Singapore",ChIJVaxrUIoZ2jER2XUwyAC7Svw,CS Fresh Gold,"163 Tanglin Rd, #B1-101, Singapore 247933",4.4,751,"[""bakery"", ""establishment"", ""food"", ""grocery_or_supermarket"", ""point_of_interest"", ""storage"", ""store"", ""supermarket""]",1.3050717,103.8239546,True
Changi Bay,Changi Bay,shopping,shopping groceries malls supermarkets markets,"shopping groceries malls supermarkets markets near Changi Bay, Changi Bay, Singapore",ChIJB14IQoMZ2jERyjiLXouuJe0,Great World,"1 Kim Seng Promenade, Singapore 237994",4.3,7814,"[""establishment"", ""point_of_interest"", ""shopping_mall""]",1.2936417,103.8319293,True
Changi Bay,Changi Bay,shopping,shopping groceries malls supermarkets markets,"shopping groceries malls supermarkets markets near Changi Bay, Changi Bay, Singapore",ChIJg6KI8ZEZ2jER9W7OwvUXPRs,Takashimaya Shopping Centre,"391 Orchard Rd, Singapore 238872",4.5,12206,"[""establishment"", ""point_of_interest"", ""shopping_mall""]",1.3024048,103.8347024,True
Changi Bay,Changi Bay,shopping,shopping groceries malls supermarkets markets,"shopping groceries malls supermarkets markets near Changi Bay, Changi Bay, Singapore",ChIJp0JVlEIa2jER9lM6m1VP3S0,CS Fresh The Star Vista,"1 Vista Exchange Green #B1-02&35/36, The Star Vista, Singapore 138617",3.9,401,"[""establishment"", ""food"", ""grocery_or_supermarket"", ""point_of_interest"", ""storage"", ""store"", ""supermarket""]",1.3068384,103.7879216,True
Changi Bay,Changi Bay,recreation,recreation sports gyms swimming community clubs,"recreation sports gyms swimming community clubs near Changi Bay, Changi Bay, Singapore",ChIJs6XD7d482jERSe1xuAHuVjY,SUTD Sports and Recreation Centre,"61 Changi South Ave 1, Singapore 486000",4.5,381,"[""establishment"", ""point_of_interest""]",1.3417858,103.9647378,True
Changi Bay,Changi Bay,recreation,recreation sports gyms swimming community clubs,"recreation sports gyms swimming community clubs near Changi Bay, Changi Bay, Singapore",ChIJfwlSIt482jER7yY_s9mjfHg,SIA Sports Club,"726 Upper Changi Rd E, Singapore 486046",4.2,675,"[""establishment"", ""point_of_interest""]",1.3442148,103.9648889,True
Changi Bay,Changi Bay,recreation,recreation sports gyms swimming community clubs,"recreation sports gyms swimming community clubs near Changi Bay, Changi Bay, Singapore",ChIJwxMSITs82jERsbEYqi4g_B4,Changi Beach Club,"2 Andover Rd, Singapore 509984",4.0,427,"[""establishment"", ""point_of_interest""]",1.3902019,103.9755178,True
Changi Bay,Changi Bay,recreation,recreation sports gyms swimming community clubs,"recreation sports gyms swimming community clubs near Changi Bay, Changi Bay, Singapore",ChIJ63CtJbA92jERHCySfnqil9c,Pasir Ris Sport Centre,"120 Pasir Ris Central, Singapore 519640",4.2,1016,"[""establishment"", ""gym"", ""health"", ""point_of_interest""]",1.3740237,103.9514946,True
Changi Bay,Changi Bay,recreation,recreation sports gyms swimming community clubs,"recreation sports gyms swimming community clubs near Changi Bay, Changi Bay, Singapore",ChIJj69OSrA92jER42yLl8ctTU0,Pasir Ris Swimming Complex,"120 Pasir Ris Central, Singapore 519640",4.1,422,"[""establishment"", ""point_of_interest""]",1.3743382,103.9521336,True
Changi Bay,Changi Bay,recreation,recreation sports gyms swimming community clubs,"recreation sports gyms swimming community clubs near Changi Bay, Changi Bay, Singapore",ChIJ1xgTQ7Ui2jERqLDkdtiHQl8,Heartbeat @ Bedok ActiveSG Swimming Complex,"Heartbeat@Bedok, 11 Bedok North Street 1, #5 Level, Singapore 469662",4.4,4143,"[""establishment"", ""point_of_interest""]",1.3269164,103.9321636,True
Changi Bay,Changi Bay,recreation,recreation sports gyms swimming community clubs,"recreation sports gyms swimming community clubs near Changi Bay, Changi Bay, Singapore",ChIJ84xKhBc82jERLY4gV_u2jGo,Civil Service Club @ Changi,"2 Netheravon Rd, Singapore 508503",4.3,2304,"[""bowling_alley"", ""establishment"", ""lodging"", ""point_of_interest""]",1.3914147,103.9862467,True
Changi Bay,Changi Bay,recreation,recreation sports gyms swimming community clubs,"recreation sports gyms swimming community clubs near Changi Bay, Changi Bay, Singapore",ChIJe1oNt-Mj2jER7tKZyyQFd-s,National Service Resort & Country Club,"10 Changi Coast Walk, Singapore 499739",4.3,2094,"[""establishment"", ""point_of_interest""]",1.3185099,103.974553,True
Changi Bay,Changi Bay,recreation,recreation sports gyms swimming community clubs,"recreation sports gyms swimming community clubs near Changi Bay, Changi Bay, Singapore",ChIJRQBn6loY2jERjqNd6Z0qL1k,Singapore Swimming Club,"45 Tanjong Rhu Rd, Singapore Swimming Club, Singapore 436899",4.4,1202,"[""establishment"", ""point_of_interest""]",1.2972808,103.8818315,True
Changi Bay,Changi Bay,recreation,recreation sports gyms swimming community clubs,"recreation sports gyms swimming community clubs near Changi Bay, Changi Bay, Singapore",ChIJu6Cmom8Y2jERdP5dspAyYb8,Chinese Swimming Club,"21 Amber Rd, Singapore 439870",4.4,894,"[""establishment"", ""point_of_interest""]",1.3000629,103.9005851,True
Changi Bay,Changi Bay,recreation,recreation sports gyms swimming community clubs,"recreation sports gyms swimming community clubs near Changi Bay, Changi Bay, Singapore",ChIJO6G5FTs82jER4FH2FMxLlb4,Changi Beach Club Sports Complex,"350 Cranwell Rd, Singapore 509864",4.2,72,"[""establishment"", ""point_of_interest""]",1.3897361,103.9766143,True
Changi Bay,Changi Bay,recreation,recreation sports gyms swimming community clubs,"recreation sports gyms swimming community clubs near Changi Bay, Changi Bay, Singapore",ChIJe__sLzw92jER4EovWn2Vpvs,Changi Airport Recreation Club,"60 Airport Boulevard, T2 Car Park 2B, 3 &, #3M Level, Singapore 819643",3.9,37,"[""cafe"", ""establishment"", ""food"", ""point_of_interest""]",1.3571436,103.9898675,True
Changi Bay,Changi Bay,recreation,recreation sports gyms swimming community clubs,"recreation sports gyms swimming community clubs near Changi Bay, Changi Bay, Singapore",ChIJJxDW89482jERRMn9k4Lopxc,SUTD Gym Fitness Centre,"61 Changi South Ave 1, Singapore 485997",4.5,31,"[""establishment"", ""gym"", ""health"", ""point_of_interest""]",1.341821,103.9648015,True
Changi Bay,Changi Bay,nature,parks gardens nature waterfront park connectors,"parks gardens nature waterfront park connectors near Changi Bay, Changi Bay, Singapore",ChIJ-71pnJ092jERTlqtddnAs-0,Changi Bay Park Connector,"2a Changi Ferry Rd, Singapore",4.5,53,"[""establishment"", ""park"", ""point_of_interest""]",1.3708445,104.0048402,True
Changi Bay,Changi Bay,nature,parks gardens nature waterfront park connectors,"parks gardens nature waterfront park connectors near Changi Bay, Changi Bay, Singapore",ChIJY0kSiJkl2jERtzfFttAnxoE,Changi Bay Point,Singapore,4.6,299,"[""establishment"", ""point_of_interest""]",1.3697652,104.0137894,True
Changi Bay,Changi Bay,nature,parks gardens nature waterfront park connectors,"parks gardens nature waterfront park connectors near Changi Bay, Changi Bay, Singapore",ChIJk4ob-zcj2jER_UGC3TOjMHA,Coastal Park Connector,"Coastal Park Connector, Singapore",4.4,60,"[""establishment"", ""park"", ""point_of_interest""]",1.3168708,103.9834989,True
Changi Bay,Changi Bay,nature,parks gardens nature waterfront park connectors,"parks gardens nature waterfront park connectors near Changi Bay, Changi Bay, Singapore",ChIJ8RtDaRc82jERaix796wsTkM,Changi Point Waterfront Park,"Lor Bekukong, Singapore",4.6,22,"[""establishment"", ""park"", ""point_of_interest""]",1.3903944,103.9880082,True
Changi Bay,Changi Bay,nature,parks gardens nature waterfront park connectors,"parks gardens nature waterfront park connectors near Changi Bay, Changi Bay, Singapore",ChIJUzbaYws82jERXHKMRlUKIug,Changi Beach Park,"Nicoll Dr, Singapore 498991",4.5,7805,"[""establishment"", ""park"", ""point_of_interest"", ""tourist_attraction""]",1.3912863,103.9905464,True
Changi Bay,Changi Bay,nature,parks gardens nature waterfront park connectors,"parks gardens nature waterfront park connectors near Changi Bay, Changi Bay, Singapore",ChIJS538BSM92jERtnKcMNUWNoo,Changi Business Park Garden,Singapore 486041,4.1,37,"[""establishment"", ""park"", ""point_of_interest""]",1.3365727,103.9661889,True
Changi Bay,Changi Bay,nature,parks gardens nature waterfront park connectors,"parks gardens nature waterfront park connectors near Changi Bay, Changi Bay, Singapore",ChIJi090zPwS2jERiJCqFWoP8Z4,Woodlands Waterfront Park,"Admiralty Rd W, Singapore 759956",4.5,3993,"[""establishment"", ""park"", ""point_of_interest"", ""tourist_attraction""]",1.4530529,103.7804801,True
Changi Bay,Changi Bay,nature,parks gardens nature waterfront park connectors,"parks gardens nature waterfront park connectors near Changi Bay, Changi Bay, Singapore",ChIJWQw_Gxc92jERnIwu0xfdng8,Changi Boardwalk,"Changi Boardwalk, Singapore",4.1,23,"[""establishment"", ""point_of_interest""]",1.3928955,103.982368,True
Changi Bay,Changi Bay,nature,parks gardens nature waterfront park connectors,"parks gardens nature waterfront park connectors near Changi Bay, Changi Bay, Singapore",ChIJPaCM_rc92jERV8tCJVqWweM,Pasir Ris Park Connector,"201 Pasir Ris Rd, Singapore 519147 Pasir Ris Rd, Singapore 519147",4.6,61,"[""establishment"", ""park"", ""point_of_interest""]",1.3819941,103.9494825,True
Changi Bay,Changi Bay,nature,parks gardens nature waterfront park connectors,"parks gardens nature waterfront park connectors near Changi Bay, Changi Bay, Singapore",ChIJxZwgg1kZ2jERfsCcuEg0JC4,Kallang Park Connector,"998 Bendemeer Rd, Singapore 339945",4.4,119,"[""establishment"", ""park"", ""point_of_interest""]",1.3221012,103.8676558,True
Changi Bay,Changi Bay,nature,parks gardens nature waterfront park connectors,"parks gardens nature waterfront park connectors near Changi Bay, Changi Bay, Singapore",ChIJ__8_JqUb2jERpXwPzz-poks,Pasir Panjang Park,"121 Pasir Panjang Rd, Singapore 118543",3.9,16,"[""establishment"", ""park"", ""point_of_interest""]",1.2777905,103.7861067,True
Changi Bay,Changi Bay,nature,parks gardens nature waterfront park connectors,"parks gardens nature waterfront park connectors near Changi Bay, Changi Bay, Singapore",ChIJ0ZnzsXUW2jER9IrUeleR7To,Sengkang Riverside Park,"Anchorvale Street, Singapore 544834",4.4,2243,"[""establishment"", ""park"", ""point_of_interest"", ""tourist_attraction""]",1.3993143,103.8848743,True
Changi Bay,Changi Bay,nature,parks gardens nature waterfront park connectors,"parks gardens nature waterfront park connectors near Changi Bay, Changi Bay, Singapore",ChIJQyASaBc82jERovYnhOXSR7A,Changi Point Coastal Walk,"6 Changi Village Rd, Singapore 509907",4.4,247,"[""establishment"", ""park"", ""point_of_interest""]",1.3902319,103.9883067,True
Changi Bay,Changi Bay,nature,parks gardens nature waterfront park connectors,"parks gardens nature waterfront park connectors near Changi Bay, Changi Bay, Singapore",ChIJX9SN7Vk92jERwP6qvlHplbc,Changi Airport Connector,"Airport Blvd., Singapore",4.5,60,"[""establishment"", ""point_of_interest""]",1.3272961,103.9805513,True
Changi Bay,Changi Bay,nature,parks gardens nature waterfront park connectors,"parks gardens nature waterfront park connectors near Changi Bay, Changi Bay, Singapore",ChIJ0QX_Brki2jER-pZKNdqk_a8,East Coast Park,Singapore,4.6,32015,"[""establishment"", ""park"", ""point_of_interest"", ""tourist_attraction""]",1.3007842,103.9121866,True
Changi Bay,Changi Bay,nature,parks gardens nature waterfront park connectors,"parks gardens nature waterfront park connectors near Changi Bay, Changi Bay, Singapore",ChIJ42oYzrMZ2jERBvQPkuvE8DA,Gardens by the Bay East (Panoramic view),Singapore,4.8,275,"[""establishment"", ""point_of_interest"", ""tourist_attraction""]",1.2881069,103.8690209,True
Changi Bay,Changi Bay,nature,parks gardens nature waterfront park connectors,"parks gardens nature waterfront park connectors near Changi Bay, Changi Bay, Singapore",ChIJied_ZdIT2jERfFB2io7NbV0,Central Catchment Park Connector,"Mandai Rd, Singapore",4.5,547,"[""establishment"", ""point_of_interest""]",1.4105867,103.7783568,True
Changi Bay,Changi Bay,nature,parks gardens nature waterfront park connectors,"parks gardens nature waterfront park connectors near Changi Bay, Changi Bay, Singapore",ChIJQ-JB8ac92jERM18jZukcWnw,Tampines Eco Green,"Tampines Ave 9, Singapore 520491",4.4,863,"[""establishment"", ""park"", ""point_of_interest"", ""tourist_attraction""]",1.3639478,103.9482922,True
Changi Bay,Changi Bay,nature,parks gardens nature waterfront park connectors,"parks gardens nature waterfront park connectors near Changi Bay, Changi Bay, Singapore",ChIJq_5RjPUQ2jERQZR7bzih7tw,Hindhede Nature Park,"Hindhede Dr, Singapore",4.5,970,"[""establishment"", ""park"", ""point_of_interest"", ""tourist_attraction""]",1.3491093,103.7754308,True
Changi Bay,Changi Bay,nature,parks gardens nature waterfront park connectors,"parks gardens nature waterfront park connectors near Changi Bay, Changi Bay, Singapore",ChIJJeg_k0oY2jER3tyt8xkYb9M,Kallang Riverside Park,"Cnr Kallang Road and, Crawford St, Singapore 397732",4.5,1505,"[""establishment"", ""park"", ""point_of_interest"", ""tourist_attraction""]",1.3070353,103.8682849,True
