{
  "version": 0.6,
  "generator": "Overpass API 0.7.62.11 87bfad18",
  "osm3s": {
    "timestamp_osm_base": "2026-07-16T04:06:19Z",
    "timestamp_areas_base": "2026-05-12T07:36:16Z",
    "copyright": "The data included in this document is from www.openstreetmap.org. The data is made available under ODbL."
  },
  "elements": [
    {
      "type": "node",
      "id": 1652500499,
      "lat": 1.2961959,
      "lon": 103.7869593,
      "tags": {
        "addr:city": "Singapore",
        "addr:housenumber": "69",
        "addr:postcode": "139961",
        "addr:street": "Ayer Rajah Crescent",
        "amenity": "clinic",
        "healthcare": "clinic",
        "name": "Dover Medical Centre",
        "opening_hours": "Mo-Fr 08:30-17:30",
        "phone": "+65 67756266"
      }
    },
    {
      "type": "node",
      "id": 1843450677,
      "lat": 1.3126992,
      "lon": 103.7656185,
      "tags": {
        "addr:city": "Singapore",
        "addr:country": "SG",
        "addr:housenumber": "451",
        "addr:postcode": "120451",
        "addr:street": "Clementi Avenue 3",
        "addr:unit": "#02-307",
        "amenity": "clinic",
        "branch": "Clementi",
        "healthcare": "clinic",
        "name": "Clementi Polyclinic",
        "name:ms": "Poliklinik Clementi",
        "opening_hours": "Mo-Fr 08:00-12:00,14:00-16:30; Sa 08:00-12:00; Su off; PH off",
        "operator": "National University Polyclinics",
        "phone": "+65 6355 3000",
        "website": "https://www.nup.com.sg/Pages/Our%20Clinics/our-clinics-clemp.aspx",
        "wheelchair": "yes"
      }
    },
    {
      "type": "node",
      "id": 2491833332,
      "lat": 1.3098536,
      "lon": 103.7685997,
      "tags": {
        "amenity": "clinic",
        "healthcare": "clinic",
        "name": "My Family Clinic"
      }
    },
    {
      "type": "node",
      "id": 2491836241,
      "lat": 1.3098704,
      "lon": 103.7686377,
      "tags": {
        "amenity": "clinic",
        "healthcare": "clinic",
        "healthcare:speciality": "dental_oral_maxillo_facial_surgery",
        "name": "Casa Dental"
      }
    },
    {
      "type": "node",
      "id": 3038816607,
      "lat": 1.2836914,
      "lon": 103.8170178,
      "tags": {
        "addr:city": "Singapore",
        "addr:country": "SG",
        "addr:flats": "#04-3565",
        "addr:housenumber": "163",
        "addr:postcode": "150163",
        "addr:street": "Bukit Merah Central",
        "amenity": "clinic",
        "branch": "Bukit Merah",
        "email": "bukitmerahpolyclinic@singhealth.com.sg",
        "healthcare": "clinic",
        "name": "Bukit Merah Polyclinic",
        "name:ms": "Poliklinik Bukit Merah",
        "opening_hours": "Mo-Fr 08:00-12:00,14:00-16:30; Sa 08:00-12:00; Su off; PH off",
        "operator": "SingHealth",
        "phone": "+65 6643 6969",
        "website": "https://polyclinic.singhealth.com.sg/AboutSingHealthPolyclinics/OurPolyclinics/BukitMerah/Pages/Home.aspx"
      }
    },
    {
      "type": "node",
      "id": 3923016227,
      "lat": 1.3771215,
      "lon": 103.772944,
      "tags": {
        "addr:housenumber": "259",
        "addr:street": "Bukit Panjang Ring Road",
        "amenity": "clinic",
        "check_date": "2024-08-31",
        "healthcare": "clinic",
        "name": "Prohealth",
        "opening_hours": "24/7"
      }
    },
    {
      "type": "node",
      "id": 4368147044,
      "lat": 1.3110846,
      "lon": 103.7952681,
      "tags": {
        "addr:housenumber": "6",
        "addr:street": "Lorong Mambong",
        "amenity": "clinic",
        "name": "BOEY @ Holland V Family Clinic"
      }
    },
    {
      "type": "node",
      "id": 4465898691,
      "lat": 1.3935916,
      "lon": 103.909454,
      "tags": {
        "amenity": "clinic",
        "healthcare": "clinic"
      }
    },
    {
      "type": "node",
      "id": 4483878497,
      "lat": 1.29925,
      "lon": 103.8534007,
      "tags": {
        "amenity": "clinic",
        "check_date": "2025-03-12",
        "healthcare": "clinic",
        "level": "0",
        "name": "Inmed",
        "toilets:wheelchair": "no",
        "wheelchair": "limited"
      }
    },
    {
      "type": "node",
      "id": 4494189991,
      "lat": 1.301773,
      "lon": 103.8577221,
      "tags": {
        "addr:housenumber": "390 #03-34",
        "addr:postcode": "188061",
        "addr:street": "Victoria Street",
        "amenity": "clinic",
        "healthcare": "clinic",
        "name": "KiroLounge - The Spine Place",
        "opening_hours": "Tu-Fr 10:00-12:30, 16:00-19:30; Sa 09:00-12:30; PH off",
        "operator": "KiroLounge",
        "phone": "+6563363738",
        "website": "https://thekirolounge.com/"
      }
    },
    {
      "type": "node",
      "id": 4502007590,
      "lat": 1.3208122,
      "lon": 103.8621964,
      "tags": {
        "addr:city": "Singapore",
        "addr:housenumber": "102",
        "addr:postcode": "322102",
        "addr:street": "Towner Road",
        "addr:unit": "#01-272",
        "amenity": "clinic",
        "healthcare": "clinic",
        "healthcare:speciality": "dermatology",
        "name": "Trans Island Medical Group",
        "name:zh": "环岛西药房",
        "opening_hours": "Mo-Fr 10:30-13:00, 14:00-18:00; Sa 09:30-12:00",
        "phone": "+6562991898"
      }
    },
    {
      "type": "node",
      "id": 4583783511,
      "lat": 1.3195749,
      "lon": 103.88731,
      "tags": {
        "addr:city": "Singapore",
        "addr:country": "SG",
        "addr:housenumber": "21",
        "addr:postcode": "389707",
        "addr:street": "Geylang East Central",
        "amenity": "clinic",
        "branch": "Geylang",
        "email": "geylangpolyclinic@singhealth.com.sg",
        "healthcare": "clinic",
        "name": "Geylang Polyclinic",
        "name:ms": "Poliklinik Geylang",
        "opening_hours": "Mo-Fr 08:00-12:00,14:00-16:30; Sa 08:00-12:00; Su off; PH off",
        "operator": "SingHealth",
        "phone": "+65 6643 6969",
        "source": "Kaart Ground Survey 2017",
        "website": "https://polyclinic.singhealth.com.sg/AboutUs/OurPolyclinics/Pages/SHP-Geylang.aspx"
      }
    },
    {
      "type": "node",
      "id": 4583841487,
      "lat": 1.4307876,
      "lon": 103.7752254,
      "tags": {
        "addr:city": "Singapore",
        "addr:country": "SG",
        "addr:housenumber": "10",
        "addr:postcode": "738579",
        "addr:street": "Woodlands Street 31",
        "amenity": "clinic",
        "branch": "Woodlands",
        "healthcare": "clinic",
        "name": "Woodlands Polyclinic",
        "name:ms": "Poliklinik Woodlands",
        "opening_hours": "Mo-Fr 08:00-12:00,14:00-16:30; Sa 08:00-12:00; Su off; PH off",
        "operator": "National Healthcare Group",
        "phone": "+65 6355 3000",
        "website": "https://www.nhgp.com.sg/Our_Clinics/Woodlands_Polyclinic/"
      }
    },
    {
      "type": "node",
      "id": 4583842089,
      "lat": 1.3496231,
      "lon": 103.7307295,
      "tags": {
        "addr:city": "Singapore",
        "addr:country": "SG",
        "addr:housenumber": "190",
        "addr:postcode": "609788",
        "addr:street": "Jurong East Avenue 1",
        "amenity": "clinic",
        "healthcare": "clinic",
        "name": "Jurong Polyclinic",
        "name:ms": "Poliklinik Jurong",
        "opening_hours": "Mo-Fr 08:00-12:00,14:00-16:30; Sa 08:00-12:00; Su off; PH off",
        "operator": "National Healthcare Group",
        "phone": "+65 6355 3000",
        "website": "https://www.nhgp.com.sg/Our_Clinics/Jurong_Polyclinic/"
      }
    },
    {
      "type": "node",
      "id": 4583842091,
      "lat": 1.3520458,
      "lon": 103.747842,
      "tags": {
        "addr:city": "Singapore",
        "addr:country": "SG",
        "addr:housenumber": "50",
        "addr:postcode": "659164",
        "addr:street": "Bukit Batok West Avenue 3",
        "amenity": "clinic",
        "branch": "Bukit Batok",
        "name": "Bukit Batok Polyclinic",
        "name:ms": "Poliklinik Bukit Batok",
        "opening_hours": "Mo-Fr 08:00-12:00,14:00-16:30; Sa 08:00-12:00; Su off; PH off",
        "operator": "National Healthcare Group",
        "phone": "+65 6355 3000",
        "website": "https://www.nhgp.com.sg/Our_Clinics/Bukit_Batok_Polyclinic/"
      }
    },
    {
      "type": "node",
      "id": 4583842093,
      "lat": 1.3572803,
      "lon": 103.9458598,
      "tags": {
        "addr:city": "Singapore",
        "addr:country": "SG",
        "addr:housenumber": "1",
        "addr:postcode": "529203",
        "addr:street": "Tampines Street 41",
        "amenity": "clinic",
        "branch": "Tampines",
        "email": "tampinespolyclinic@singhealth.com.sg",
        "healthcare": "clinic",
        "name": "Tampines Polyclinic",
        "name:ms": "Poliklinik Tampines",
        "name:zh": "淡滨尼综合诊疗所",
        "opening_hours": "Mo-Fr 08:00-12:00,14:00-16:30; Sa 08:00-12:00; Su off; PH off",
        "operator": "SingHealth",
        "phone": "+65 6643 6969",
        "website": "https://polyclinic.singhealth.com.sg/AboutUs/OurPolyclinics/Pages/SHP-Tampines.aspx"
      }
    },
    {
      "type": "node",
      "id": 4583842094,
      "lat": 1.3926934,
      "lon": 103.8941112,
      "tags": {
        "addr:city": "Singapore",
        "addr:country": "SG",
        "addr:housenumber": "2",
        "addr:postcode": "545025",
        "addr:street": "Sengkang Square",
        "addr:unit": "#01-06",
        "amenity": "clinic",
        "branch": "Sengkang",
        "healthcare": "clinic",
        "healthcare:speciality": "general",
        "level": "0;1;2",
        "name": "Sengkang Polyclinic",
        "name:ms": "Poliklinik Sengkang",
        "opening_hours": "Mo-Fr 08:00-13:00,14:00-16:30; Sa 08:00-12:30; Su off; PH off",
        "operator": "SingHealth"
      }
    },
    {
      "type": "node",
      "id": 4583842097,
      "lat": 1.2799045,
      "lon": 103.8381683,
      "tags": {
        "addr:city": "Singapore",
        "addr:country": "SG",
        "addr:housename": "Health Promotion Board Building",
        "addr:housenumber": "3",
        "addr:postcode": "168937",
        "addr:street": "Second Hospital Avenue",
        "addr:unit": "#02-00",
        "amenity": "clinic",
        "branch": "Outram",
        "email": "outrampolyclinic@singhealth.com.sg",
        "healthcare": "clinic",
        "name": "Outram Polyclinic",
        "name:ms": "Poliklinik Outram",
        "opening_hours": "Mo-Fr 08:00-12:00,14:00-16:30; Sa 08:00-12:00; Su off; PH off",
        "operator": "SingHealth",
        "phone": "+65 6643 6969",
        "website": "https://polyclinic.singhealth.com.sg/AboutUs/OurPolyclinics/Pages/SHP-Outram.aspx"
      }
    },
    {
      "type": "node",
      "id": 4583842098,
      "lat": 1.3025477,
      "lon": 103.9077648,
      "tags": {
        "addr:city": "Singapore",
        "addr:country": "SG",
        "addr:housenumber": "80",
        "addr:postcode": "440080",
        "addr:street": "Marine Parade Central",
        "amenity": "clinic",
        "branch": "Marine Parade",
        "email": "marineparadepolyclinic@singhealth.com.sg",
        "healthcare": "clinic",
        "name": "Marine Parade Polyclinic",
        "name:ms": "Poliklinik Marine Parade",
        "opening_hours": "Mo-Fr 08:00-12:00,14:00-16:30; Sa 08:00-12:00; Su off; PH off",
        "operator": "SingHealth",
        "phone": "+65 6643 6969",
        "website": "https://polyclinic.singhealth.com.sg/AboutUs/OurPolyclinics/Pages/SHP-MarineParade.aspx#"
      }
    },
    {
      "type": "node",
      "id": 4583842101,
      "lat": 1.3269378,
      "lon": 103.9316066,
      "tags": {
        "addr:city": "Singapore",
        "addr:country": "SG",
        "addr:housenumber": "212",
        "addr:postcode": "460212",
        "addr:street": "Bedok North Street 1",
        "addr:unit": "#03-147",
        "amenity": "clinic",
        "branch": "Bedok",
        "email": "bedokpolyclinic@singhealth.com.sg",
        "healthcare": "clinic",
        "healthcare:speciality": "fertility",
        "name": "Bedok Polyclinic",
        "name:ms": "Poliklinik Bedok",
        "opening_hours": "Mo-Fr 08:00-12:00,14:00-16:30; Sa 08:00-12:00; Su off; PH off",
        "operator": "SingHealth",
        "phone": "+65 6643 6969",
        "website": "https://polyclinic.singhealth.com.sg/AboutUs/OurPolyclinics/Pages/SHP-Bedok.aspx"
      }
    },
    {
      "type": "node",
      "id": 4583845858,
      "lat": 1.3686674,
      "lon": 103.9592631,
      "tags": {
        "addr:city": "Singapore",
        "addr:country": "SG",
        "addr:housenumber": "1",
        "addr:postcode": "519457",
        "addr:street": "Pasir Ris Drive 4",
        "addr:unit": "#01-11",
        "amenity": "clinic",
        "branch": "Pasir Ris",
        "email": "pasirrispolyclinic@singhealth.com.sg",
        "healthcare": "clinic",
        "name": "Pasir Ris Polyclinic",
        "name:ms": "Poliklinik Pasir Ris",
        "opening_hours": "Mo-Fr 08:00-12:00,14:00-16:30; Sa 08:00-12:00; Su off; PH off",
        "operator": "SingHealth",
        "phone": "+65 6643 6969",
        "website": "https://polyclinic.singhealth.com.sg/AboutUs/OurPolyclinics/Pages/SHP-.aspx"
      }
    },
    {
      "type": "node",
      "id": 4599780491,
      "lat": 1.3277349,
      "lon": 103.9213776,
      "tags": {
        "addr:city": "Singapore",
        "addr:country": "SG",
        "addr:housenumber": "351",
        "addr:postcode": "468982",
        "addr:street": "Chai Chee Street",
        "alt_name": "Econ Medicare Centre",
        "amenity": "clinic",
        "branch": "Uttamram",
        "healthcare": "clinic",
        "name": "SATA CommHealth Uttamram Medical Centre",
        "opening_hours": "Mo-Fr 08:00-17:30; Sa 08:00-13:30",
        "operator": "SATA CommHealth",
        "phone": "+65 6244 6688",
        "source": "Bing",
        "website": "https://www.sata.com.sg/"
      }
    },
    {
      "type": "node",
      "id": 4619401089,
      "lat": 1.3278759,
      "lon": 103.9211969,
      "tags": {
        "amenity": "clinic",
        "healthcare": "clinic",
        "name": "Sata",
        "name:en": "Sata"
      }
    },
    {
      "type": "node",
      "id": 4621781812,
      "lat": 1.3710916,
      "lon": 103.848313,
      "tags": {
        "amenity": "clinic",
        "healthcare": "clinic",
        "name": "OneDoctors"
      }
    },
    {
      "type": "node",
      "id": 4621805804,
      "lat": 1.4172444,
      "lon": 103.8345881,
      "tags": {
        "amenity": "clinic",
        "name": "OneDoctors"
      }
    },
    {
      "type": "node",
      "id": 4621805805,
      "lat": 1.3499221,
      "lon": 103.8730547,
      "tags": {
        "amenity": "clinic",
        "healthcare": "clinic",
        "name": "OneDoctors"
      }
    },
    {
      "type": "node",
      "id": 4631657933,
      "lat": 1.3024631,
      "lon": 103.7930402,
      "tags": {
        "addr:city": "Singapore",
        "addr:housenumber": "8",
        "addr:postcode": "138665",
        "addr:street": "Biomedical Grove",
        "amenity": "clinic",
        "healthcare": "clinic",
        "name": "Osteopathic Healthcare Pte Ltd"
      }
    },
    {
      "type": "node",
      "id": 4631661761,
      "lat": 1.3023049,
      "lon": 103.7930458,
      "tags": {
        "addr:city": "Singapore",
        "addr:housenumber": "8",
        "addr:postcode": "138648",
        "addr:street": "Biomedical Grove",
        "amenity": "clinic",
        "healthcare": "clinic",
        "name": "The Rehab Practice (Paediatric) Pte Ltd",
        "opening_hours": "09:15-17:30"
      }
    },
    {
      "type": "node",
      "id": 4633815489,
      "lat": 1.3023032,
      "lon": 103.7932408,
      "tags": {
        "amenity": "clinic",
        "healthcare": "clinic",
        "name": "Ear, Nose & Throat Specialist Clinic"
      }
    },
    {
      "type": "node",
      "id": 4634033881,
      "lat": 1.3290692,
      "lon": 103.8869128,
      "tags": {
        "amenity": "clinic",
        "healthcare": "clinic",
        "name": "Lifecare Medical Centre"
      }
    },
    {
      "type": "node",
      "id": 4634041220,
      "lat": 1.3288707,
      "lon": 103.8871937,
      "tags": {
        "amenity": "clinic",
        "healthcare": "clinic",
        "name": "Ang Liang Medical Hall"
      }
    },
    {
      "type": "node",
      "id": 4664735179,
      "lat": 1.3620169,
      "lon": 103.952748,
      "tags": {
        "amenity": "clinic",
        "healthcare": "clinic",
        "name": "Cecilia Family Clinic & Surgery"
      }
    },
    {
      "type": "node",
      "id": 4664735180,
      "lat": 1.3619964,
      "lon": 103.9534674,
      "tags": {
        "amenity": "clinic",
        "healthcare": "clinic",
        "name": "Choong's Clinic"
      }
    },
    {
      "type": "node",
      "id": 4670075217,
      "lat": 1.3521815,
      "lon": 103.954022,
      "tags": {
        "amenity": "clinic",
        "healthcare": "clinic",
        "source": "Kaart Ground Survey 2017"
      }
    },
    {
      "type": "node",
      "id": 4682762243,
      "lat": 1.3119584,
      "lon": 103.922067,
      "tags": {
        "addr:street": "East Coast Road",
        "amenity": "clinic",
        "healthcare": "clinic",
        "name": "Frankel Clinic",
        "source": "Kaart Ground Survey 2017"
      }
    },
    {
      "type": "node",
      "id": 4682762244,
      "lat": 1.3119289,
      "lon": 103.9219988,
      "tags": {
        "addr:street": "East Coast Road",
        "amenity": "clinic",
        "healthcare": "clinic",
        "name": "Liang Clinic",
        "source": "Kaart Ground Survey 2017"
      }
    },
    {
      "type": "node",
      "id": 4683756262,
      "lat": 1.3132177,
      "lon": 103.9293425,
      "tags": {
        "addr:city": "Singapore",
        "addr:housenumber": "108",
        "addr:postcode": "455297",
        "addr:street": "Upper East Coast Road",
        "amenity": "clinic",
        "healthcare": "clinic",
        "name": "C & K Family Clinic",
        "source": "Kaart Ground Survey 2017"
      }
    },
    {
      "type": "node",
      "id": 4684139323,
      "lat": 1.3062498,
      "lon": 103.9056588,
      "tags": {
        "addr:street": "East Coast Road",
        "amenity": "clinic",
        "healthcare": "clinic",
        "name": "Thomson Women's Centre",
        "source": "Kaart Ground Survey 2017"
      }
    },
    {
      "type": "node",
      "id": 4685494137,
      "lat": 1.3275353,
      "lon": 103.9347244,
      "tags": {
        "addr:street": "Bedok North Street 1",
        "amenity": "clinic",
        "healthcare": "clinic",
        "name": "Bedok Family Clinic & Surgery",
        "source": "Kaart Ground Survey 2017"
      }
    },
    {
      "type": "node",
      "id": 4689375096,
      "lat": 1.3181617,
      "lon": 103.9071018,
      "tags": {
        "addr:street": "Changi Road",
        "amenity": "clinic",
        "healthcare": "clinic",
        "name": "Lim Clinic",
        "source": "Kaart Ground Survey 2017",
        "wheelchair": "no"
      }
    },
    {
      "type": "node",
      "id": 4689443914,
      "lat": 1.3149067,
      "lon": 103.8905887,
      "tags": {
        "addr:street": "Geylang Road",
        "amenity": "clinic",
        "healthcare": "clinic",
        "name": "M. Lam Clinic",
        "source": "Kaart Ground Survey 2017"
      }
    },
    {
      "type": "node",
      "id": 4689499454,
      "lat": 1.31277,
      "lon": 103.8794922,
      "tags": {
        "addr:street": "Geylang Road",
        "amenity": "clinic",
        "healthcare": "clinic",
        "name": "Xinhuo Medical Clinic",
        "source": "Kaart Ground Survey 2017"
      }
    },
    {
      "type": "node",
      "id": 4689590455,
      "lat": 1.3167538,
      "lon": 103.9016327,
      "tags": {
        "addr:street": "Changi Road",
        "amenity": "clinic",
        "healthcare": "clinic",
        "name": "Geylang Serai Clinic",
        "source": "Kaart Ground Survey 2017"
      }
    },
    {
      "type": "node",
      "id": 4695847066,
      "lat": 1.3150317,
      "lon": 103.8829388,
      "tags": {
        "addr:street": "Sims Avenue",
        "amenity": "clinic",
        "healthcare": "clinic",
        "name": "ECM X-Ray Centre PTE LTD",
        "source": "Kaart Ground Survey 2017"
      }
    },
    {
      "type": "node",
      "id": 4695847067,
      "lat": 1.3149644,
      "lon": 103.8826951,
      "tags": {
        "addr:street": "Sims Avenue",
        "amenity": "clinic",
        "healthcare": "clinic",
        "name": "ECM Clinic & Surgery PTE LTD",
        "source": "Kaart Ground Survey 2017",
        "wheelchair": "limited"
      }
    },
    {
      "type": "node",
      "id": 4696036288,
      "lat": 1.3213131,
      "lon": 103.9027504,
      "tags": {
        "addr:street": "Eunos Crescent",
        "amenity": "clinic",
        "healthcare": "clinic",
        "name": "Crescent Clinic & Surgery",
        "source": "Kaart Ground Survey 2017"
      }
    },
    {
      "type": "node",
      "id": 4696246671,
      "lat": 1.319258,
      "lon": 103.8866552,
      "tags": {
        "addr:housenumber": "119",
        "addr:street": "Geylang East Central",
        "amenity": "clinic",
        "healthcare": "clinic",
        "name": "Central Clinic",
        "source": "Kaart Ground Survey 2017"
      }
    },
    {
      "type": "node",
      "id": 4701839583,
      "lat": 1.3725723,
      "lon": 103.8856713,
      "tags": {
        "addr:street": "Hougang Avenue 4",
        "amenity": "clinic",
        "healthcare": "clinic",
        "level": "0",
        "name": "Central 24-Hr Clinic (Hougang)"
      }
    },
    {
      "type": "node",
      "id": 4701887198,
      "lat": 1.309495,
      "lon": 103.9119627,
      "tags": {
        "addr:street": "Telok Kurau Court",
        "amenity": "clinic",
        "healthcare": "clinic",
        "name": "Siglap Clinic",
        "source": "Kaart Ground Survey 2017",
        "wheelchair": "yes"
      }
    },
    {
      "type": "node",
      "id": 4702309475,
      "lat": 1.3105762,
      "lon": 103.9016544,
      "tags": {
        "addr:housenumber": "259",
        "addr:street": "Joo Chiat Road",
        "amenity": "clinic",
        "healthcare": "clinic",
        "name": "Wong Pang Ong Bone Injury Specialists",
        "source": "Kaart Ground Survey 2017"
      }
    },
    {
      "type": "node",
      "id": 4702468229,
      "lat": 1.3070444,
      "lon": 103.9040604,
      "tags": {
        "addr:street": "Joo Chiat Road",
        "amenity": "clinic",
        "healthcare": "clinic",
        "name": "EstheClinic Paris",
        "source": "Kaart Ground Survey 2017"
      }
    },
    {
      "type": "node",
      "id": 4703167425,
      "lat": 1.3784112,
      "lon": 103.7638595,
      "tags": {
        "addr:floor": "2",
        "addr:housenumber": "17",
        "addr:postcode": "678278",
        "addr:street": "Petir Road",
        "addr:unit": "#02-07/08",
        "amenity": "clinic",
        "check_date": "2026-04-19",
        "healthcare": "clinic",
        "level": "1",
        "name": "Raffles Medical",
        "opening_hours": "Mo-Fr 08:30-13:00,14:00-17:30,18:30-21:30; Sa 08:30-13:00,14:00-17:30; Su 08:30-13:00",
        "operator": "Raffles Medical",
        "operator:type": "private",
        "payment:cash": "yes",
        "payment:credit_cards": "yes",
        "payment:debit_cards": "yes",
        "payment:mastercard": "yes",
        "payment:nets": "yes",
        "payment:visa": "yes",
        "phone": "+65 6769 0571",
        "website": "https://www.rafflesmedicalgroup.com/clinic/raffles-medical-hillion-mall/",
        "wheelchair": "yes"
      }
    },
    {
      "type": "node",
      "id": 4703885628,
      "lat": 1.3065917,
      "lon": 103.9047052,
      "tags": {
        "addr:street": "Joo Chiat Road",
        "amenity": "clinic",
        "healthcare": "clinic",
        "name": "Lee Clinic",
        "source": "Kaart Ground Survey 2017"
      }
    },
    {
      "type": "node",
      "id": 4703890889,
      "lat": 1.3544962,
      "lon": 103.8791387,
      "tags": {
        "addr:street": "Upper Serangoon Road",
        "amenity": "clinic",
        "healthcare": "clinic",
        "name": "Rhema",
        "source": "Kaart Ground Survey 2017"
      }
    },
    {
      "type": "node",
      "id": 4712211965,
      "lat": 1.3620171,
      "lon": 103.8856749,
      "tags": {
        "addr:street": "Simon Road",
        "amenity": "clinic",
        "healthcare": "clinic",
        "name": "FHC Dialysis Centre Pte Ltd",
        "source": "Kaart Ground Survey 2017"
      }
    },
    {
      "type": "node",
      "id": 4712230311,
      "lat": 1.2893158,
      "lon": 103.8171453,
      "tags": {
        "addr:unit": "07",
        "amenity": "clinic",
        "healthcare": "clinic",
        "level": "0",
        "name": "Redwood Clinic And Surgery",
        "name:zh": "红杉诊所"
      }
    },
    {
      "type": "node",
      "id": 4712355458,
      "lat": 1.3586125,
      "lon": 103.8875676,
      "tags": {
        "addr:street": "Hougang Street 21",
        "amenity": "clinic",
        "healthcare": "clinic",
        "name": "Nam Ann Siang Theon Medical Centre",
        "source": "Kaart Ground Survey 2017"
      }
    },
    {
      "type": "node",
      "id": 4714211698,
      "lat": 1.3698791,
      "lon": 103.8703705,
      "tags": {
        "addr:street": "Serangoon North Avenue 1",
        "amenity": "clinic",
        "healthcare": "clinic",
        "name": "Medicane Associates",
        "source": "Kaart Ground Survey 2017"
      }
    },
    {
      "type": "node",
      "id": 4715503141,
      "lat": 1.3291615,
      "lon": 103.8733882,
      "tags": {
        "addr:street": "MacPherson Road",
        "amenity": "clinic",
        "healthcare": "clinic",
        "name": "TCM Clinic",
        "source": "Kaart Ground Survey 2017"
      }
    },
    {
      "type": "node",
      "id": 4715753016,
      "lat": 1.3401269,
      "lon": 103.8850836,
      "tags": {
        "addr:street": "Jalan Bunga Rampai",
        "amenity": "clinic",
        "healthcare": "clinic",
        "name": "Kong Kian Clinic",
        "source": "Kaart Ground Survey 2017"
      }
    },
    {
      "type": "node",
      "id": 4722664181,
      "lat": 1.4369623,
      "lon": 103.8374022,
      "tags": {
        "addr:street": "Yishun Street 22",
        "amenity": "clinic",
        "name": "Sincere",
        "source": "Kaart Ground Survey 2017"
      }
    },
    {
      "type": "node",
      "id": 4723114956,
      "lat": 1.3653193,
      "lon": 103.8661529,
      "tags": {
        "addr:street": "Kensington Park Road",
        "amenity": "clinic",
        "healthcare": "clinic",
        "name": "Kensing On Family Clinic",
        "source": "Kaart Ground Survey 2017"
      }
    },
    {
      "type": "node",
      "id": 4723114958,
      "lat": 1.3651898,
      "lon": 103.8661498,
      "tags": {
        "addr:city": "Singapore",
        "addr:housenumber": "14",
        "addr:postcode": "557265",
        "addr:street": "Kensington Park Road",
        "amenity": "clinic",
        "healthcare": "clinic",
        "name": "Mediline Wei Min Clinic",
        "source": "Kaart Ground Survey 2017"
      }
    },
    {
      "type": "node",
      "id": 4723114966,
      "lat": 1.3647782,
      "lon": 103.8660983,
      "tags": {
        "addr:street": "Kensington Park Road",
        "amenity": "clinic",
        "check_date": "2024-11-24",
        "healthcare": "clinic",
        "name": "K.N. Lau Clinic",
        "source": "Kaart Ground Survey 2017"
      }
    },
    {
      "type": "node",
      "id": 4723219338,
      "lat": 1.2846024,
      "lon": 103.8496846,
      "tags": {
        "addr:street": "Phillip Street",
        "amenity": "clinic",
        "fixme": "name",
        "healthcare": "clinic",
        "name": "The Medical Clinic",
        "source": "Kaart Ground Survey 2017"
      }
    },
    {
      "type": "node",
      "id": 4724531533,
      "lat": 1.3154371,
      "lon": 103.881475,
      "tags": {
        "addr:street": "Ajunied Road",
        "amenity": "clinic",
        "healthcare": "clinic",
        "name": "Singapore Buddhist Free Clinic",
        "source": "Kaart Ground Survey 2017"
      }
    },
    {
      "type": "node",
      "id": 4726888118,
      "lat": 1.2938773,
      "lon": 103.8513543,
      "tags": {
        "addr:street": "Stamford Road",
        "amenity": "clinic",
        "healthcare": "clinic",
        "name": "Medical Clinic",
        "source": "Kaart Ground Survey 2017"
      }
    },
    {
      "type": "node",
      "id": 4732557585,
      "lat": 1.294114,
      "lon": 103.8422718,
      "tags": {
        "addr:city": "Singapore",
        "addr:housenumber": "240",
        "addr:street": "River Valley Road",
        "amenity": "clinic",
        "contact:facebook": "pinnaclefamilyclinic",
        "email": "pinnaclefcrv@gmail.com",
        "healthcare": "clinic",
        "name": "Pinnacle Family Clinic",
        "opening_hours": "Mo-Fr 08:30-13:00, 14:00-17:00; Sa 09:00-13:00; Su 09:00-12:00",
        "phone": "+6568366986",
        "source": "Kaart Ground Survey 2017",
        "website": "https://www.pinnaclefamilyclinic.com.sg/"
      }
    },
    {
      "type": "node",
      "id": 4734935259,
      "lat": 1.3404956,
      "lon": 103.7731508,
      "tags": {
        "addr:city": "Singapore",
        "addr:housenumber": "84",
        "addr:street": "Jalan Jurong Kechil",
        "amenity": "clinic",
        "name": "Tang Family Clinic",
        "opening_hours": "Mo-Fr 09:00-16:00; Sa 09:00-14:30; Su 09:00-12:30",
        "source": "Reconocimiento terrestre por Kaart 2017"
      }
    },
    {
      "type": "node",
      "id": 4734935262,
      "lat": 1.340453,
      "lon": 103.7733342,
      "tags": {
        "addr:city": "Singapore",
        "addr:housenumber": "76",
        "addr:street": "Jalan Jurong Kechil",
        "amenity": "clinic",
        "name": "Cheong Medical Clinic",
        "name:zh": "张大药房",
        "source": "Reconocimiento terrestre por Kaart 2017"
      }
    },
    {
      "type": "node",
      "id": 4737144032,
      "lat": 1.3072509,
      "lon": 103.8578754,
      "tags": {
        "amenity": "clinic",
        "healthcare": "clinic",
        "name": "New World Clinic & Surgery",
        "source": "Kaart Ground Survey 2017"
      }
    },
    {
      "type": "node",
      "id": 4738363991,
      "lat": 1.3066129,
      "lon": 103.8569422,
      "tags": {
        "addr:street": "Kelantan Lane",
        "amenity": "clinic",
        "healthcare": "clinic",
        "name": "DSC",
        "source": "Kaart Ground Survey 2017"
      }
    },
    {
      "type": "node",
      "id": 4740088246,
      "lat": 1.3258868,
      "lon": 103.8422296,
      "tags": {
        "addr:street": "Thomson Road",
        "amenity": "clinic",
        "check_date": "2024-04-09",
        "healthcare": "clinic",
        "level": "0",
        "name": "Family Health Clinic & Surgery",
        "opening_hours": "Mo-Fr 10:00-20:00; Sa-Su 10:00-17:00",
        "source": "Kaart Ground Survey 2017",
        "wheelchair": "no"
      }
    },
    {
      "type": "node",
      "id": 4745613613,
      "lat": 1.2850445,
      "lon": 103.8293517,
      "tags": {
        "addr:street": "Kim Tian Road",
        "amenity": "clinic",
        "healthcare": "clinic",
        "name": "Tiong Bahru Medical Centre",
        "source": "Kaart Ground Survey 2017"
      }
    },
    {
      "type": "node",
      "id": 4745692774,
      "lat": 1.3022975,
      "lon": 103.8527701,
      "tags": {
        "addr:city": "Singapore",
        "addr:street": "Bencoolen Street",
        "amenity": "clinic",
        "healthcare": "clinic",
        "name": "Ong's Clinic",
        "source": "Kaart Ground Survey 2017"
      }
    },
    {
      "type": "node",
      "id": 4745692781,
      "lat": 1.2987062,
      "lon": 103.8499262,
      "tags": {
        "addr:city": "Singapore",
        "addr:street": "Bencoolen Street",
        "amenity": "clinic",
        "healthcare": "clinic",
        "name": "Singapura Clinic",
        "source": "Kaart Ground Survey 2017"
      }
    },
    {
      "type": "node",
      "id": 4749012559,
      "lat": 1.3225193,
      "lon": 103.8533757,
      "tags": {
        "addr:street": "Whampoa Drive",
        "amenity": "clinic",
        "healthcare": "clinic",
        "name": "N B Tham Clinic",
        "source": "Kaart Ground Survey 2017"
      }
    },
    {
      "type": "node",
      "id": 4749012561,
      "lat": 1.324766,
      "lon": 103.8578117,
      "tags": {
        "addr:street": "Whampoa Drive",
        "amenity": "clinic",
        "fixme": "name",
        "healthcare": "clinic",
        "name": "No Ai TCM Clinic",
        "source": "Kaart Ground Survey 2017"
      }
    },
    {
      "type": "node",
      "id": 4749237935,
      "lat": 1.3524338,
      "lon": 103.8349052,
      "tags": {
        "addr:city": "Singapore",
        "addr:housenumber": "215H",
        "addr:street": "Upper Thomson Road",
        "amenity": "clinic",
        "healthcare": "clinic",
        "name": "Suwen TCM Clinic Pte Ltd",
        "source": "Kaart Ground Survey 2017"
      }
    },
    {
      "type": "node",
      "id": 4789166721,
      "lat": 1.3579669,
      "lon": 103.9864825,
      "tags": {
        "amenity": "clinic",
        "check_date": "2024-12-29",
        "healthcare": "clinic",
        "level": "1",
        "name": "Raffles Medicial",
        "name:en": "Raffles Medicial"
      }
    },
    {
      "type": "node",
      "id": 4791725123,
      "lat": 1.3506468,
      "lon": 103.8762537,
      "tags": {
        "addr:housenumber": "3",
        "addr:postcode": "531003",
        "addr:street": "Lorong Lew Lian",
        "amenity": "clinic",
        "healthcare": "clinic",
        "name": "Sterling Clinic & Surgery",
        "wheelchair": "yes"
      }
    },
    {
      "type": "node",
      "id": 4843850222,
      "lat": 1.3620335,
      "lon": 103.885093,
      "tags": {
        "amenity": "clinic",
        "healthcare": "clinic",
        "name": "Chiew Clinic",
        "name:en": "Chiew Clinic"
      }
    },
    {
      "type": "node",
      "id": 4972138593,
      "lat": 1.4112949,
      "lon": 103.9005482,
      "tags": {
        "amenity": "clinic",
        "healthcare": "clinic",
        "level": "0",
        "name": "PanHealth Family Clinic",
        "wheelchair": "yes"
      }
    },
    {
      "type": "node",
      "id": 4984715572,
      "lat": 1.2893739,
      "lon": 103.8277584,
      "tags": {
        "addr:city": "Singapore",
        "addr:country": "SG",
        "addr:housenumber": "727",
        "addr:street": "Havelock Road",
        "amenity": "clinic",
        "healthcare": "clinic",
        "name": "Kerbal-Basic TCM Clinic"
      }
    },
    {
      "type": "node",
      "id": 5070707366,
      "lat": 1.2891531,
      "lon": 103.8162302,
      "tags": {
        "addr:city": "Singapore",
        "addr:housenumber": "75D",
        "addr:postcode": "154075",
        "addr:street": "Redhill Road",
        "addr:unit": "01-114",
        "amenity": "clinic",
        "bench": "yes",
        "healthcare": "clinic",
        "name": "Great Wall Acupuncture Clinic",
        "name:zh": "长城中医"
      }
    },
    {
      "type": "node",
      "id": 5217201147,
      "lat": 1.2774422,
      "lon": 103.8402447,
      "tags": {
        "addr:city": "Singapore",
        "addr:housenumber": "#01-27",
        "addr:postcode": "080001",
        "addr:street": "1 Everton Park",
        "amenity": "clinic",
        "healthcare": "clinic",
        "healthcare:speciality": "general",
        "image": "https://www.google.com/maps/uv?pb=!1s0x31da192d60411f87:0xacf7d1551f91fe19!3m1!7e115!4shttps://lh5.googleusercontent.com/p/AF1QipN4HzmAgUIj86OQHr6Ux6GtTWu3kYqHnBsnTbOU%3Dw329-h160-k-no!5sA+Medical+-+Google+Search!15zQ2dJZ0FRPT0&imagekey=!1e10!2sAF1QipN4Hz",
        "name": "A Medical Clinic",
        "phone": "+65 6226 2066",
        "website": "https://amedicalclinic.sg/"
      }
    },
    {
      "type": "node",
      "id": 5414652951,
      "lat": 1.3063613,
      "lon": 103.905867,
      "tags": {
        "amenity": "clinic",
        "healthcare": "clinic",
        "name": "Mount Pleasant Animal Clinic"
      }
    },
    {
      "type": "node",
      "id": 5414652966,
      "lat": 1.30727,
      "lon": 103.906717,
      "tags": {
        "amenity": "clinic",
        "healthcare": "clinic",
        "name": "Katong Baby & Child Clinic"
      }
    },
    {
      "type": "node",
      "id": 5414652967,
      "lat": 1.3072951,
      "lon": 103.9067488,
      "tags": {
        "amenity": "clinic",
        "healthcare": "clinic",
        "name": "Wisteria Xuan TCM"
      }
    },
    {
      "type": "node",
      "id": 5414652970,
      "lat": 1.3076062,
      "lon": 103.9071726,
      "tags": {
        "amenity": "clinic",
        "healthcare": "clinic",
        "name": "Kai Clinic"
      }
    },
    {
      "type": "node",
      "id": 5473001620,
      "lat": 1.3004442,
      "lon": 103.8538867,
      "tags": {
        "amenity": "clinic",
        "healthcare": "clinic",
        "name": "中国中医 Chinese medical centre"
      }
    },
    {
      "type": "node",
      "id": 5474435683,
      "lat": 1.3134311,
      "lon": 103.7655012,
      "tags": {
        "amenity": "clinic",
        "healthcare": "clinic",
        "name": "Central 24-hr clinic",
        "opening_hours": "24/7",
        "wheelchair": "yes"
      }
    },
    {
      "type": "node",
      "id": 5479259708,
      "lat": 1.2890851,
      "lon": 103.8161898,
      "tags": {
        "addr:city": "Singapore",
        "addr:housenumber": "75A",
        "addr:postcode": "151075",
        "addr:street": "Redhill Road",
        "amenity": "clinic",
        "healthcare": "clinic",
        "healthcare:speciality": "Aesthetics;laser_clinic",
        "name": "Dr Steven Ang Asthetic & Family Clinic",
        "opening_hours": "Mo-Fr 09:00-20:00",
        "wheelchair": "limited"
      }
    },
    {
      "type": "node",
      "id": 5479259728,
      "lat": 1.289209,
      "lon": 103.8162429,
      "tags": {
        "amenity": "clinic",
        "healthcare": "clinic",
        "name": "Pacific Family Clinic"
      }
    },
    {
      "type": "node",
      "id": 5484076754,
      "lat": 1.3027238,
      "lon": 103.8524129,
      "tags": {
        "amenity": "clinic",
        "healthcare": "clinic",
        "name": "Ong's Clinic"
      }
    },
    {
      "type": "node",
      "id": 5488345800,
      "lat": 1.4176987,
      "lon": 103.8371166,
      "tags": {
        "addr:city": "Singapore",
        "addr:housenumber": "627",
        "addr:postcode": "760627",
        "addr:street": "Yishun Street 61",
        "amenity": "clinic",
        "healthcare": "clinic",
        "healthcare:speciality": "general",
        "name": "United Health Family Clinic & Surgery",
        "opening_hours": "Mo-Fr 08:30-21:00, Sa-Su 08:30-12:30",
        "operator": "United Health Family Clinic & Surgery"
      }
    },
    {
      "type": "node",
      "id": 5495171375,
      "lat": 1.4171724,
      "lon": 103.8345517,
      "tags": {
        "addr:city": "Singapore",
        "addr:housenumber": "555",
        "addr:postcode": "560555",
        "addr:street": "Ang Mo Kio Avenue 10, #01-1974",
        "amenity": "clinic",
        "healthcare": "clinic",
        "healthcare:speciality": "general",
        "name": "Roy's Family Clinic",
        "opening_hours": "Mo-We 09:00-12:00,14:00-16:00,18:30-20:30; Th,Fr 09:00-12:00,14:00-16:00; Sa 09:00-12:00",
        "operator": "Roy's Family Clinic",
        "operator:type": "private"
      }
    },
    {
      "type": "node",
      "id": 5515378640,
      "lat": 1.3937889,
      "lon": 103.8891266,
      "tags": {
        "amenity": "clinic",
        "healthcare": "clinic",
        "name": "Sunbeam",
        "opening_hours": "Mo-Su 09:00-18:00"
      }
    },
    {
      "type": "node",
      "id": 5515387924,
      "lat": 1.3968872,
      "lon": 103.889332,
      "tags": {
        "amenity": "clinic",
        "healthcare": "clinic",
        "level": "0",
        "name": "Medivene Clinic & Surgery",
        "name:zh": "全康医疗中心",
        "opening_hours": "Mo-Th 08:30-14:00,15:00-20:30; Fr 08:30-14:00; Sa 09:00-13:00; Su closed"
      }
    },
    {
      "type": "node",
      "id": 5628644021,
      "lat": 1.3923951,
      "lon": 103.8763298,
      "tags": {
        "amenity": "clinic",
        "healthcare": "clinic",
        "level": "0",
        "name": "ProHealth Medical Group @ Fernvale LRT",
        "opening_hours": "08:00-23:00"
      }
    },
    {
      "type": "node",
      "id": 5686498322,
      "lat": 1.3476746,
      "lon": 103.7570747,
      "tags": {
        "amenity": "clinic",
        "name": "Family Medical Clinic"
      }
    },
    {
      "type": "node",
      "id": 5689277521,
      "lat": 1.3480298,
      "lon": 103.7571578,
      "tags": {
        "amenity": "clinic",
        "name": "Lifeline Neighbourhood Medical Clinic"
      }
    },
    {
      "type": "node",
      "id": 5689277921,
      "lat": 1.3487394,
      "lon": 103.7577652,
      "tags": {
        "amenity": "clinic",
        "name": "First Light Clinic"
      }
    },
    {
      "type": "node",
      "id": 5697972921,
      "lat": 1.3469753,
      "lon": 103.7571639,
      "tags": {
        "amenity": "clinic",
        "name": "Excelsior Clinic"
      }
    },
    {
      "type": "node",
      "id": 5697973121,
      "lat": 1.347154,
      "lon": 103.7573318,
      "tags": {
        "amenity": "clinic",
        "name": "Goh Clinic"
      }
    },
    {
      "type": "node",
      "id": 5717760518,
      "lat": 1.3330877,
      "lon": 103.9260241,
      "tags": {
        "amenity": "clinic",
        "healthcare": "clinic",
        "name": "S.T. Medical Clinic"
      }
    },
    {
      "type": "node",
      "id": 5717760519,
      "lat": 1.3331026,
      "lon": 103.9260888,
      "tags": {
        "amenity": "clinic",
        "healthcare": "clinic",
        "name": "Northeast Medical Group"
      }
    },
    {
      "type": "node",
      "id": 5717760520,
      "lat": 1.3323682,
      "lon": 103.9242805,
      "tags": {
        "amenity": "clinic",
        "healthcare": "clinic",
        "name": "KHO Clinic"
      }
    },
    {
      "type": "node",
      "id": 5720634943,
      "lat": 1.3317292,
      "lon": 103.9258356,
      "tags": {
        "addr:city": "Singapore",
        "addr:housenumber": "539",
        "addr:postcode": "460539",
        "addr:street": "Bedok North Street 3",
        "amenity": "clinic",
        "healthcare": "clinic",
        "name": "YSL Bedok Clinic & Surgery",
        "opening_hours": "Mo-Fr 08:00-12:30,14:99-17:00,19:00-22:00; Sa,Su,PH 08:00-13:00",
        "phone": "+65 6245 2684"
      }
    },
    {
      "type": "node",
      "id": 5720634944,
      "lat": 1.3312289,
      "lon": 103.9252282,
      "tags": {
        "amenity": "clinic",
        "healthcare": "clinic",
        "name": "Wong Clinic"
      }
    },
    {
      "type": "node",
      "id": 5808854452,
      "lat": 1.302259,
      "lon": 103.8766971,
      "tags": {
        "amenity": "clinic",
        "healthcare": "clinic",
        "level": "1",
        "name": "The Balmoral Clinic"
      }
    },
    {
      "type": "node",
      "id": 5813931533,
      "lat": 1.353639,
      "lon": 103.9396652,
      "tags": {
        "amenity": "clinic",
        "healthcare": "clinic",
        "level": "2",
        "name": "Tampines Family Medicine Clinic"
      }
    },
    {
      "type": "node",
      "id": 5850832714,
      "lat": 1.2921193,
      "lon": 103.8597838,
      "tags": {
        "alt_name": "G Aesthetic Wellness Medical Clinic",
        "amenity": "clinic",
        "healthcare": "clinic",
        "level": "1",
        "name": "G-Clinic"
      }
    },
    {
      "type": "node",
      "id": 5867134478,
      "lat": 1.3321484,
      "lon": 103.9145848,
      "tags": {
        "addr:city": "Singapore",
        "addr:housenumber": "632",
        "addr:postcode": "470632",
        "addr:street": "Bedok Reservoir Road",
        "amenity": "clinic",
        "healthcare": "clinic",
        "name": "Phoon Clinic and Surgery"
      }
    },
    {
      "type": "node",
      "id": 5877104947,
      "lat": 1.3826272,
      "lon": 103.8937854,
      "tags": {
        "addr:housenumber": "275D",
        "addr:postcode": "544275",
        "addr:street": "Compassvale Link",
        "amenity": "clinic",
        "healthcare": "clinic",
        "name": "ProHealth Medical Group",
        "phone": "+65 6481 8066",
        "wheelchair": "yes"
      }
    },
    {
      "type": "node",
      "id": 5886939632,
      "lat": 1.332343,
      "lon": 103.9146544,
      "tags": {
        "addr:city": "Singapore",
        "addr:housenumber": "632",
        "addr:postcode": "470632",
        "addr:street": "Bedok Reservoir Road",
        "amenity": "clinic",
        "healthcare": "clinic",
        "name": "K. L. Tay Clinic & Surgery",
        "opening_hours": "Mo,We,Fr 09:00-12:30,14:00-16:30,19:00-21:00; Tu,Th 09:00-12:30,14:00-16:30; Sa,Su 09:00-12:30; PH off"
      }
    },
    {
      "type": "node",
      "id": 5886948359,
      "lat": 1.3331379,
      "lon": 103.9156241,
      "tags": {
        "addr:city": "Singapore",
        "addr:housenumber": "631",
        "addr:postcode": "470631",
        "addr:street": "Bedok Reservoir Road",
        "amenity": "clinic",
        "healthcare": "clinic",
        "name": "Healthplus Clinic & Surgery"
      }
    },
    {
      "type": "node",
      "id": 5892228514,
      "lat": 1.3332007,
      "lon": 103.9156911,
      "tags": {
        "addr:city": "Singapore",
        "addr:housenumber": "631",
        "addr:postcode": "470631",
        "addr:street": "Bedok Reservoir Road",
        "amenity": "clinic",
        "healthcare": "clinic",
        "name": "Eastern Medical Centre",
        "opening_hours": "Mo,Tu 08:30-13:00,14:00-16:00,19:00-21:00; We,Sa 08:30-12:30; Th,Fr 08:30-13:00,14:00-18:30; Su,PH off",
        "operator": "Dr Fong Chiu Yan",
        "phone": "+65 6448 7628"
      }
    },
    {
      "type": "node",
      "id": 5892423976,
      "lat": 1.332581,
      "lon": 103.9143056,
      "tags": {
        "addr:city": "Singapore",
        "addr:housenumber": "632",
        "addr:postcode": "470632",
        "addr:street": "Bedok Reservoir Road",
        "amenity": "clinic",
        "healthcare": "clinic",
        "name": "Pam Island Clinic & Surgery",
        "opening_hours": "Mo-Fr 09:30-12:30,14:30-16:30,19:00-21:00; Sa,Su,PH 09:30-12:00",
        "operator": "Dr Tan Soo Liang"
      }
    },
    {
      "type": "node",
      "id": 5898125649,
      "lat": 1.3871009,
      "lon": 103.8904646,
      "tags": {
        "amenity": "clinic",
        "healthcare": "clinic",
        "level": "0",
        "name": "The Olive Tree Family Clinic & Surgery"
      }
    },
    {
      "type": "node",
      "id": 5899419164,
      "lat": 1.3313435,
      "lon": 103.9097041,
      "tags": {
        "addr:city": "Singapore",
        "addr:housenumber": "121",
        "addr:postcode": "470121",
        "addr:street": "Bedok Reservoir Road",
        "amenity": "clinic",
        "healthcare": "clinic",
        "name": "Tan & Koh Clinic & Surgery",
        "opening_hours": "Mo,Tu,Th 08:30-12:00,14:00-16:30,19:00-21:00; We,Fr 08:30-12:00,14:00-16:30; Sa 08:30-12:00; Su 09:00-12:00; PH off"
      }
    },
    {
      "type": "node",
      "id": 6041115575,
      "lat": 1.3990265,
      "lon": 103.88987,
      "tags": {
        "amenity": "clinic",
        "healthcare": "clinic",
        "name": "Island Family Clinic (Anchorvale)"
      }
    },
    {
      "type": "node",
      "id": 6091678815,
      "lat": 1.3314315,
      "lon": 103.9089331,
      "tags": {
        "addr:city": "Singapore",
        "addr:housenumber": "117 #01-68",
        "addr:postcode": "470117",
        "addr:street": "Bedok Reservoir Road",
        "amenity": "clinic",
        "healthcare": "clinic",
        "name": "Wong Family Clinic & Surgery",
        "opening_hours": "Mo-Th 08:30-12:30,14:00-17:00,19:00-22:00; Fr,Sa 08:30-12:30; Su,PH off",
        "phone": "+65 6846 1613"
      }
    },
    {
      "type": "node",
      "id": 6091678816,
      "lat": 1.3314484,
      "lon": 103.9088054,
      "tags": {
        "addr:city": "Singapore",
        "addr:housenumber": "117 #01-62",
        "addr:postcode": "470117",
        "addr:street": "Bedok Reservoir Road",
        "amenity": "clinic",
        "healthcare": "clinic",
        "name": "Tay Clinic",
        "opening_hours": "Mo-Fr 08:00-13:00,14:00-17:30; Sa,Su 08:00-13:00; PH off",
        "phone": "+65 6741 9936"
      }
    },
    {
      "type": "node",
      "id": 6091678817,
      "lat": 1.3314614,
      "lon": 103.9086289,
      "tags": {
        "addr:city": "Singapore",
        "addr:housenumber": "171 #01-58",
        "addr:postcode": "470117",
        "addr:street": "Bedok Reservoir Road",
        "amenity": "clinic",
        "healthcare": "clinic",
        "name": "Bok Family Clinic",
        "opening_hours": "Mo-Fr 08:30-12:30,14:00-16:30,19:00-21:00; Sa 08:30-12:30; Su 09:00-12:30; PH 09:00-12:30; Closed on Hari Raya Puasa",
        "operator": "Dr Bok Teck Sun",
        "phone": "7478200"
      }
    },
    {
      "type": "node",
      "id": 6139736335,
      "lat": 1.389895,
      "lon": 103.8927828,
      "tags": {
        "addr:unit": "02",
        "amenity": "clinic",
        "healthcare": "clinic",
        "level": "0",
        "name": "Acumed Medical Group"
      }
    },
    {
      "type": "node",
      "id": 6212980053,
      "lat": 1.3707002,
      "lon": 103.8947294,
      "tags": {
        "amenity": "clinic",
        "healthcare": "clinic",
        "level": "0",
        "name": "My Family Clinic (Hougang Central)",
        "wheelchair": "limited"
      }
    },
    {
      "type": "node",
      "id": 6212980057,
      "lat": 1.3716219,
      "lon": 103.8934328,
      "tags": {
        "amenity": "clinic",
        "healthcare": "clinic",
        "level": "0",
        "name": "Radiant Medical & Aesthetic Centre"
      }
    },
    {
      "type": "node",
      "id": 6212980058,
      "lat": 1.3708928,
      "lon": 103.8947603,
      "tags": {
        "amenity": "clinic",
        "healthcare": "clinic",
        "level": "0",
        "name": "Hougang Central Medical Clinic",
        "wheelchair": "limited"
      }
    },
    {
      "type": "node",
      "id": 6259750351,
      "lat": 1.395961,
      "lon": 103.8728442,
      "tags": {
        "addr:country": "SG",
        "addr:housenumber": "229",
        "addr:street": "Jalan Kayu",
        "amenity": "clinic",
        "healthcare": "clinic",
        "name": "Kang Clinic"
      }
    },
    {
      "type": "node",
      "id": 6259798704,
      "lat": 1.298913,
      "lon": 103.8395433,
      "tags": {
        "addr:city": "Singapore",
        "addr:country": "SG",
        "addr:housenumber": "61",
        "addr:street": "Killiney Road",
        "amenity": "clinic",
        "healthcare": "clinic",
        "name": "Killiney Medical Clinic",
        "wheelchair": "no"
      }
    },
    {
      "type": "node",
      "id": 6259836148,
      "lat": 1.3787067,
      "lon": 103.9422417,
      "tags": {
        "amenity": "clinic",
        "healthcare": "clinic",
        "name": "Shenton Medical Group",
        "wheelchair": "yes"
      }
    },
    {
      "type": "node",
      "id": 6259836152,
      "lat": 1.3787806,
      "lon": 103.9422286,
      "tags": {
        "amenity": "clinic",
        "healthcare": "clinic",
        "name": "Healthway Medical Clinic",
        "wheelchair": "yes"
      }
    },
    {
      "type": "node",
      "id": 6259836153,
      "lat": 1.3788465,
      "lon": 103.9421928,
      "tags": {
        "amenity": "clinic",
        "healthcare": "clinic",
        "name": "Healthway Medical Clinic",
        "wheelchair": "yes"
      }
    },
    {
      "type": "node",
      "id": 6259836154,
      "lat": 1.3788978,
      "lon": 103.9421381,
      "tags": {
        "amenity": "clinic",
        "healthcare": "clinic",
        "name": "Elias Family Clinic & Surgery",
        "wheelchair": "yes"
      }
    },
    {
      "type": "node",
      "id": 6259836156,
      "lat": 1.3785468,
      "lon": 103.9418327,
      "tags": {
        "amenity": "clinic",
        "healthcare": "clinic",
        "name": "Kidneycare Dialysis Centre",
        "wheelchair": "yes"
      }
    },
    {
      "type": "node",
      "id": 6259836163,
      "lat": 1.3787575,
      "lon": 103.9417791,
      "tags": {
        "amenity": "clinic",
        "healthcare": "clinic",
        "name": "K.B. Tan Clinic & Laser Surgery",
        "wheelchair": "yes"
      }
    },
    {
      "type": "node",
      "id": 6260001643,
      "lat": 1.3591034,
      "lon": 103.9551593,
      "tags": {
        "amenity": "clinic",
        "healthcare": "clinic",
        "name": "AcuHealth TCM Medical Centre"
      }
    },
    {
      "type": "node",
      "id": 6260133666,
      "lat": 1.3394086,
      "lon": 103.8857179,
      "tags": {
        "amenity": "clinic",
        "healthcare": "clinic",
        "name": "Lotus Medical Clinic"
      }
    },
    {
      "type": "node",
      "id": 6260139147,
      "lat": 1.3381874,
      "lon": 103.8866123,
      "tags": {
        "amenity": "clinic",
        "healthcare": "clinic",
        "name": "Medora Clinic & Surgery"
      }
    },
    {
      "type": "node",
      "id": 6260139172,
      "lat": 1.3388128,
      "lon": 103.8862053,
      "tags": {
        "addr:street": "Jalan Bunga Rampai",
        "amenity": "clinic",
        "healthcare": "clinic",
        "name": "Tai Seng Clinic",
        "source": "Kaart Ground Survey 2017"
      }
    },
    {
      "type": "node",
      "id": 6260204896,
      "lat": 1.4342345,
      "lon": 103.7755304,
      "tags": {
        "addr:city": "Singapore",
        "addr:country": "SG",
        "addr:housenumber": "166",
        "addr:postcode": "730166",
        "addr:street": "Woodlands Street 13",
        "amenity": "clinic",
        "healthcare": "clinic",
        "name": "T.S. Wong Clinic & Surgery"
      }
    },
    {
      "type": "node",
      "id": 6321635811,
      "lat": 1.3100182,
      "lon": 103.8522813,
      "tags": {
        "amenity": "clinic",
        "healthcare": "clinic",
        "name": "Ayush Ayurvedic"
      }
    },
    {
      "type": "node",
      "id": 6321635813,
      "lat": 1.3101296,
      "lon": 103.8523607,
      "tags": {
        "amenity": "clinic",
        "healthcare": "clinic",
        "name": "Ayush Ayurvedic"
      }
    },
    {
      "type": "node",
      "id": 6373343758,
      "lat": 1.3084318,
      "lon": 103.8514547,
      "tags": {
        "addr:housenumber": "43",
        "amenity": "clinic",
        "healthcare": "clinic",
        "name": "Kerala Ayuverda Clinic"
      }
    },
    {
      "type": "node",
      "id": 6391185162,
      "lat": 1.3141948,
      "lon": 103.8708068,
      "tags": {
        "amenity": "clinic",
        "healthcare": "clinic",
        "name": "Boon Keng Clinic & Surgery"
      }
    },
    {
      "type": "node",
      "id": 6391185173,
      "lat": 1.3143585,
      "lon": 103.8712262,
      "tags": {
        "amenity": "clinic",
        "healthcare": "clinic",
        "name": "New Town Clinic"
      }
    },
    {
      "type": "node",
      "id": 6403503364,
      "lat": 1.3290079,
      "lon": 103.8869933,
      "tags": {
        "amenity": "clinic",
        "healthcare": "clinic",
        "name": "LifeCare Medical Centre"
      }
    },
    {
      "type": "node",
      "id": 6403503367,
      "lat": 1.3292358,
      "lon": 103.8862708,
      "tags": {
        "amenity": "clinic",
        "healthcare": "clinic",
        "name": "Chin Choo Clinic"
      }
    },
    {
      "type": "node",
      "id": 6403503371,
      "lat": 1.3276612,
      "lon": 103.8852231,
      "tags": {
        "amenity": "clinic",
        "healthcare": "clinic",
        "name": "MacPherson Medical Clinic"
      }
    },
    {
      "type": "node",
      "id": 6405142318,
      "lat": 1.286088,
      "lon": 103.8287953,
      "tags": {
        "addr:city": "Singapore",
        "addr:housenumber": "11A",
        "addr:postcode": "161011",
        "addr:street": "Boon Tiong Road #01-08",
        "amenity": "clinic",
        "healthcare": "clinic",
        "level": "0",
        "name": "OneCare Medical Tiong Bahru"
      }
    },
    {
      "type": "node",
      "id": 6405142328,
      "lat": 1.2857232,
      "lon": 103.8267238,
      "tags": {
        "amenity": "clinic",
        "healthcare": "clinic",
        "level": "1",
        "name": "Chua and Partners Family Clinic"
      }
    },
    {
      "type": "node",
      "id": 6437695185,
      "lat": 1.3363319,
      "lon": 103.8885834,
      "tags": {
        "amenity": "clinic",
        "healthcare": "clinic",
        "level": "1",
        "name": "The Clinic @ Tai Seng"
      }
    },
    {
      "type": "node",
      "id": 6441942885,
      "lat": 1.3110371,
      "lon": 103.8736811,
      "tags": {
        "amenity": "clinic",
        "healthcare": "clinic",
        "name": "Balance&Cleanse",
        "website": "http://balancecleanse.com"
      }
    },
    {
      "type": "node",
      "id": 6486919687,
      "lat": 1.386049,
      "lon": 103.8932903,
      "tags": {
        "amenity": "clinic",
        "healthcare": "clinic",
        "level": "0",
        "name": "Island Family Clinic (Sengkang)",
        "wheelchair": "limited"
      }
    },
    {
      "type": "node",
      "id": 6496976785,
      "lat": 1.3506791,
      "lon": 103.8757569,
      "tags": {
        "addr:postcode": "531002",
        "amenity": "clinic",
        "healthcare": "clinic",
        "name": "Drs Lim & Chan Clinic",
        "phone": "+65 6280 3009"
      }
    },
    {
      "type": "node",
      "id": 6499063521,
      "lat": 1.3982332,
      "lon": 103.8779152,
      "tags": {
        "amenity": "clinic",
        "healthcare": "clinic",
        "name": "AE Medical Clinic"
      }
    },
    {
      "type": "node",
      "id": 6515034591,
      "lat": 1.284741,
      "lon": 103.8447974,
      "tags": {
        "amenity": "clinic",
        "healthcare": "clinic",
        "healthcare:speciality": "general",
        "level": "1",
        "name": "Family Medicine Clinic Chinatown",
        "name:zh": "全科医疗诊所",
        "opening_hours": "Mo-Fr 09:00-18:00; Sa 09:00-13:00; PH,Su closed"
      }
    },
    {
      "type": "node",
      "id": 6515042556,
      "lat": 1.3491163,
      "lon": 103.7296144,
      "tags": {
        "amenity": "clinic",
        "healthcare": "clinic",
        "name": "Fresenius Medical Care"
      }
    },
    {
      "type": "node",
      "id": 6515042564,
      "lat": 1.347685,
      "lon": 103.730558,
      "tags": {
        "amenity": "clinic",
        "name": "Eastern Clinic & Surgery"
      }
    },
    {
      "type": "node",
      "id": 6542055685,
      "lat": 1.3050898,
      "lon": 103.8353997,
      "tags": {
        "addr:postcode": "228510",
        "addr:street": "3 Mount Elizabeth, Mount Elizabeth Hospital Level 2",
        "amenity": "clinic",
        "email": "clickr.parkwaycancercentre@gmail.com",
        "healthcare": "clinic",
        "internet_access": "wlan",
        "name": "Parkway Cancer Centre",
        "opening_hours": "Mo-Fr 08:30-17:00; Sa 08:30-11:30",
        "phone": "+65 6737 0733",
        "website": "https://www.parkwaycancercentre.com"
      }
    },
    {
      "type": "node",
      "id": 6549207787,
      "lat": 1.2648169,
      "lon": 103.820005,
      "tags": {
        "amenity": "clinic",
        "healthcare": "clinic",
        "level": "2",
        "name": "Raffles Medical",
        "wheelchair": "yes"
      }
    },
    {
      "type": "node",
      "id": 6618303036,
      "lat": 1.392089,
      "lon": 103.8955251,
      "tags": {
        "amenity": "clinic",
        "branch": "Sengkang",
        "healthcare": "clinic",
        "level": "0",
        "name": "Northeast Medical Group",
        "opening_hours": "Mo-Su 08:00-22:00; PH 10:00-18:00",
        "opening_hours:url": "https://www.nemg.com.sg/",
        "wheelchair": "yes"
      }
    },
    {
      "type": "node",
      "id": 6639726957,
      "lat": 1.4064469,
      "lon": 103.901691,
      "tags": {
        "amenity": "clinic",
        "healthcare": "clinic",
        "level": "1",
        "name": "Minmed Clinic"
      }
    },
    {
      "type": "node",
      "id": 6639726971,
      "lat": 1.4060276,
      "lon": 103.9021658,
      "tags": {
        "amenity": "clinic",
        "healthcare": "clinic",
        "healthcare:speciality": "paediatrics",
        "level": "1",
        "name": "Thomson Paediatric Centre"
      }
    },
    {
      "type": "node",
      "id": 6639726976,
      "lat": 1.4060373,
      "lon": 103.9022079,
      "tags": {
        "amenity": "clinic",
        "healthcare": "clinic",
        "level": "1",
        "name": "Raffles Medical"
      }
    },
    {
      "type": "node",
      "id": 6639726977,
      "lat": 1.4065447,
      "lon": 103.9017623,
      "tags": {
        "amenity": "clinic",
        "healthcare": "clinic",
        "level": "1",
        "name": "One Doctors Family Clinic",
        "opening_hours": "Mo-Sa 09:00-21:00; PH,Su 09:00-17:00"
      }
    },
    {
      "type": "node",
      "id": 6648988790,
      "lat": 1.3588217,
      "lon": 103.7519793,
      "tags": {
        "amenity": "clinic",
        "healthcare": "clinic",
        "name": "OneCare Clinic",
        "opening_hours": "Mo-Fr 08:00-15:00,17:00-21:30; Sa 08:00-13:00; Su 08:00-13:00,17:00-21:30"
      }
    },
    {
      "type": "node",
      "id": 6663098601,
      "lat": 1.3371143,
      "lon": 103.9199923,
      "tags": {
        "addr:city": "Singapore",
        "addr:housenumber": "703",
        "addr:postcode": "470703",
        "addr:street": "Bedok Reservoir Road",
        "amenity": "clinic",
        "description": "Note: Registration closed 15 min before closing",
        "healthcare": "clinic",
        "name": "Joy Family Clinic",
        "opening_hours": "Mo,We,Fr 09:00-13:00,14:00-16:00; Tu,Th 09:00-13:00,18:30-20:30; Sa,Su,PH off",
        "operator": "Dr Lee Hai Ean (李海燕医生)",
        "operator:type": "private",
        "phone": "+65 6442 2483"
      }
    },
    {
      "type": "node",
      "id": 6665009119,
      "lat": 1.3318806,
      "lon": 103.868308,
      "tags": {
        "amenity": "clinic",
        "healthcare": "clinic",
        "level": "0",
        "name": "Procross Medical Center"
      }
    },
    {
      "type": "node",
      "id": 6665216260,
      "lat": 1.3247768,
      "lon": 103.8422485,
      "tags": {
        "addr:housenumber": "1",
        "addr:street": "Thomson Road",
        "addr:unit": "#01-330",
        "amenity": "clinic",
        "check_date": "2024-04-04",
        "healthcare": "clinic",
        "name": "Hyperbaric Medical Services",
        "opening_hours": "Mo-Fr 09:00-18:00; Sa 09:00-13:00; Su,PH off",
        "operator:type": "private",
        "wheelchair": "no"
      }
    },
    {
      "type": "node",
      "id": 6714919363,
      "lat": 1.4023201,
      "lon": 103.891881,
      "tags": {
        "addr:city": "Singapore",
        "addr:floor": "01",
        "addr:housenumber": "231A",
        "addr:postcode": "821231",
        "addr:street": "Sumang Lane",
        "addr:unit": "03",
        "amenity": "clinic",
        "healthcare": "clinic",
        "healthcare:speciality": "traditional_chinese_medicine",
        "name": "Hock Leong Ann TCM Clinic",
        "name:zh": "福隆安中医诊所",
        "operator": "Hock Leong Ann Tcm",
        "operator:type": "private"
      }
    },
    {
      "type": "node",
      "id": 6714948994,
      "lat": 1.4022893,
      "lon": 103.8920392,
      "tags": {
        "addr:city": "Singapore",
        "addr:floor": "01",
        "addr:housenumber": "231A",
        "addr:postcode": "821231",
        "addr:street": "Sumang Lane",
        "addr:unit": "05",
        "amenity": "clinic",
        "healthcare": "clinic",
        "name": "Calrose Medical",
        "operator": "Calrose Medical",
        "operator:type": "private",
        "wheelchair": "limited"
      }
    },
    {
      "type": "node",
      "id": 6744902185,
      "lat": 1.3239775,
      "lon": 103.9298248,
      "tags": {
        "amenity": "clinic",
        "healthcare": "clinic",
        "name": "One Care Clinic"
      }
    },
    {
      "type": "node",
      "id": 6832566762,
      "lat": 1.2990796,
      "lon": 103.7875642,
      "tags": {
        "addr:city": "Singapore",
        "addr:housenumber": "1",
        "addr:postcode": "138632",
        "addr:street": "Fusionopolis Way",
        "amenity": "clinic",
        "healthcare": "clinic",
        "healthcare:speciality": "general",
        "level": "2",
        "name": "Carelite Medical Centre",
        "opening_hours": "Mo-Fr 08:30-17:45",
        "website": "https://carelite.sg/"
      }
    },
    {
      "type": "node",
      "id": 6832566769,
      "lat": 1.3432993,
      "lon": 103.6887311,
      "tags": {
        "addr:city": "Singapore",
        "addr:housenumber": "940",
        "addr:postcode": "640940",
        "addr:street": "Jurong West Street 91",
        "amenity": "clinic",
        "healthcare": "dialysis",
        "healthcare:speciality": "nephrology",
        "name": "NKF Dialysis Centre",
        "opening_hours": "24/7",
        "operator": "National Kidney Foundation",
        "operator:type": "private_non_profit"
      }
    },
    {
      "type": "node",
      "id": 6842646798,
      "lat": 1.3916316,
      "lon": 103.8949411,
      "tags": {
        "addr:unit": "34",
        "amenity": "clinic",
        "branch": "TCM Clinic",
        "brand": "Eu Yan Sang",
        "brand:en": "Eu Yan Sang",
        "brand:wikidata": "Q4207246",
        "brand:zh": "余仁生",
        "healthcare": "clinic",
        "healthcare:speciality": "traditional_chinese_medicine",
        "level": "1",
        "name": "Eu Yan Sang",
        "name:en": "Eu Yan Sang",
        "name:zh": "余仁生",
        "opening_hours": "10:00-22:00",
        "shop": "herbalist",
        "wheelchair": "limited"
      }
    },
    {
      "type": "node",
      "id": 6842646799,
      "lat": 1.391592,
      "lon": 103.8949847,
      "tags": {
        "amenity": "clinic",
        "healthcare": "clinic",
        "healthcare:speciality": "paediatrics",
        "level": "1",
        "name": "The Kid's Clinic",
        "opening_hours": "Mo-Fr 09:00-16:00; Sa 09:00-13:00; Su, PH off",
        "opening_hours:url": "https://compassone.sg/the-kids-clinic/",
        "wheelchair": "limited"
      }
    },
    {
      "type": "node",
      "id": 6895025385,
      "lat": 1.2807119,
      "lon": 103.8497728,
      "tags": {
        "amenity": "clinic",
        "healthcare": "clinic",
        "name": "Parkway Shenton Medical Group"
      }
    },
    {
      "type": "node",
      "id": 7012854485,
      "lat": 1.304979,
      "lon": 103.9045224,
      "tags": {
        "addr:unit": "07",
        "amenity": "clinic",
        "email": "katong@imc-healthcare.com",
        "healthcare": "clinic",
        "internet_access": "wlan",
        "level": "1",
        "name": "International Medical Clinic",
        "phone": "+65 6342 4440",
        "website": "https://www.imc-healthcare.com/"
      }
    },
    {
      "type": "node",
      "id": 7072183820,
      "lat": 1.3069464,
      "lon": 103.8515389,
      "tags": {
        "amenity": "clinic",
        "healthcare": "clinic",
        "name": "Wahweda's"
      }
    },
    {
      "type": "node",
      "id": 7088254213,
      "lat": 1.3846616,
      "lon": 103.7431167,
      "tags": {
        "amenity": "clinic",
        "healthcare": "clinic",
        "name": "CCK Family Clinic"
      }
    },
    {
      "type": "node",
      "id": 7088254214,
      "lat": 1.3847135,
      "lon": 103.7431023,
      "tags": {
        "amenity": "clinic",
        "healthcare": "clinic",
        "name": "The Premier Medical Clinic"
      }
    },
    {
      "type": "node",
      "id": 7195215426,
      "lat": 1.3404871,
      "lon": 103.7732416,
      "tags": {
        "addr:housenumber": "80",
        "addr:street": "Jalan Jurong Kechil",
        "amenity": "clinic",
        "name": "Bukit Timah Nam Sang Clinic"
      }
    },
    {
      "type": "node",
      "id": 7196776997,
      "lat": 1.3272878,
      "lon": 103.919211,
      "tags": {
        "amenity": "clinic",
        "healthcare": "clinic",
        "name": "Low & Lee Clinic & Surgery"
      }
    },
    {
      "type": "node",
      "id": 7196777009,
      "lat": 1.3271135,
      "lon": 103.918916,
      "tags": {
        "amenity": "clinic",
        "healthcare": "clinic",
        "name": "FamilyCare Clinic and Surgery"
      }
    },
    {
      "type": "node",
      "id": 7196923404,
      "lat": 1.3232712,
      "lon": 103.9242809,
      "tags": {
        "amenity": "clinic",
        "healthcare": "clinic",
        "name": "Chai Chee Clinic & Surgery",
        "name:en": "Chai Chee Clinic & Surgery",
        "name:zh": "菜市西药房"
      }
    },
    {
      "type": "node",
      "id": 7196923408,
      "lat": 1.3234738,
      "lon": 103.9239452,
      "tags": {
        "amenity": "clinic",
        "healthcare": "clinic",
        "name": "HealthLine Family Clinic"
      }
    },
    {
      "type": "node",
      "id": 7249160485,
      "lat": 1.3074333,
      "lon": 103.7936658,
      "tags": {
        "amenity": "clinic",
        "healthcare": "clinic",
        "name": "Sefton Medical Centre Pte. Ltd."
      }
    },
    {
      "type": "node",
      "id": 7249160487,
      "lat": 1.307553,
      "lon": 103.7934864,
      "tags": {
        "amenity": "clinic",
        "healthcare": "clinic",
        "name": "May Medical Clinic & Surgery"
      }
    },
    {
      "type": "node",
      "id": 7249160488,
      "lat": 1.3076768,
      "lon": 103.7933325,
      "tags": {
        "amenity": "clinic",
        "healthcare": "clinic",
        "name": "Healthway Medical Clinic"
      }
    },
    {
      "type": "node",
      "id": 7249170685,
      "lat": 1.3074786,
      "lon": 103.7928071,
      "tags": {
        "amenity": "clinic",
        "healthcare": "clinic",
        "name": "Family Health Clinic"
      }
    },
    {
      "type": "node",
      "id": 7263781545,
      "lat": 1.3290723,
      "lon": 103.8700587,
      "tags": {
        "addr:housenumber": "1",
        "addr:postcode": "347919",
        "addr:street": "Siang Kuang Avenue",
        "amenity": "clinic",
        "branch": "Potong Pasir",
        "healthcare": "clinic",
        "name": "SATA CommHealth Potong Pasir Medical Centre",
        "opening_hours": "Sa,Su 08:30-13:00; Mo-Fr 08:30-12:00,13:00-17:00; PH off",
        "operator": "SATA",
        "website": "https://www.sata.com.sg/"
      }
    },
    {
      "type": "node",
      "id": 7391293284,
      "lat": 1.3046845,
      "lon": 103.7816359,
      "tags": {
        "addr:city": "Singapore",
        "addr:housenumber": "28",
        "addr:postcode": "130028",
        "addr:street": "Dover Crescent",
        "amenity": "clinic",
        "healthcare": "clinic",
        "healthcare:speciality": "general",
        "name": "Dover Clinic and Surgery"
      }
    },
    {
      "type": "node",
      "id": 7451054818,
      "lat": 1.3259807,
      "lon": 103.8501156,
      "tags": {
        "addr:floor": "2",
        "addr:housenumber": "400",
        "addr:street": "Balestier Road",
        "amenity": "clinic",
        "check_date": "2023-12-20",
        "healthcare": "clinic",
        "level": "1",
        "name": "Carelink"
      }
    },
    {
      "type": "node",
      "id": 7501508683,
      "lat": 1.3197728,
      "lon": 103.9439983,
      "tags": {
        "amenity": "clinic",
        "healthcare": "clinic",
        "name": "Tanamera Clinic"
      }
    },
    {
      "type": "node",
      "id": 7501508684,
      "lat": 1.3198308,
      "lon": 103.9439857,
      "tags": {
        "amenity": "clinic",
        "healthcare": "clinic",
        "name": "Temasek Clinic & Surgery"
      }
    },
    {
      "type": "node",
      "id": 7501513333,
      "lat": 1.3201119,
      "lon": 103.9445402,
      "tags": {
        "amenity": "clinic",
        "healthcare": "clinic",
        "name": "Shim Clinic"
      }
    },
    {
      "type": "node",
      "id": 7528434220,
      "lat": 1.3372021,
      "lon": 103.921278,
      "tags": {
        "addr:city": "Singapore",
        "addr:country": "SG",
        "addr:housenumber": "746",
        "addr:postcode": "470746",
        "addr:street": "Bedok Reservoir Road",
        "addr:unit": "#01-3013",
        "amenity": "clinic",
        "branch": "Bedok",
        "healthcare": "clinic",
        "name": "Faith Clinic",
        "opening_hours": "Mo-Fr 08:30-16:00,18:30-21:00; Sa 08:30-12:30",
        "phone": "+65 67020820",
        "website": "https://www.faithmedical.sg/"
      }
    },
    {
      "type": "node",
      "id": 7528488885,
      "lat": 1.3374415,
      "lon": 103.9219446,
      "tags": {
        "amenity": "clinic",
        "healthcare": "clinic",
        "name": "Shenton Medical Clinic"
      }
    },
    {
      "type": "node",
      "id": 7530395444,
      "lat": 1.3024141,
      "lon": 103.9072184,
      "tags": {
        "amenity": "clinic",
        "healthcare": "clinic",
        "name": "Central Clinic Surgery"
      }
    },
    {
      "type": "node",
      "id": 7637549777,
      "lat": 1.3187727,
      "lon": 103.9118537,
      "tags": {
        "addr:city": "Singapore",
        "addr:country": "SG",
        "addr:housenumber": "430",
        "addr:street": "Changi Road",
        "amenity": "clinic",
        "healthcare": "clinic",
        "name": "Jinmin Clinic",
        "name:zh": "仁民药房",
        "roof:levels": "1",
        "roof:material": "roof_tiles",
        "roof:orientation": "across",
        "roof:shape": "gabled",
        "source": "Kaart Ground Survey 2017"
      }
    },
    {
      "type": "node",
      "id": 7669837770,
      "lat": 1.3404756,
      "lon": 103.7738881,
      "tags": {
        "addr:housenumber": "66",
        "addr:street": "Jalan Jurong Kechil",
        "amenity": "clinic",
        "name": "Mandarin Central & Dental Centre"
      }
    },
    {
      "type": "node",
      "id": 7672647634,
      "lat": 1.3335469,
      "lon": 103.8493034,
      "tags": {
        "amenity": "clinic",
        "branch": "Toa Payoh",
        "brand": "Unihealth",
        "healthcare": "clinic",
        "name": "Unihealth Toa Payoh",
        "opening_hours": "24/7"
      }
    },
    {
      "type": "node",
      "id": 7672665880,
      "lat": 1.333908,
      "lon": 103.8495277,
      "tags": {
        "amenity": "clinic",
        "healthcare": "clinic",
        "name": "Raffles Medical"
      }
    },
    {
      "type": "node",
      "id": 7729441634,
      "lat": 1.3829151,
      "lon": 103.8933453,
      "tags": {
        "amenity": "clinic",
        "healthcare": "clinic",
        "level": "0",
        "name": "Shenton Medical Group",
        "wheelchair": "yes"
      }
    },
    {
      "type": "node",
      "id": 7729510643,
      "lat": 1.3716615,
      "lon": 103.8940304,
      "tags": {
        "amenity": "clinic",
        "healthcare": "clinic",
        "level": "0"
      }
    },
    {
      "type": "node",
      "id": 7765639771,
      "lat": 1.3399856,
      "lon": 103.773216,
      "tags": {
        "addr:housenumber": "18",
        "addr:street": "Toh Yi Drive",
        "amenity": "clinic",
        "name": "Toh Yi Medical Clinic"
      }
    },
    {
      "type": "node",
      "id": 7773239463,
      "lat": 1.3702358,
      "lon": 103.8727691,
      "tags": {
        "amenity": "clinic",
        "healthcare": "clinic",
        "name": "Chen Family Clinic"
      }
    },
    {
      "type": "node",
      "id": 7773262888,
      "lat": 1.3267486,
      "lon": 103.8465576,
      "tags": {
        "addr:housenumber": "20",
        "addr:street": "Ah Hood Road",
        "addr:unit": "#01-08",
        "amenity": "clinic",
        "check_date": "2024-01-10",
        "healthcare": "clinic",
        "level": "0",
        "name": "LiveWell Medical",
        "opening_hours": "Mo-Fr 08:30-13:30,18:00-21:30; Sa-Su,PH 18:30-21:30",
        "operator:type": "private",
        "phone": "+65 6909 9888",
        "wheelchair": "yes"
      }
    },
    {
      "type": "node",
      "id": 7824826999,
      "lat": 1.391998,
      "lon": 103.8949214,
      "tags": {
        "amenity": "clinic",
        "healthcare": "clinic",
        "level": "3",
        "name": "Minmed Clinic (Sengkang)"
      }
    },
    {
      "type": "node",
      "id": 7852030477,
      "lat": 1.3950646,
      "lon": 103.8958158,
      "tags": {
        "amenity": "clinic",
        "healthcare": "clinic",
        "level": "0",
        "name": "Healthmark Family Clinic (Compassvale)",
        "name:en": "Healthmark Family Clinic (Compassvale)",
        "name:zh": "康脉家庭诊所",
        "opening_hours": "Mo-We 08:30-12:30,13:30-16:30,18:00-21:00; Th,Sa-Su 08:30-12:30; Fr 08:30-12:30,13:30-16:30; PH closed",
        "wheelchair": "yes"
      }
    },
    {
      "type": "node",
      "id": 7877095297,
      "lat": 1.3164845,
      "lon": 103.8055343,
      "tags": {
        "addr:housenumber": "8",
        "addr:street": "Empress Road",
        "amenity": "clinic",
        "healthcare": "clinic",
        "healthcare:speciality": "general",
        "name": "Dr. W Family Clinic",
        "opening_hours": "Mo-We 08:00-17:00, Th-Sa 08:00-12:00"
      }
    },
    {
      "type": "node",
      "id": 7877101081,
      "lat": 1.3165799,
      "lon": 103.805643,
      "tags": {
        "addr:housenumber": "8",
        "addr:street": "Empress Road",
        "amenity": "clinic",
        "healthcare": "clinic",
        "healthcare:speciality": "general",
        "name": "Yap Medicare Clinic & Surgery",
        "opening_hours": "Mo 08:30-20:30, Tu-Fr 08:30-15:30, Sa-Su 08:30-11:30"
      }
    },
    {
      "type": "node",
      "id": 7888659219,
      "lat": 1.3536722,
      "lon": 103.8677737,
      "tags": {
        "addr:city": "Singapore",
        "addr:housenumber": "304",
        "addr:postcode": "550304",
        "addr:street": "Serangoon Avenue 2",
        "amenity": "clinic",
        "healthcare": "clinic",
        "healthcare:speciality": "paediatrics",
        "name": "Garden Clinic",
        "opening_hours": "Mo-Su 09:00-21:00"
      }
    },
    {
      "type": "node",
      "id": 7897270722,
      "lat": 1.2825111,
      "lon": 103.8255999,
      "tags": {
        "addr:city": "Singapore",
        "addr:housenumber": "26",
        "addr:postcode": "161026",
        "addr:street": "Jalan Membina",
        "amenity": "clinic",
        "healthcare": "clinic",
        "healthcare:speciality": "traditional_chinese_medicine",
        "name": "Liu TCM clinic",
        "opening_hours": "Mo-Sa 09:00-21:00",
        "opening_hours:covid19": "Walk in"
      }
    },
    {
      "type": "node",
      "id": 7897272703,
      "lat": 1.2825856,
      "lon": 103.825695,
      "tags": {
        "addr:city": "Singapore",
        "addr:housenumber": "26",
        "addr:postcode": "161026",
        "addr:street": "Jalan Membina",
        "amenity": "clinic",
        "healthcare": "clinic",
        "healthcare:speciality": "general;clinic",
        "name": "Health First Family Clinic",
        "opening_hours": "Su-Fr 08:30-21:30",
        "opening_hours:covid19": "Walk in",
        "phone": "+65 6793 2833",
        "wheelchair": "yes"
      }
    },
    {
      "type": "node",
      "id": 7958441749,
      "lat": 1.3404871,
      "lon": 103.7737993,
      "tags": {
        "addr:housenumber": "68",
        "addr:street": "Jalan Jurong Kechil",
        "addr:unit": "#01-01",
        "amenity": "clinic",
        "name": "Chungkiaw Clinic",
        "phone": "+65 6466 2255"
      }
    },
    {
      "type": "node",
      "id": 7958458460,
      "lat": 1.3043747,
      "lon": 103.8598693,
      "tags": {
        "addr:street": "Jalan Klapa",
        "amenity": "clinic",
        "healthcare": "clinic",
        "name": "Marti Derm La Formula"
      }
    },
    {
      "type": "node",
      "id": 8083777917,
      "lat": 1.3453694,
      "lon": 103.7188357,
      "tags": {
        "amenity": "clinic"
      }
    },
    {
      "type": "node",
      "id": 8083778017,
      "lat": 1.3454017,
      "lon": 103.7188383,
      "tags": {
        "amenity": "clinic",
        "name": "Lakeside Family Medicine Clinic",
        "wheelchair": "yes"
      }
    },
    {
      "type": "node",
      "id": 8208607237,
      "lat": 1.35752,
      "lon": 103.9402818,
      "tags": {
        "amenity": "clinic",
        "healthcare": "clinic",
        "name": "VIVA Medical Group"
      }
    },
    {
      "type": "node",
      "id": 8226112317,
      "lat": 1.3275529,
      "lon": 103.924687,
      "tags": {
        "amenity": "clinic",
        "healthcare": "clinic",
        "name": "Evangel Medical Clinic"
      }
    },
    {
      "type": "node",
      "id": 8419773590,
      "lat": 1.3933433,
      "lon": 103.8870606,
      "tags": {
        "amenity": "clinic",
        "healthcare": "clinic",
        "name": "DA Clinic@Anchorvale"
      }
    },
    {
      "type": "node",
      "id": 8441984958,
      "lat": 1.264975,
      "lon": 103.8190429,
      "tags": {
        "amenity": "clinic",
        "healthcare": "clinic",
        "wheelchair": "yes"
      }
    },
    {
      "type": "node",
      "id": 8448240729,
      "lat": 1.3854786,
      "lon": 103.9015722,
      "tags": {
        "amenity": "clinic",
        "healthcare": "clinic",
        "level": "1",
        "name": "Healthway Medical",
        "name:zh": "康威医疗",
        "opening_hours": "Mo-Sa 08:00-17:00,18:00-22:00; Su,PH 08:00-14:00,18:00-22:00"
      }
    },
    {
      "type": "node",
      "id": 8448240740,
      "lat": 1.3858049,
      "lon": 103.9020987,
      "tags": {
        "amenity": "clinic",
        "healthcare": "clinic",
        "level": "0",
        "name": "Rivervale Family Clinic & Surgery",
        "opening_hours": "Mo-Th 08:00-15:00,18:00-21:00; Fr 08:00-15:00; Sa 08:00-14:00; PH,Su closed"
      }
    },
    {
      "type": "node",
      "id": 8448240752,
      "lat": 1.3854882,
      "lon": 103.9016163,
      "tags": {
        "amenity": "clinic",
        "branch": "Rivervale Plaza",
        "healthcare": "clinic",
        "healthcare:speciality": "paediatrics",
        "level": "1",
        "name": "SBCC Baby & Child Clinic (Rivervale Plaza)",
        "opening_hours": "Mo,Th 09:00-13:00,18:00-21:00; Tu-We,Fr 09:00-13:00,14:00-17:00; Sa 08:30-13:00; PH,Su closed"
      }
    },
    {
      "type": "node",
      "id": 8448240756,
      "lat": 1.385525,
      "lon": 103.9015933,
      "tags": {
        "amenity": "clinic",
        "healthcare": "clinic",
        "level": "1",
        "name": "Lifeline Medical Group",
        "name:zh": "生命线西药房",
        "opening_hours": "08:00-22:00",
        "opening_hours:covid19": "Mo-Fr 08:00-21:00; Sa-Su 09:00-13:00; PH closed"
      }
    },
    {
      "type": "node",
      "id": 8448300513,
      "lat": 1.384419,
      "lon": 103.9007925,
      "tags": {
        "amenity": "clinic",
        "healthcare": "clinic",
        "level": "0",
        "name": "Sengkang Free Clinic",
        "name:zh": "盛港慈善诊所",
        "opening_hours": "Mo-Fr 09:00-12:30,14:00-17:00,19:00-21:00; Sa 09:00-12:30,14:00-19:00; PH,Su closed",
        "operator": "Kwan-In Welfare Society"
      }
    },
    {
      "type": "node",
      "id": 8448423017,
      "lat": 1.3857092,
      "lon": 103.8972981,
      "tags": {
        "amenity": "clinic",
        "healthcare": "clinic",
        "level": "0",
        "name": "Mutual Healthcare Medical Clinic",
        "name:zh": "互康诊所",
        "opening_hours": "Mo-Tu,Th 08:30-12:30,14:00-16:00,18:30-21:30; We,Fr 08:30-12:30,14:00-16:00; PH,Sa-Su 08:30-12:30"
      }
    },
    {
      "type": "node",
      "id": 8459997651,
      "lat": 1.2868999,
      "lon": 103.8187598,
      "tags": {
        "amenity": "clinic",
        "healthcare": "clinic",
        "level": "0",
        "name": "HeartlandHealth",
        "opening_hours": "08:00-13:00, 18:00-23:00"
      }
    },
    {
      "type": "node",
      "id": 8459997654,
      "lat": 1.2869037,
      "lon": 103.8188227,
      "tags": {
        "amenity": "clinic",
        "healthcare": "clinic",
        "level": "0",
        "name": "Providence Clinic @ Redhill"
      }
    },
    {
      "type": "node",
      "id": 8460232077,
      "lat": 1.2863998,
      "lon": 103.8279775,
      "tags": {
        "amenity": "clinic",
        "healthcare": "clinic",
        "level": "1",
        "name": "SBCC Baby & Child Clinic"
      }
    },
    {
      "type": "node",
      "id": 8460300242,
      "lat": 1.2860934,
      "lon": 103.8286335,
      "tags": {
        "amenity": "clinic",
        "healthcare": "clinic",
        "level": "1",
        "name": "Yim Clinic"
      }
    },
    {
      "type": "node",
      "id": 8460300256,
      "lat": 1.286071,
      "lon": 103.8289334,
      "tags": {
        "amenity": "clinic",
        "healthcare": "clinic",
        "healthcare:speciality": "paediatrics",
        "level": "0",
        "name": "SOG Clinic for Children"
      }
    },
    {
      "type": "node",
      "id": 8460359365,
      "lat": 1.2856271,
      "lon": 103.8268548,
      "tags": {
        "amenity": "clinic",
        "healthcare": "clinic",
        "level": "1",
        "name": "Thomson Women's Clinic"
      }
    },
    {
      "type": "node",
      "id": 8460359366,
      "lat": 1.2855801,
      "lon": 103.8268785,
      "tags": {
        "amenity": "clinic",
        "healthcare": "clinic",
        "level": "1",
        "name": "The iClinic"
      }
    },
    {
      "type": "node",
      "id": 8463929213,
      "lat": 1.3598346,
      "lon": 103.9317795,
      "tags": {
        "amenity": "clinic",
        "healthcare": "clinic"
      }
    },
    {
      "type": "node",
      "id": 8474547231,
      "lat": 1.394315,
      "lon": 103.9129975,
      "tags": {
        "amenity": "clinic",
        "healthcare": "clinic",
        "level": "1",
        "name": "OneCare Clinic Punggol Plaza",
        "name:zh": "益心诊疗所榜鹅"
      }
    },
    {
      "type": "node",
      "id": 8474939114,
      "lat": 1.403537,
      "lon": 103.9059814,
      "tags": {
        "amenity": "clinic",
        "healthcare": "clinic",
        "level": "0",
        "name": "My Family Clinic (Punggol Central)"
      }
    },
    {
      "type": "node",
      "id": 8481704619,
      "lat": 1.3976235,
      "lon": 103.8969541,
      "tags": {
        "amenity": "clinic",
        "healthcare": "clinic",
        "level": "0",
        "name": "Pinnacle Family Clinic (Compassvale)"
      }
    },
    {
      "type": "node",
      "id": 8481940634,
      "lat": 1.394781,
      "lon": 103.8880698,
      "tags": {
        "amenity": "clinic",
        "branch": "Anchorvale",
        "healthcare": "clinic",
        "level": "0",
        "name": "My Family Clinic (Anchorvale)",
        "opening_hours": "Mo,We-Th 08:00-14:00,18:00-21:00; Tu,Fr-Sa 08:00-14:00; PH,Su closed",
        "operator": "My Family Clinic"
      }
    },
    {
      "type": "node",
      "id": 8496654269,
      "lat": 1.3202162,
      "lon": 103.9033134,
      "tags": {
        "amenity": "clinic",
        "healthcare": "clinic",
        "name": "Neoh & Ong Medical Clinic"
      }
    },
    {
      "type": "node",
      "id": 8496654270,
      "lat": 1.3211592,
      "lon": 103.9032353,
      "tags": {
        "amenity": "clinic",
        "healthcare": "clinic",
        "name": "Kirin Clinic & Surgery",
        "name:zh": "祥麟诊所"
      }
    },
    {
      "type": "node",
      "id": 8496654280,
      "lat": 1.3198925,
      "lon": 103.9038068,
      "tags": {
        "amenity": "clinic",
        "healthcare": "clinic",
        "level": "0",
        "name": "EC Family Clinic"
      }
    },
    {
      "type": "node",
      "id": 8505795931,
      "lat": 1.2887871,
      "lon": 103.8146922,
      "tags": {
        "amenity": "clinic",
        "branch": "Lengkok Bahru",
        "healthcare": "clinic",
        "name": "Meden Clinic & Surgery"
      }
    },
    {
      "type": "node",
      "id": 8520102601,
      "lat": 1.3483241,
      "lon": 103.8495404,
      "tags": {
        "amenity": "clinic",
        "healthcare": "clinic",
        "healthcare:speciality": "ophthalmology",
        "level": "0",
        "name": "Eye Care Clinic Bishan",
        "wheelchair": "limited"
      }
    },
    {
      "type": "node",
      "id": 8520102612,
      "lat": 1.3484422,
      "lon": 103.8495658,
      "tags": {
        "amenity": "clinic",
        "healthcare": "clinic",
        "level": "0",
        "name": "T P Sim Family Clinic & Surgery",
        "name:zh": "沈氏西药房",
        "wheelchair": "limited"
      }
    },
    {
      "type": "node",
      "id": 8520114129,
      "lat": 1.3494771,
      "lon": 103.8499904,
      "tags": {
        "amenity": "clinic",
        "healthcare": "clinic",
        "level": "0",
        "name": "Prudence Family Clinic"
      }
    },
    {
      "type": "node",
      "id": 8520114130,
      "lat": 1.3483221,
      "lon": 103.8493688,
      "tags": {
        "amenity": "clinic",
        "healthcare": "clinic",
        "level": "0",
        "name": "DA Clinic @ Bishan",
        "wheelchair": "limited"
      }
    },
    {
      "type": "node",
      "id": 8520114138,
      "lat": 1.3485176,
      "lon": 103.8485376,
      "tags": {
        "amenity": "clinic",
        "healthcare": "clinic",
        "healthcare:speciality": "gynaecology",
        "level": "0",
        "name": "Astra Women's Specialist Centre"
      }
    },
    {
      "type": "node",
      "id": 8520114139,
      "lat": 1.3482867,
      "lon": 103.8495324,
      "tags": {
        "amenity": "clinic",
        "healthcare": "clinic",
        "level": "0",
        "name": "Lifeline Bishan Medical Clinic",
        "wheelchair": "limited"
      }
    },
    {
      "type": "node",
      "id": 8527380222,
      "lat": 1.2914685,
      "lon": 103.85115,
      "tags": {
        "amenity": "clinic",
        "healthcare": "clinic",
        "level": "2",
        "name": "The Hearing Room"
      }
    },
    {
      "type": "node",
      "id": 8527380227,
      "lat": 1.2912098,
      "lon": 103.851479,
      "tags": {
        "amenity": "clinic",
        "healthcare": "clinic",
        "healthcare:speciality": "psychiatry",
        "level": "3",
        "name": "Adelphi Psych Medicine Clinic"
      }
    },
    {
      "type": "node",
      "id": 8548140738,
      "lat": 1.3833115,
      "lon": 103.8929226,
      "tags": {
        "amenity": "clinic",
        "healthcare": "clinic",
        "level": "0",
        "name": "Q&M Medical Clinic (Buangkok Mrt)"
      }
    },
    {
      "type": "node",
      "id": 8548247947,
      "lat": 1.3777985,
      "lon": 103.8915104,
      "tags": {
        "amenity": "clinic",
        "bunker_type": "bomb_shelter",
        "healthcare": "clinic",
        "level": "-1",
        "military": "bunker",
        "name": "Everhealth Medical Centre",
        "name:zh": "永康西药房",
        "wheelchair": "no"
      }
    },
    {
      "type": "node",
      "id": 8548350142,
      "lat": 1.3733522,
      "lon": 103.8861324,
      "tags": {
        "amenity": "clinic",
        "healthcare": "clinic",
        "level": "0",
        "name": "Neighbourhood Medical Clinic"
      }
    },
    {
      "type": "node",
      "id": 8548399938,
      "lat": 1.3721376,
      "lon": 103.8864401,
      "tags": {
        "amenity": "clinic",
        "healthcare": "clinic",
        "level": "0",
        "name": "Hougang Specialist Eye Centre"
      }
    },
    {
      "type": "node",
      "id": 8548481855,
      "lat": 1.3701565,
      "lon": 103.8839615,
      "tags": {
        "amenity": "clinic",
        "healthcare": "clinic",
        "name": "Pow Family Clinic & Surgery"
      }
    },
    {
      "type": "node",
      "id": 8556405245,
      "lat": 1.3724889,
      "lon": 103.8474507,
      "tags": {
        "amenity": "clinic",
        "healthcare": "clinic",
        "level": "0",
        "name": "Raffles Medical"
      }
    },
    {
      "type": "node",
      "id": 8556405246,
      "lat": 1.3723101,
      "lon": 103.8474714,
      "tags": {
        "amenity": "clinic",
        "healthcare": "clinic",
        "level": "0",
        "name": "Kids First Clinic"
      }
    },
    {
      "type": "node",
      "id": 8556405260,
      "lat": 1.3714569,
      "lon": 103.8467562,
      "tags": {
        "amenity": "clinic",
        "healthcare": "clinic",
        "level": "0",
        "name": "Life Family Clinic"
      }
    },
    {
      "type": "node",
      "id": 8566305138,
      "lat": 1.4029763,
      "lon": 103.9128899,
      "tags": {
        "amenity": "clinic",
        "healthcare": "clinic",
        "level": "0",
        "name": "Parkway Shenton Medical Group"
      }
    },
    {
      "type": "node",
      "id": 8566472184,
      "lat": 1.3047759,
      "lon": 103.8302232,
      "tags": {
        "amenity": "clinic",
        "healthcare": "clinic",
        "healthcare:speciality": "ophthalmology",
        "level": "4",
        "name": "Shinagawa Eye Centre"
      }
    },
    {
      "type": "node",
      "id": 8566563488,
      "lat": 1.3061,
      "lon": 103.8288073,
      "tags": {
        "amenity": "clinic",
        "healthcare": "clinic",
        "healthcare:speciality": "paediatrics",
        "level": "1",
        "name": "Olive Tree"
      }
    },
    {
      "type": "node",
      "id": 8577871962,
      "lat": 1.3586058,
      "lon": 103.8847533,
      "tags": {
        "amenity": "clinic",
        "healthcare": "clinic",
        "level": "0",
        "name": "Goh Clinic & Surgery"
      }
    },
    {
      "type": "node",
      "id": 8577937531,
      "lat": 1.3578976,
      "lon": 103.8835025,
      "tags": {
        "amenity": "clinic",
        "healthcare": "clinic",
        "level": "0",
        "name": "Eastern Hougang Eye Specialist",
        "opening_hours": "Mo-Tu,Fr 14:00-18:00; Th 17:00-21:00; We,Sa 09:00-13:30"
      }
    },
    {
      "type": "node",
      "id": 8578225058,
      "lat": 1.3587045,
      "lon": 103.8867242,
      "tags": {
        "amenity": "clinic",
        "healthcare": "clinic",
        "level": "0",
        "name": "Lim Country Clinic"
      }
    },
    {
      "type": "node",
      "id": 8578225073,
      "lat": 1.3587141,
      "lon": 103.886752,
      "tags": {
        "amenity": "clinic",
        "healthcare": "clinic",
        "name": "Healthcare Medical @ Kovan"
      }
    },
    {
      "type": "node",
      "id": 8578225074,
      "lat": 1.3593415,
      "lon": 103.8880613,
      "tags": {
        "amenity": "clinic",
        "healthcare": "clinic",
        "name": "Dr Chan Clinic"
      }
    },
    {
      "type": "node",
      "id": 8578225077,
      "lat": 1.3593376,
      "lon": 103.887589,
      "tags": {
        "amenity": "clinic",
        "healthcare": "clinic",
        "healthcare:speciality": "gynaecology",
        "level": "0",
        "name": "Gynae Health Clinic For Women"
      }
    },
    {
      "type": "node",
      "id": 8578243896,
      "lat": 1.3593732,
      "lon": 103.8865521,
      "tags": {
        "amenity": "clinic",
        "healthcare": "clinic",
        "level": "0",
        "name": "Intemedical Kovan"
      }
    },
    {
      "type": "node",
      "id": 8597349717,
      "lat": 1.3174634,
      "lon": 103.892736,
      "tags": {
        "amenity": "clinic",
        "healthcare": "clinic",
        "level": "3",
        "name": "True Medical Clinic"
      }
    },
    {
      "type": "node",
      "id": 8597884839,
      "lat": 1.3146784,
      "lon": 103.8948875,
      "tags": {
        "amenity": "clinic",
        "healthcare": "clinic",
        "healthcare:speciality": "orthopaedics",
        "level": "1",
        "name": "Chiro Time"
      }
    },
    {
      "type": "node",
      "id": 8598400970,
      "lat": 1.3191671,
      "lon": 103.8946109,
      "tags": {
        "amenity": "clinic",
        "healthcare": "clinic",
        "level": "1",
        "name": "Parkway Shenton Medical Group"
      }
    },
    {
      "type": "node",
      "id": 8598400987,
      "lat": 1.3187616,
      "lon": 103.8943566,
      "tags": {
        "amenity": "clinic",
        "healthcare": "clinic",
        "healthcare:speciality": "traditional_chinese_medicine",
        "level": "1",
        "name": "Kin Teck Kong"
      }
    },
    {
      "type": "node",
      "id": 8620920469,
      "lat": 1.3915161,
      "lon": 103.8762046,
      "tags": {
        "amenity": "clinic",
        "healthcare": "clinic",
        "level": "2",
        "name": "Etern Medical Clinic (Sengkang)"
      }
    },
    {
      "type": "node",
      "id": 8621159313,
      "lat": 1.3920201,
      "lon": 103.8716567,
      "tags": {
        "amenity": "clinic",
        "healthcare": "clinic",
        "level": "0",
        "name": "Island Family Clinic"
      }
    },
    {
      "type": "node",
      "id": 8621159315,
      "lat": 1.3918621,
      "lon": 103.8713239,
      "tags": {
        "amenity": "clinic",
        "healthcare": "clinic",
        "healthcare:speciality": "traditional_chinese_medicine",
        "level": "0",
        "name": "Xing Juan TCM Clinic"
      }
    },
    {
      "type": "node",
      "id": 8621159316,
      "lat": 1.3918582,
      "lon": 103.8715542,
      "tags": {
        "amenity": "clinic",
        "healthcare": "clinic",
        "level": "0",
        "name": "Holistic Care Family Clinic",
        "wheelchair": "yes"
      }
    },
    {
      "type": "node",
      "id": 8627982665,
      "lat": 1.3335559,
      "lon": 103.8496979,
      "tags": {
        "amenity": "clinic",
        "healthcare": "clinic",
        "level": "0",
        "name": "Doctors Inc Medical Group"
      }
    },
    {
      "type": "node",
      "id": 8642464804,
      "lat": 1.2761097,
      "lon": 103.8458445,
      "tags": {
        "amenity": "clinic",
        "healthcare": "clinic",
        "level": "0",
        "name": "DA Clinic @ Anson"
      }
    },
    {
      "type": "node",
      "id": 8642680423,
      "lat": 1.2794961,
      "lon": 103.8535499,
      "tags": {
        "amenity": "clinic",
        "healthcare": "clinic",
        "level": "0",
        "name": "Fullerton Healthcare"
      }
    },
    {
      "type": "node",
      "id": 8658564750,
      "lat": 1.3719474,
      "lon": 103.9467099,
      "tags": {
        "amenity": "clinic",
        "fixme": "name",
        "healthcare": "clinic",
        "level": "0"
      }
    },
    {
      "type": "node",
      "id": 8658564751,
      "lat": 1.3731372,
      "lon": 103.9455918,
      "tags": {
        "amenity": "clinic",
        "healthcare": "clinic",
        "level": "0",
        "name": "Pinnacle Family Clinic (Pasir Ris)"
      }
    },