planning_area,subzone,poi_dimension,place_query_type,search_query,place_id,place_name,formatted_address,rating,user_ratings_total,types,lat,lng,need_reviews
Pioneer,Benoi Sector,education,kindergarten,"kindergarten in Benoi Sector, Pioneer, Singapore",ChIJjzdbRrfbpaoRyr0wiI8kNKs,Small Wonder Pioneer,"20 Jurong West Street 93, #01-03 Sports Centre, Singapore 648965",5.0,10,"[""establishment"", ""point_of_interest"", ""school""]",1.3383436,103.6943961,True
Pioneer,Benoi Sector,education,kindergarten,"kindergarten in Benoi Sector, Pioneer, Singapore",ChIJvYCei1UF2jERymQTneDrrAo,Star Learners @ Yung Ho | Preschool & Childcare,"21 Yung Ho Rd, #01-01/02 THE AGAPE, Singapore 618593",4.8,65,"[""establishment"", ""point_of_interest"", ""school""]",1.3268828,103.724787,True
Pioneer,Benoi Sector,education,childcare centre,"childcare centre in Benoi Sector, Pioneer, Singapore",ChIJG5i7aoAF2jERMhx2MU177pU,NTUC LearningHub @ Benoi,"60 Benoi Rd, #01-08 EMS Building, Singapore 629906",4.3,361,"[""establishment"", ""point_of_interest""]",1.3264119,103.6802406,True
Pioneer,Benoi Sector,education,primary school,"primary school in Benoi Sector, Pioneer, Singapore",ChIJNfn2jZwP2jERnKZlZ5yCUWc,Pioneer Primary School,"80 Tengah Garden Ave, Singapore 699915",,0,"[""establishment"", ""point_of_interest"", ""primary_school"", ""school""]",1.3545526,103.7322664,True
Pioneer,Benoi Sector,education,primary school,"primary school in Benoi Sector, Pioneer, Singapore",ChIJN2U85fIa2jERU3xusMZifDo,International Community School (Singapore),"27a Jubilee Rd, Singapore 128575",4.6,101,"[""establishment"", ""point_of_interest"", ""school""]",1.3068214,103.7660743,True
Pioneer,Benoi Sector,education,secondary school,"secondary school in Benoi Sector, Pioneer, Singapore",ChIJc2MrR5QP2jERndRHjWsok84,Boon Lay Secondary School,"11 Jurong West Street 65, Singapore 648354",,0,"[""establishment"", ""point_of_interest"", ""school""]",1.343319,103.7019012,True
Pioneer,Benoi Sector,education,secondary school,"secondary school in Benoi Sector, Pioneer, Singapore",ChIJsyTJCRcQ2jERfwQiMdnbBFE,Crest Secondary School,"561 Jurong East St 24, Singapore 609561",,0,"[""establishment"", ""point_of_interest"", ""school"", ""secondary_school""]",1.3431881,103.7428957,True
Pioneer,Benoi Sector,education,junior college,"junior college in Benoi Sector, Pioneer, Singapore",ChIJz_-CGpUR2jERsxAVVh_vnoY,Jurong Pioneer Junior College,"21 Teck Whye Walk, Singapore 688258",3.8,86,"[""establishment"", ""point_of_interest"", ""university""]",1.3847446,103.753857,True
Pioneer,Benoi Sector,education,junior college,"junior college in Benoi Sector, Pioneer, Singapore",ChIJ7aAp7AkX2jERMXPZER1KuCU,Nanyang Junior College,"128 Serangoon Ave 3, 128, Singapore 556111",4.5,144,"[""establishment"", ""point_of_interest"", ""university""]",1.3503224,103.8664323,True
Pioneer,Benoi Sector,education,polytechnic,"polytechnic in Benoi Sector, Pioneer, Singapore",ChIJFXzxL2Aa2jERnoWTOdJdVKk,Singapore Polytechnic,"500 Dover Rd, Singapore 139651",4.3,646,"[""establishment"", ""point_of_interest""]",1.3097757,103.7775495,True
Pioneer,Benoi Sector,education,polytechnic,"polytechnic in Benoi Sector, Pioneer, Singapore",ChIJWeO0jn0Q2jERQwzr3v_n0nU,Ngee Ann Polytechnic,"535 Clementi Rd, Singapore 599489",4.3,500,"[""establishment"", ""point_of_interest""]",1.3315798,103.7747134,True
Pioneer,Benoi Sector,education,university,"university in Benoi Sector, Pioneer, Singapore",ChIJY0QBmQoP2jERGYItxQAIu7g,Nanyang Technological University,"50 Nanyang Ave, Singapore 639798",4.5,1477,"[""establishment"", ""point_of_interest"", ""university""]",1.3483099,103.6831347,True
Pioneer,Benoi Sector,education,university,"university in Benoi Sector, Pioneer, Singapore",ChIJeV15hGIX2jERD4aFEmOeoYM,Curtin Singapore,"10 Science Park Road, Level 3 Unit 03-08 The Alpha, Science Park II, Singapore 117684",3.4,95,"[""establishment"", ""point_of_interest"", ""university""]",1.288347,103.7796998,True
Pioneer,Benoi Sector,education,tuition centre,"tuition centre in Benoi Sector, Pioneer, Singapore",ChIJxVpRXY0b2jERLaTEQpzXKf0,Pillora Learning,"729 Clementi West Street 2, Singapore 120729",5.0,5,"[""establishment"", ""point_of_interest""]",1.3050998,103.763368,True
Pioneer,Benoi Sector,education,library,"library in Benoi Sector, Pioneer, Singapore",ChIJmYVTSugb2jERP-l57ZRd5sI,Comics Library at West Coast Community Centre,"2 Clementi West Street 2, #01-02B West Coast Community Centre, Singapore 129605",4.7,3,"[""establishment"", ""library"", ""point_of_interest""]",1.3027662,103.7650332,True
Pioneer,Benoi Sector,education,library,"library in Benoi Sector, Pioneer, Singapore",ChIJF3XNQ5MP2jERXeUO2D_OtYY,Jurong West Library,"60 Jurong West Central 3, #01-03, Singapore 648346",4.3,269,"[""establishment"", ""library"", ""point_of_interest""]",1.3403486,103.7045246,True
Pioneer,Benoi Sector,transport,MRT station,"MRT station in Benoi Sector, Pioneer, Singapore",ChIJXyBuLMsP2jERcHONsd6ojww,Pioneer MRT Station (EW28),"31 Jurong West Street 63, Singapore 648310",4.4,728,"[""establishment"", ""point_of_interest""]",1.3375915,103.6973658,True
Pioneer,Benoi Sector,transport,MRT station,"MRT station in Benoi Sector, Pioneer, Singapore",ChIJzRnjMpAP2jERg3vUJQgsTI0,Pioneer,"31 Jurong West Street 63, Singapore 648310",4.3,300,"[""establishment"", ""point_of_interest"", ""subway_station"", ""transit_station""]",1.3376415,103.696899,True
Pioneer,Benoi Sector,transport,bus stop,"bus stop in Benoi Sector, Pioneer, Singapore",ChIJDy8opHEF2jER823-l8UGc88,Bef Benoi Sector,Singapore,3.0,1,"[""establishment"", ""point_of_interest"", ""transit_station""]",1.314929,103.691628,True
Pioneer,Benoi Sector,transport,bus stop,"bus stop in Benoi Sector, Pioneer, Singapore",ChIJ3YCk1ngF2jERp1KYljphZWA,Aft Benoi Sector,Singapore,3.0,2,"[""establishment"", ""point_of_interest"", ""transit_station""]",1.3224213,103.6856239,True
Pioneer,Benoi Sector,transport,bus interchange,"bus interchange in Benoi Sector, Pioneer, Singapore",ChIJ840mh30P2jER0YmCq4KVb50,Joo Koon Bus Interchange,"55 Benoi Rd, Singapore 629907",4.3,78,"[""establishment"", ""point_of_interest""]",1.3269971,103.678291,True
Pioneer,Benoi Sector,transport,bus interchange,"bus interchange in Benoi Sector, Pioneer, Singapore",ChIJw0m664AF2jERTLDgYit3cwY,Joo Koon Bus Interchange,"55 Benoi Rd, Singapore 629907",2.9,33,"[""establishment"", ""point_of_interest"", ""transit_station""]",1.3256481,103.6784801,True
Pioneer,Benoi Sector,food,hawker centre,"hawker centre in Benoi Sector, Pioneer, Singapore",ChIJe7pl9XkF2jERVvFioXlFWfw,Mapletree Aircon Food Court,"21 Benoi Sector, Singapore 629853",4.0,240,"[""establishment"", ""food"", ""point_of_interest""]",1.3191266,103.6883396,True
Pioneer,Benoi Sector,food,hawker centre,"hawker centre in Benoi Sector, Pioneer, Singapore",ChIJZYudK5EP2jERoyXvsmYRcEY,Jurong West Hawker Centre,"50 Jurong West Street 61, #61, Singapore 648202",3.7,1041,"[""establishment"", ""food"", ""point_of_interest"", ""restaurant""]",1.3412184,103.6973341,True
Pioneer,Benoi Sector,food,food court,"food court in Benoi Sector, Pioneer, Singapore",ChIJLdnZOcIF2jER13UEDKpG1bk,Huat Li Food Court,"2 Benoi Pl, Singapore 629924",3.5,16,"[""cafe"", ""establishment"", ""food"", ""point_of_interest"", ""store""]",1.3132886,103.6792321,True
Pioneer,Benoi Sector,food,coffee shop,"coffee shop in Benoi Sector, Pioneer, Singapore",ChIJIzgaS3wF2jER8WiW0-sk2Oo,De Tian Coffee House Lokyang Canteen,"2 Third Lok Yang Rd, Singapore 627997",3.9,869,"[""cafe"", ""establishment"", ""food"", ""point_of_interest"", ""store""]",1.3248134,103.6899515,True
Pioneer,Benoi Sector,food,restaurant,"restaurant in Benoi Sector, Pioneer, Singapore",ChIJG5i7aoAF2jERz2Y0u1T7g6E,Guan Heng Restaurant,"60 Benoi Rd, Singapore 629906",4.5,2,"[""establishment"", ""food"", ""point_of_interest"", ""restaurant""]",1.326343,103.681076,True
Pioneer,Benoi Sector,shopping,shopping mall,"shopping mall in Benoi Sector, Pioneer, Singapore",ChIJ67mVKpcP2jERmahUvC-ZIwc,Pioneer Mall,"638 Jurong West Street 61, Singapore 640638",4.0,2580,"[""establishment"", ""point_of_interest"", ""shopping_mall""]",1.3418699,103.6973858,True
Pioneer,Benoi Sector,shopping,shopping mall,"shopping mall in Benoi Sector, Pioneer, Singapore",ChIJ82AoVA8Q2jERkHnr1RPW9B4,Westgate,"3 Gateway Dr, Singapore 608532",4.3,14827,"[""establishment"", ""point_of_interest"", ""shopping_mall""]",1.334382,103.7427836,True
Pioneer,Benoi Sector,shopping,supermarket,"supermarket in Benoi Sector, Pioneer, Singapore",ChIJyV81n4AF2jERnrHVt04CmMU,FairPrice Joo Koon,"1 Joo Koon Cir, Singapore 629117",4.3,1351,"[""establishment"", ""food"", ""grocery_or_supermarket"", ""point_of_interest"", ""store"", ""supermarket""]",1.3272037,103.6786391,True
Pioneer,Benoi Sector,shopping,supermarket,"supermarket in Benoi Sector, Pioneer, Singapore",ChIJO6aM0JYP2jERow6S9JoAkdY,Giant Hypermarket,"638 Jurong West Street 61, #03-01, Singapore 640638",4.0,610,"[""establishment"", ""food"", ""grocery_or_supermarket"", ""point_of_interest"", ""store"", ""supermarket""]",1.3418699,103.6973858,True
Pioneer,Benoi Sector,shopping,grocery store,"grocery store in Benoi Sector, Pioneer, Singapore",ChIJkdHr4vEa2jERWFR5UjO2-jU,MahaMart,"722 Clementi West Street 2, #01-158A, Singapore 120722",4.1,33,"[""establishment"", ""food"", ""grocery_or_supermarket"", ""point_of_interest"", ""store""]",1.302909,103.763786,True
Pioneer,Benoi Sector,shopping,convenience store,"convenience store in Benoi Sector, Pioneer, Singapore",ChIJJwwqaJQF2jER3cCI0iSA54c,Not the Same,"55 Benoi Rd, #01-04/15 Joo Koon Bus Interchange, Singapore 629907",,0,"[""convenience_store"", ""establishment"", ""food"", ""point_of_interest"", ""store""]",1.3270994,103.6781475,True
Pioneer,Benoi Sector,shopping,convenience store,"convenience store in Benoi Sector, Pioneer, Singapore",ChIJQ67ZTv4P2jERtSazyeSB1Fw,Haveen Minimart Pte Ltd,"91 Joo Koon Cir, #02-01 Joo Koon MRT Station, Singapore 629116",2.3,3,"[""convenience_store"", ""establishment"", ""food"", ""point_of_interest"", ""store""]",1.3279229,103.6789045,True
Pioneer,Benoi Sector,shopping,wet market,"wet market in Benoi Sector, Pioneer, Singapore",ChIJA-S30F8b2jER46-WSc7Ak2g,Teban Gardens Wet Market,"37A Teban Gardens Rd, Singapore 601037",4.4,91,"[""establishment"", ""point_of_interest""]",1.32086,103.7427812,True
Pioneer,Benoi Sector,shopping,wet market,"wet market in Benoi Sector, Pioneer, Singapore",ChIJfY_zJ6MF2jERefg_hPaVgp8,Jurong Fishery Port,"Fishery Port Rd, Singapore 619742",4.4,104,"[""establishment"", ""food"", ""point_of_interest""]",1.3083323,103.7240679,True
Pioneer,Benoi Sector,recreation,gym,"gym in Benoi Sector, Pioneer, Singapore",ChIJ5VSH70MP2jERvFL2-9MAz2Q,BFT Pioneer,"511 Upper Jurong Rd, Block E-02-02A D'Arena, Singapore 638366",4.9,95,"[""establishment"", ""gym"", ""health"", ""point_of_interest""]",1.329525,103.6830346,True
Pioneer,Benoi Sector,recreation,gym,"gym in Benoi Sector, Pioneer, Singapore",ChIJ08t6PjYP2jERi4sIp8Z1Sw0,Anytime Fitness,"638 Jurong West Street 61, #03-01 Pioneer Mall, Singapore 640638",4.8,340,"[""establishment"", ""gym"", ""health"", ""point_of_interest""]",1.3418699,103.6973858,True
Pioneer,Benoi Sector,recreation,sports centre,"sports centre in Benoi Sector, Pioneer, Singapore",ChIJEwW7gpoP2jER4o0mrMTZddM,Jurong West Sport Centre,"20 Jurong West Street 93, Singapore 648965",4.3,1868,"[""establishment"", ""point_of_interest""]",1.3378059,103.6941925,True
Pioneer,Benoi Sector,recreation,sports centre,"sports centre in Benoi Sector, Pioneer, Singapore",ChIJYeredpAP2jERduiD1Z5dTGI,Jurong West Sport Hall,"20 Jurong West Street 93, #02-18, Singapore 648965",4.4,240,"[""establishment"", ""point_of_interest""]",1.3385286,103.6932988,True
Pioneer,Benoi Sector,recreation,swimming complex,"swimming complex in Benoi Sector, Pioneer, Singapore",ChIJ4Qton5oP2jERihKBVLOV04k,Jurong West Swimming Complex,"20 Jurong West Street 93, Singapore 648965",4.2,978,"[""establishment"", ""point_of_interest""]",1.337881,103.6937455,True
Pioneer,Benoi Sector,recreation,swimming complex,"swimming complex in Benoi Sector, Pioneer, Singapore",ChIJWaHnCyAQ2jERlnBesVA4gic,Jurong East Swimming Complex,"21 Jurong East Street 31, #01-01, Singapore 609517",4.1,2323,"[""establishment"", ""gym"", ""health"", ""point_of_interest"", ""tourist_attraction""]",1.3461702,103.7293471,True
Pioneer,Benoi Sector,recreation,cinema,"cinema in Benoi Sector, Pioneer, Singapore",ChIJFx7cQgAR2jERum7NN5FvIOk,Shaw Theatres JEM,"50 Jurong Gateway Rd, #05 04, Singapore 608549",4.0,83,"[""establishment"", ""movie_theater"", ""point_of_interest""]",1.33312,103.7432173,True
Pioneer,Benoi Sector,recreation,cinema,"cinema in Benoi Sector, Pioneer, Singapore",ChIJWcpxFQQQ2jERpLIO6PcPP4U,Omni-Theatre,"21 Jurong Town Hall Rd, Singapore 609433",4.2,388,"[""establishment"", ""movie_theater"", ""point_of_interest""]",1.3343811,103.7358137,True
Pioneer,Benoi Sector,recreation,community club,"community club in Benoi Sector, Pioneer, Singapore",ChIJ0S3wSmoa2jER2aq7I8gFiy0,Buona Vista Community Club,"36 Holland Dr, Singapore 270036",4.2,1125,"[""establishment"", ""point_of_interest""]",1.3094603,103.7926982,True
Pioneer,Benoi Sector,recreation,community club,"community club in Benoi Sector, Pioneer, Singapore",ChIJd4ldQJMP2jERlQdLPkzVa4A,The Frontier Community Club,"60 Jurong West Central 3, #01-01 The Frontier Community Place, Singapore 648346",4.2,496,"[""establishment"", ""point_of_interest""]",1.3402124,103.7042859,True
Pioneer,Benoi Sector,recreation,playground,"playground in Benoi Sector, Pioneer, Singapore",ChIJx7P2KJ8P2jER2CjBImw8IAg,Forest Ramble,"104 Yuan Ching Rd, Singapore",4.6,113,"[""establishment"", ""point_of_interest""]",1.3373483,103.7268212,True
Pioneer,Benoi Sector,recreation,playground,"playground in Benoi Sector, Pioneer, Singapore",ChIJg3WzLY4P2jEReHtqornzyyA,Playground,"652 Jurong West Street 61, Singapore 640652",3.8,9,"[""establishment"", ""point_of_interest""]",1.3362958,103.6971945,True
Pioneer,Benoi Sector,nature,park,"park in Benoi Sector, Pioneer, Singapore",ChIJJTvN5Ckb2jERdwPiAsqZxOo,West Coast Park Connector,Singapore,4.5,2,"[""establishment"", ""point_of_interest""]",1.3021111,103.7654464,True
Pioneer,Benoi Sector,nature,park,"park in Benoi Sector, Pioneer, Singapore",ChIJQ8uk4vwa2jERqMrT6OFBMuw,West Coast Park,"W Coast Ferry Rd, Singapore 126978",4.4,7048,"[""establishment"", ""park"", ""point_of_interest"", ""tourist_attraction""]",1.2913603,103.7666534,True
Pioneer,Benoi Sector,nature,nature reserve,"nature reserve in Benoi Sector, Pioneer, Singapore",ChIJR9wDuIwQ2jERp5g9l0m9MQ0,Rifle Range Nature Park,"Rifle Range Rd, Singapore 589322",4.7,1043,"[""establishment"", ""park"", ""point_of_interest"", ""tourist_attraction""]",1.3434752,103.7794063,True
Pioneer,Benoi Sector,nature,nature reserve,"nature reserve in Benoi Sector, Pioneer, Singapore",ChIJe0cEPoIS2jERs_rS2qvGOxw,Sungei Buloh Wetland Reserve,"301 Neo Tiew Cres, Singapore 718925",4.6,4695,"[""establishment"", ""park"", ""point_of_interest"", ""tourist_attraction""]",1.4464304,103.723404,True
Pioneer,Benoi Sector,nature,garden,"garden in Benoi Sector, Pioneer, Singapore",ChIJWQLwKP0P2jER-AOMrDbkIW8,Jurong Lake Gardens,"Yuan Ching Rd, Singapore",4.6,6461,"[""establishment"", ""park"", ""point_of_interest"", ""tourist_attraction""]",1.3348492,103.7264557,True
Pioneer,Benoi Sector,nature,garden,"garden in Benoi Sector, Pioneer, Singapore",ChIJp167A6UP2jERUrVmCHG99mg,The Potter's Garden,"Cleantech Loop, Singapore",4.1,433,"[""establishment"", ""park"", ""point_of_interest"", ""tourist_attraction""]",1.3523233,103.6931591,True
Pioneer,Benoi Sector,nature,beach,"beach in Benoi Sector, Pioneer, Singapore",ChIJuU9qyPgb2jERidqJVhPuyUw,Ola Beach Club,"46 Siloso Bch Walk, Singapore 099005",4.3,2663,"[""bar"", ""establishment"", ""food"", ""point_of_interest"", ""restaurant"", ""tourist_attraction""]",1.2531173,103.8152455,True
Pioneer,Benoi Sector,nature,waterfront,"waterfront in Benoi Sector, Pioneer, Singapore",ChIJX8pq3q4Z2jER6EUahW8FHso,3 Benoi road Kuehne Nagel Waterfront Hub,"3 Benoi Rd, #01-01, Singapore 629877",4.5,8,"[""establishment"", ""point_of_interest""]",1.3054348,103.6806175,True
Pioneer,Benoi Sector,nature,waterfront,"waterfront in Benoi Sector, Pioneer, Singapore",ChIJ96HBJZ8a2jERl1GsjJmk-70,Waterfront @ Faber,"48 Faber Walk, Singapore 128993",4.4,120,"[""establishment"", ""point_of_interest""]",1.3232117,103.754716,True
Pioneer,Benoi Sector,nature,park connector,"park connector in Benoi Sector, Pioneer, Singapore",ChIJOXwacPMP2jERxTgW0ZaOFTQ,Park Connector,"Yuan Ching Road, Singapore",5.0,2,"[""establishment"", ""point_of_interest""]",1.3282212,103.850917,True
Pioneer,Benoi Sector,nature,park connector,"park connector in Benoi Sector, Pioneer, Singapore",ChIJh96XTAAP2jERpzIEPWepVmE,Jurong Park Connector,"10 Boon Lay Way, Singapore 609966",3.0,2,"[""establishment"", ""point_of_interest""]",1.344735,103.727915,True
Pioneer,Gul Basin,education,kindergarten,"kindergarten in Gul Basin, Pioneer, Singapore",ChIJjzdbRrfbpaoRyr0wiI8kNKs,Small Wonder Pioneer,"20 Jurong West Street 93, #01-03 Sports Centre, Singapore 648965",5.0,10,"[""establishment"", ""point_of_interest"", ""school""]",1.3383436,103.6943961,True
Pioneer,Gul Basin,education,kindergarten,"kindergarten in Gul Basin, Pioneer, Singapore",ChIJq55LB_Qa2jERwkpjikTUzOo,Little Footprints Preschool @ West Coast,"6 Jubilee Rd, Singapore 128531",4.7,39,"[""establishment"", ""point_of_interest"", ""school""]",1.3053004,103.7650364,True
Pioneer,Gul Basin,education,childcare centre,"childcare centre in Gul Basin, Pioneer, Singapore",ChIJ6eV619wP2jERyt1BH1Y4upE,Graceland Student Care Centre,"517 Jurong West Street 52, #01-87, Singapore 640517",4.6,23,"[""establishment"", ""point_of_interest""]",1.3456775,103.7194616,True
Pioneer,Gul Basin,education,primary school,"primary school in Gul Basin, Pioneer, Singapore",ChIJNfn2jZwP2jERnKZlZ5yCUWc,Pioneer Primary School,"80 Tengah Garden Ave, Singapore 699915",,0,"[""establishment"", ""point_of_interest"", ""primary_school"", ""school""]",1.3545526,103.7322664,True
Pioneer,Gul Basin,education,primary school,"primary school in Gul Basin, Pioneer, Singapore",ChIJ0c1cxJ4P2jERiZ70xxE_V1I,Xingnan Primary School,"5 Jurong West Street 91, Singapore 649036",,0,"[""establishment"", ""point_of_interest"", ""primary_school"", ""school""]",1.3427136,103.6875523,True
Pioneer,Gul Basin,education,secondary school,"secondary school in Gul Basin, Pioneer, Singapore",ChIJ46KllfQa2jERJJJ1ER0aiXo,NUS High Boarding School,"40 Clementi Ave 1, Singapore 129959",,0,"[""establishment"", ""point_of_interest"", ""school""]",1.306947,103.770705,True
Pioneer,Gul Basin,education,secondary school,"secondary school in Gul Basin, Pioneer, Singapore",ChIJQVeL74oa2jER84tkJiqj9nk,New Town Secondary School,"1020 Dover Rd, Singapore 139657",,0,"[""establishment"", ""point_of_interest"", ""school""]",1.309374,103.7733897,True
Pioneer,Gul Basin,education,junior college,"junior college in Gul Basin, Pioneer, Singapore",ChIJz_-CGpUR2jERsxAVVh_vnoY,Jurong Pioneer Junior College,"21 Teck Whye Walk, Singapore 688258",3.8,86,"[""establishment"", ""point_of_interest"", ""university""]",1.3847446,103.753857,True
Pioneer,Gul Basin,education,junior college,"junior college in Gul Basin, Pioneer, Singapore",ChIJ61lTU6EQ2jERiBDECMxHYFY,National Junior College,"37 Hillcrest Rd, Singapore 288913",4.4,182,"[""establishment"", ""point_of_interest"", ""school"", ""university""]",1.330476,103.8045,True
Pioneer,Gul Basin,education,polytechnic,"polytechnic in Gul Basin, Pioneer, Singapore",ChIJFXzxL2Aa2jERnoWTOdJdVKk,Singapore Polytechnic,"500 Dover Rd, Singapore 139651",4.3,646,"[""establishment"", ""point_of_interest""]",1.3097757,103.7775495,True
Pioneer,Gul Basin,education,polytechnic,"polytechnic in Gul Basin, Pioneer, Singapore",ChIJWeO0jn0Q2jERQwzr3v_n0nU,Ngee Ann Polytechnic,"535 Clementi Rd, Singapore 599489",4.3,500,"[""establishment"", ""point_of_interest""]",1.3315798,103.7747134,True
Pioneer,Gul Basin,education,university,"university in Gul Basin, Pioneer, Singapore",ChIJ2QJCeFYa2jERa434wdYIjUg,National University of Singapore,"21 Lower Kent Ridge Rd, University Hall, Singapore 119077",4.5,2389,"[""establishment"", ""point_of_interest"", ""university""]",1.2976493,103.7766916,True
Pioneer,Gul Basin,education,university,"university in Gul Basin, Pioneer, Singapore",ChIJvQQziYAQ2jERCOP-JKA4N9k,Singapore University of Social Sciences,"463 Clementi Rd, Singapore 599494",3.8,234,"[""establishment"", ""point_of_interest"", ""university""]",1.3286895,103.7759499,True
Pioneer,Gul Basin,education,tuition centre,"tuition centre in Gul Basin, Pioneer, Singapore",ChIJF-_CRLgP2jERlezg2cimLmM,Tuition@Pioneer,"648B Jurong West Street 61, #61, Singapore 642648",5.0,32,"[""establishment"", ""point_of_interest""]",1.3385548,103.6980808,True
Pioneer,Gul Basin,education,tuition centre,"tuition centre in Gul Basin, Pioneer, Singapore",ChIJxVpRXY0b2jERLaTEQpzXKf0,Pillora Learning,"729 Clementi West Street 2, Singapore 120729",5.0,5,"[""establishment"", ""point_of_interest""]",1.3050998,103.763368,True
Pioneer,Gul Basin,education,library,"library in Gul Basin, Pioneer, Singapore",ChIJ77M1mP4a2jERRfwA553Qz3E,NUS Central Library,"12 Kent Ridge Cres, Singapore 119275",4.6,166,"[""establishment"", ""library"", ""point_of_interest""]",1.2965182,103.773145,True
Pioneer,Gul Basin,education,library,"library in Gul Basin, Pioneer, Singapore",ChIJKaGsJKUZ2jERxa8yhKrdPfI,National Library / Lee Kong Chian Reference Library,"100 Victoria St, Singapore 188064",4.6,1764,"[""establishment"", ""library"", ""point_of_interest""]",1.2975884,103.8543081,True
Pioneer,Gul Basin,transport,MRT station,"MRT station in Gul Basin, Pioneer, Singapore",ChIJYUYvP40F2jERo8Mjh_7RhSs,Gul Circle,"7A Tuas Rd, Singapore 637288",4.4,253,"[""establishment"", ""point_of_interest"", ""subway_station"", ""transit_station""]",1.3188497,103.6603681,True
Pioneer,Gul Basin,transport,MRT station,"MRT station in Gul Basin, Pioneer, Singapore",ChIJXyBuLMsP2jERcHONsd6ojww,Pioneer MRT Station (EW28),"31 Jurong West Street 63, Singapore 648310",4.4,728,"[""establishment"", ""point_of_interest""]",1.3375915,103.6973658,True
Pioneer,Gul Basin,transport,bus stop,"bus stop in Gul Basin, Pioneer, Singapore",ChIJxXrlp6IF2jERVvbE2vci_1M,Opp Gul Way,Singapore,1.0,2,"[""establishment"", ""point_of_interest"", ""transit_station""]",1.308688,103.671806,True
Pioneer,Gul Basin,transport,bus stop,"bus stop in Gul Basin, Pioneer, Singapore",ChIJlSz8uo8F2jER5u5jmdVQF7Q,Bef Gul St 1,Singapore,4.0,1,"[""establishment"", ""point_of_interest"", ""transit_station""]",1.319792,103.669006,True
Pioneer,Gul Basin,transport,bus interchange,"bus interchange in Gul Basin, Pioneer, Singapore",ChIJw0m664AF2jERTLDgYit3cwY,Joo Koon Bus Interchange,"55 Benoi Rd, Singapore 629907",2.9,33,"[""establishment"", ""point_of_interest"", ""transit_station""]",1.3256481,103.6784801,True
Pioneer,Gul Basin,transport,bus interchange,"bus interchange in Gul Basin, Pioneer, Singapore",ChIJ6wMIk_AF2jERygYEp2Mtsfw,Tuas Cres Stn Exit B,Singapore,4.8,4,"[""establishment"", ""point_of_interest"", ""transit_station""]",1.321386,103.649117,True
Pioneer,Gul Basin,transport,LRT station,"LRT station in Gul Basin, Pioneer, Singapore",ChIJzRnjMpAP2jERg3vUJQgsTI0,Pioneer,"31 Jurong West Street 63, Singapore 648310",4.3,300,"[""establishment"", ""point_of_interest"", ""subway_station"", ""transit_station""]",1.3376415,103.696899,True
Pioneer,Gul Basin,food,hawker centre,"hawker centre in Gul Basin, Pioneer, Singapore",ChIJN-9cbJMF2jERXCwXaWxgEWE,Broadway Food Centre,"60 Gul Ln, Singapore 629437",3.7,55,"[""establishment"", ""food"", ""point_of_interest"", ""restaurant""]",1.3141599,103.6622191,True
Pioneer,Gul Basin,food,food court,"food court in Gul Basin, Pioneer, Singapore",ChIJHd9mv5EF2jERYde-2gQ6f1I,Chong Hock Eating House,"18 Gul Street 3, Singapore 629270",3.8,413,"[""cafe"", ""establishment"", ""food"", ""point_of_interest"", ""store""]",1.3171729,103.6664078,True
Pioneer,Gul Basin,food,coffee shop,"coffee shop in Gul Basin, Pioneer, Singapore",ChIJMcPrCLsb2jERepk1_M2ySu0,Doublechin Cafe,"727 Clementi West Street 2, #01-268, Singapore 120727",4.9,88,"[""cafe"", ""establishment"", ""food"", ""point_of_interest""]",1.3045967,103.7638779,True
Pioneer,Gul Basin,food,coffee shop,"coffee shop in Gul Basin, Pioneer, Singapore",ChIJsagBcgAb2jERAeP1PYWVL58,Grounds On A Hill Coffee,"106 Clementi Street 12, #01-44, Singapore 120106",4.8,89,"[""cafe"", ""establishment"", ""food"", ""point_of_interest"", ""store""]",1.3219915,103.7696075,True
Pioneer,Gul Basin,food,restaurant,"restaurant in Gul Basin, Pioneer, Singapore",ChIJZUUr9JsF2jERkdRVBDsH-u8,Gramathu Virunthu,"15 Pioneer Walk, #01-14 Pioneer Hub, Singapore 627753",5.0,3,"[""establishment"", ""food"", ""point_of_interest"", ""restaurant""]",1.3211968,103.6952553,True
Pioneer,Gul Basin,food,restaurant,"restaurant in Gul Basin, Pioneer, Singapore",ChIJDd4SbwAP2jERp8J0Wk0j5ko,88 Claypot and Stewed Soup,"90 Joo Koon Cir, Singapore 629116",5.0,2,"[""establishment"", ""food"", ""point_of_interest"", ""restaurant""]",1.3276859,103.6776465,True
Pioneer,Gul Basin,food,cafe,"cafe in Gul Basin, Pioneer, Singapore",ChIJPXLGQQAZ2jERWYgAFKpNsW4,Twenty Eight Cafe+ Kopi 1930 National Gallery,"1 St Andrew's Rd, #01-11,12,13,14,17 National Gallery, Singapore 178957",4.4,133,"[""cafe"", ""establishment"", ""food"", ""point_of_interest""]",1.2907599,103.8520576,True
Pioneer,Gul Basin,food,cafe,"cafe in Gul Basin, Pioneer, Singapore",ChIJjVFUnZMF2jERaXGmSk_HSyw,Broadway Coffeeshop @ 60 Gul Lane,"60 Gul Ln, Singapore 629437",3.7,400,"[""cafe"", ""establishment"", ""food"", ""point_of_interest"", ""store""]",1.3141667,103.6622222,True
Pioneer,Gul Basin,shopping,shopping mall,"shopping mall in Gul Basin, Pioneer, Singapore",ChIJ67mVKpcP2jERmahUvC-ZIwc,Pioneer Mall,"638 Jurong West Street 61, Singapore 640638",4.0,2580,"[""establishment"", ""point_of_interest"", ""shopping_mall""]",1.3418699,103.6973858,True
Pioneer,Gul Basin,shopping,shopping mall,"shopping mall in Gul Basin, Pioneer, Singapore",ChIJa9YM2-wP2jERmOUStQKyiS0,Jurong Point,"1 Jurong West Central 2, Singapore 648886",4.4,23245,"[""establishment"", ""food"", ""point_of_interest"", ""shopping_mall""]",1.3397443,103.7067297,True
Pioneer,Gul Basin,shopping,supermarket,"supermarket in Gul Basin, Pioneer, Singapore",ChIJ8Ws24PEa2jEReonyo71rFUo,Sheng Siong Supermarket,"720 Clementi West Street 2, #01-144, Singapore 120720",4.3,2254,"[""establishment"", ""food"", ""grocery_or_supermarket"", ""point_of_interest"", ""store"", ""supermarket""]",1.3023852,103.7637463,True
Pioneer,Gul Basin,shopping,supermarket,"supermarket in Gul Basin, Pioneer, Singapore",ChIJO6aM0JYP2jERow6S9JoAkdY,Giant Hypermarket,"638 Jurong West Street 61, #03-01, Singapore 640638",4.0,610,"[""establishment"", ""food"", ""grocery_or_supermarket"", ""point_of_interest"", ""store"", ""supermarket""]",1.3418699,103.6973858,True
Pioneer,Gul Basin,shopping,grocery store,"grocery store in Gul Basin, Pioneer, Singapore",ChIJyV81n4AF2jERnrHVt04CmMU,FairPrice Joo Koon,"1 Joo Koon Cir, Singapore 629117",4.3,1351,"[""establishment"", ""food"", ""grocery_or_supermarket"", ""point_of_interest"", ""store"", ""supermarket""]",1.3272037,103.6786391,True
Pioneer,Gul Basin,shopping,convenience store,"convenience store in Gul Basin, Pioneer, Singapore",ChIJQ67ZTv4P2jERtSazyeSB1Fw,Haveen Minimart Pte Ltd,"91 Joo Koon Cir, #02-01 Joo Koon MRT Station, Singapore 629116",2.3,3,"[""convenience_store"", ""establishment"", ""food"", ""point_of_interest"", ""store""]",1.3279229,103.6789045,True
Pioneer,Gul Basin,shopping,convenience store,"convenience store in Gul Basin, Pioneer, Singapore",ChIJy5H3IH4P2jERa6hFBq2aTSM,7-Eleven,"91 Joo Koon Cir, #02-04/05/06 Joo Koon MRT Station, Singapore 629116",2.8,13,"[""convenience_store"", ""establishment"", ""food"", ""point_of_interest"", ""store""]",1.3275971,103.6788579,True
Pioneer,Gul Basin,shopping,wet market,"wet market in Gul Basin, Pioneer, Singapore",ChIJ847ZiBAb2jERBx6e7Mn67YM,Fresh Stop (Chen Ayam),"726 Clementi West Street 2, #01-43, Singapore 120726",4.6,19,"[""establishment"", ""food"", ""point_of_interest"", ""restaurant"", ""store""]",1.3036599,103.7642506,True
Pioneer,Gul Basin,shopping,wet market,"wet market in Gul Basin, Pioneer, Singapore",ChIJ8RaES-AX2jERwZwf5dmpK7M,Quan Shui Wet Market @ Upper Thomson,"50 Tagore Ln, #B1-01, Singapore 787494",4.6,105,"[""establishment"", ""point_of_interest""]",1.3837871,103.8282134,True
Pioneer,Gul Basin,recreation,gym,"gym in Gul Basin, Pioneer, Singapore",ChIJYbJVYwAR2jERcogZd0m9MzE,Anytime Fitness Parc Point,"302 Tengah Park Avenue, #03-02, Singapore 690302",4.9,138,"[""establishment"", ""gym"", ""health"", ""point_of_interest""]",1.3606536,103.7390745,True
Pioneer,Gul Basin,recreation,gym,"gym in Gul Basin, Pioneer, Singapore",ChIJ08t6PjYP2jERi4sIp8Z1Sw0,Anytime Fitness,"638 Jurong West Street 61, #03-01 Pioneer Mall, Singapore 640638",4.8,340,"[""establishment"", ""gym"", ""health"", ""point_of_interest""]",1.3418699,103.6973858,True
Pioneer,Gul Basin,recreation,sports centre,"sports centre in Gul Basin, Pioneer, Singapore",ChIJEwW7gpoP2jER4o0mrMTZddM,Jurong West Sport Centre,"20 Jurong West Street 93, Singapore 648965",4.3,1868,"[""establishment"", ""point_of_interest""]",1.3378059,103.6941925,True
Pioneer,Gul Basin,recreation,sports centre,"sports centre in Gul Basin, Pioneer, Singapore",ChIJ2cCNCFga2jER5JmIg6WzSNk,University Sports Centre,"2 Sports Dr., Singapore 117288",4.5,114,"[""establishment"", ""gym"", ""health"", ""point_of_interest""]",1.2997617,103.7754896,True
Pioneer,Gul Basin,recreation,swimming complex,"swimming complex in Gul Basin, Pioneer, Singapore",ChIJ4Qton5oP2jERihKBVLOV04k,Jurong West Swimming Complex,"20 Jurong West Street 93, Singapore 648965",4.2,978,"[""establishment"", ""point_of_interest""]",1.337881,103.6937455,True
Pioneer,Gul Basin,recreation,swimming complex,"swimming complex in Gul Basin, Pioneer, Singapore",ChIJWaHnCyAQ2jERlnBesVA4gic,Jurong East Swimming Complex,"21 Jurong East Street 31, #01-01, Singapore 609517",4.1,2323,"[""establishment"", ""gym"", ""health"", ""point_of_interest"", ""tourist_attraction""]",1.3461702,103.7293471,True
Pioneer,Gul Basin,recreation,cinema,"cinema in Gul Basin, Pioneer, Singapore",ChIJgWtqxOwP2jERydU8CT8sako,Golden Village,"1 Jurong West Central 1, #03 - 26 26A, Singapore 648886",4.2,2528,"[""establishment"", ""movie_theater"", ""point_of_interest""]",1.3400295,103.7064166,True
Pioneer,Gul Basin,recreation,cinema,"cinema in Gul Basin, Pioneer, Singapore",ChIJFx7cQgAR2jERum7NN5FvIOk,Shaw Theatres JEM,"50 Jurong Gateway Rd, #05 04, Singapore 608549",4.0,83,"[""establishment"", ""movie_theater"", ""point_of_interest""]",1.33312,103.7432173,True
Pioneer,Gul Basin,recreation,community club,"community club in Gul Basin, Pioneer, Singapore",ChIJDSW57PEa2jEROqULbMq8p1s,West Coast Community Centre,"2 Clementi West Street 2, Singapore 129605",4.2,658,"[""establishment"", ""point_of_interest""]",1.3029168,103.7648849,True
Pioneer,Gul Basin,recreation,community club,"community club in Gul Basin, Pioneer, Singapore",ChIJd4ldQJMP2jERlQdLPkzVa4A,The Frontier Community Club,"60 Jurong West Central 3, #01-01 The Frontier Community Place, Singapore 648346",4.2,496,"[""establishment"", ""point_of_interest""]",1.3402124,103.7042859,True
Pioneer,Gul Basin,recreation,playground,"playground in Gul Basin, Pioneer, Singapore",ChIJy4UHQigR2jERWNddjYkRzro,Dig Dig Land | Kid Excavator & Playground Singapore,"2 Jurong Gateway Rd, Singapore 608512",4.9,549,"[""establishment"", ""point_of_interest""]",1.3369589,103.7454898,True
Pioneer,Gul Basin,recreation,playground,"playground in Gul Basin, Pioneer, Singapore",ChIJSSw7_tQb2jER3ivwN-5BwNM,COMO Adventure Grove,"5 Gallop Rd, Singapore 258960",4.5,146,"[""establishment"", ""point_of_interest""]",1.3136285,103.8101236,True
Pioneer,Gul Basin,nature,park,"park in Gul Basin, Pioneer, Singapore",ChIJp167A6UP2jERUrVmCHG99mg,The Potter's Garden,"Cleantech Loop, Singapore",4.1,433,"[""establishment"", ""park"", ""point_of_interest"", ""tourist_attraction""]",1.3523233,103.6931591,True
Pioneer,Gul Basin,nature,park,"park in Gul Basin, Pioneer, Singapore",ChIJYUYvP40F2jERo8Mjh_7RhSs,Gul Circle,"7A Tuas Rd, Singapore 637288",4.4,253,"[""establishment"", ""point_of_interest"", ""subway_station"", ""transit_station""]",1.3188497,103.6603681,True
Pioneer,Gul Basin,nature,nature reserve,"nature reserve in Gul Basin, Pioneer, Singapore",ChIJR9wDuIwQ2jERp5g9l0m9MQ0,Rifle Range Nature Park,"Rifle Range Rd, Singapore 589322",4.7,1043,"[""establishment"", ""park"", ""point_of_interest"", ""tourist_attraction""]",1.3434752,103.7794063,True
Pioneer,Gul Basin,nature,nature reserve,"nature reserve in Gul Basin, Pioneer, Singapore",ChIJs3oprUQQ2jERp8A9mbkPZJE,Bukit Batok Nature Park,"Cnr Bukit Batok East Avenue 2, Bukit Batok East Ave 6, and, Singapore 659761",4.5,3266,"[""establishment"", ""park"", ""point_of_interest""]",1.3485421,103.7641994,True
Pioneer,Gul Basin,nature,garden,"garden in Gul Basin, Pioneer, Singapore",ChIJo714KsEZ2jERAwbjfpK78oY,Sang Nila Utama Garden,"1 Canning Rise, Singapore 179868",4.7,109,"[""establishment"", ""point_of_interest""]",1.2932185,103.8477697,True
Pioneer,Gul Basin,nature,garden,"garden in Gul Basin, Pioneer, Singapore",ChIJMxZ-kwQZ2jERdsqftXeWCWI,Gardens by the Bay,"18 Marina Gardens Dr, Singapore 018953",4.7,158077,"[""establishment"", ""park"", ""point_of_interest"", ""tourist_attraction""]",1.2815683,103.8636132,True
Pioneer,Gul Basin,nature,beach,"beach in Gul Basin, Pioneer, Singapore",ChIJ3fvrLqoe2jER0LVZJLAhCvM,Palawan Beach,"85A Palawan Beach Walk, Singapore 098521",4.5,321,"[""establishment"", ""park"", ""point_of_interest""]",1.2474823,103.8240506,True
Pioneer,Gul Basin,nature,beach,"beach in Gul Basin, Pioneer, Singapore",ChIJIUGUtEAb2jERLP4xcUL7rV8,Siloso Beach,"10A Siloso Bch Walk, Singapore 099008",4.5,1005,"[""establishment"", ""point_of_interest"", ""tourist_attraction""]",1.2546132,103.8112999,True
Pioneer,Gul Basin,nature,waterfront,"waterfront in Gul Basin, Pioneer, Singapore",ChIJ3buMSgAF2jEREySdppfJP_o,"""Yard Bungalow"" waterfront","2 Jln Samulun, Singapore 629120",,0,"[""establishment"", ""point_of_interest""]",1.3067421,103.6960807,True
Pioneer,Gul Basin,nature,waterfront,"waterfront in Gul Basin, Pioneer, Singapore",ChIJ96HBJZ8a2jERl1GsjJmk-70,Waterfront @ Faber,"48 Faber Walk, Singapore 128993",4.4,120,"[""establishment"", ""point_of_interest""]",1.3232117,103.754716,True
Pioneer,Gul Basin,nature,park connector,"park connector in Gul Basin, Pioneer, Singapore",ChIJxZwgg1kZ2jERfsCcuEg0JC4,Kallang Park Connector,"998 Bendemeer Rd, Singapore 339945",4.4,119,"[""establishment"", ""park"", ""point_of_interest""]",1.3221012,103.8676558,True
Pioneer,Gul Basin,nature,park connector,"park connector in Gul Basin, Pioneer, Singapore",ChIJTQKqNbMX2jERffQ7cu5kx0o,Paya Lebar Park Connector,"Paya Lebar Rd, Singapore",3.9,11,"[""establishment"", ""park"", ""point_of_interest""]",1.3339894,103.889234,True
Pioneer,Gul Circle,education,kindergarten,"kindergarten in Gul Circle, Pioneer, Singapore",ChIJvYCei1UF2jERymQTneDrrAo,Star Learners @ Yung Ho | Preschool & Childcare,"21 Yung Ho Rd, #01-01/02 THE AGAPE, Singapore 618593",4.8,65,"[""establishment"", ""point_of_interest"", ""school""]",1.3268828,103.724787,True
Pioneer,Gul Circle,education,kindergarten,"kindergarten in Gul Circle, Pioneer, Singapore",ChIJq55LB_Qa2jERwkpjikTUzOo,Little Footprints Preschool @ West Coast,"6 Jubilee Rd, Singapore 128531",4.7,39,"[""establishment"", ""point_of_interest"", ""school""]",1.3053004,103.7650364,True
Pioneer,Gul Circle,education,childcare centre,"childcare centre in Gul Circle, Pioneer, Singapore",ChIJjzdbRrfbpaoRyr0wiI8kNKs,Small Wonder Pioneer,"20 Jurong West Street 93, #01-03 Sports Centre, Singapore 648965",5.0,10,"[""establishment"", ""point_of_interest"", ""school""]",1.3383436,103.6943961,True
Pioneer,Gul Circle,education,childcare centre,"childcare centre in Gul Circle, Pioneer, Singapore",ChIJHUK0FlIF2jERLcrbqLf1e-s,Raffles Kidz @ Jurong West (Yuan Ching) - Best Childcare and Preschool Singapore,"1 Yuan Ching Rd, #02-01/02, Singapore 618640",4.9,145,"[""establishment"", ""point_of_interest""]",1.3259983,103.7244048,True
Pioneer,Gul Circle,education,primary school,"primary school in Gul Circle, Pioneer, Singapore",ChIJNfn2jZwP2jERnKZlZ5yCUWc,Pioneer Primary School,"80 Tengah Garden Ave, Singapore 699915",,0,"[""establishment"", ""point_of_interest"", ""primary_school"", ""school""]",1.3545526,103.7322664,True
Pioneer,Gul Circle,education,primary school,"primary school in Gul Circle, Pioneer, Singapore",ChIJkR1ecZEP2jERJhLeZx32rPs,Jurong West Primary School,"30 Jurong West Street 61, #61, Singapore 648368",,0,"[""establishment"", ""point_of_interest"", ""primary_school"", ""school""]",1.3390605,103.6988498,True
Pioneer,Gul Circle,education,secondary school,"secondary school in Gul Circle, Pioneer, Singapore",ChIJGfW4g5wP2jERx1lgTjFmabY,Juying Secondary School,"33 Jurong West Street 91, Singapore 649038",,0,"[""establishment"", ""point_of_interest"", ""school"", ""secondary_school""]",1.3392826,103.687185,True
Pioneer,Gul Circle,education,secondary school,"secondary school in Gul Circle, Pioneer, Singapore",ChIJsyTJCRcQ2jERfwQiMdnbBFE,Crest Secondary School,"561 Jurong East St 24, Singapore 609561",,0,"[""establishment"", ""point_of_interest"", ""school"", ""secondary_school""]",1.3431881,103.7428957,True
Pioneer,Gul Circle,education,junior college,"junior college in Gul Circle, Pioneer, Singapore",ChIJz_-CGpUR2jERsxAVVh_vnoY,Jurong Pioneer Junior College,"21 Teck Whye Walk, Singapore 688258",3.8,86,"[""establishment"", ""point_of_interest"", ""university""]",1.3847446,103.753857,True
Pioneer,Gul Circle,education,junior college,"junior college in Gul Circle, Pioneer, Singapore",ChIJ61lTU6EQ2jERiBDECMxHYFY,National Junior College,"37 Hillcrest Rd, Singapore 288913",4.4,182,"[""establishment"", ""point_of_interest"", ""school"", ""university""]",1.330476,103.8045,True
Pioneer,Gul Circle,education,polytechnic,"polytechnic in Gul Circle, Pioneer, Singapore",ChIJFXzxL2Aa2jERnoWTOdJdVKk,Singapore Polytechnic,"500 Dover Rd, Singapore 139651",4.3,646,"[""establishment"", ""point_of_interest""]",1.3097757,103.7775495,True
Pioneer,Gul Circle,education,polytechnic,"polytechnic in Gul Circle, Pioneer, Singapore",ChIJWeO0jn0Q2jERQwzr3v_n0nU,Ngee Ann Polytechnic,"535 Clementi Rd, Singapore 599489",4.3,500,"[""establishment"", ""point_of_interest""]",1.3315798,103.7747134,True
Pioneer,Gul Circle,education,university,"university in Gul Circle, Pioneer, Singapore",ChIJ2QJCeFYa2jERa434wdYIjUg,National University of Singapore,"21 Lower Kent Ridge Rd, University Hall, Singapore 119077",4.5,2389,"[""establishment"", ""point_of_interest"", ""university""]",1.2976493,103.7766916,True
Pioneer,Gul Circle,education,university,"university in Gul Circle, Pioneer, Singapore",ChIJY0QBmQoP2jERGYItxQAIu7g,Nanyang Technological University,"50 Nanyang Ave, Singapore 639798",4.5,1477,"[""establishment"", ""point_of_interest"", ""university""]",1.3483099,103.6831347,True
Pioneer,Gul Circle,education,tuition centre,"tuition centre in Gul Circle, Pioneer, Singapore",ChIJxVpRXY0b2jERLaTEQpzXKf0,Pillora Learning,"729 Clementi West Street 2, Singapore 120729",5.0,5,"[""establishment"", ""point_of_interest""]",1.3050998,103.763368,True
Pioneer,Gul Circle,education,tuition centre,"tuition centre in Gul Circle, Pioneer, Singapore",ChIJTZ10JcgF2jERWjG1Vv1Bxdk,SCAL Academy,"164 Gul Cir, #01-14 JTC Space @, Singapore 629621",4.6,821,"[""establishment"", ""point_of_interest""]",1.319814,103.678444,True
Pioneer,Gul Circle,education,library,"library in Gul Circle, Pioneer, Singapore",ChIJF3XNQ5MP2jERXeUO2D_OtYY,Jurong West Library,"60 Jurong West Central 3, #01-03, Singapore 648346",4.3,269,"[""establishment"", ""library"", ""point_of_interest""]",1.3403486,103.7045246,True
Pioneer,Gul Circle,education,library,"library in Gul Circle, Pioneer, Singapore",ChIJfWE7NwAR2jERE_LL5Mx2EVM,Community Library,"219A Tengah Garden Walk, Singapore 691219",4.2,5,"[""establishment"", ""library"", ""point_of_interest""]",1.3593829,103.7307429,True
Pioneer,Gul Circle,transport,MRT station,"MRT station in Gul Circle, Pioneer, Singapore",ChIJYUYvP40F2jERo8Mjh_7RhSs,Gul Circle,"7A Tuas Rd, Singapore 637288",4.4,253,"[""establishment"", ""point_of_interest"", ""subway_station"", ""transit_station""]",1.3188497,103.6603681,True
Pioneer,Gul Circle,transport,bus stop,"bus stop in Gul Circle, Pioneer, Singapore",ChIJ3WCpTo0F2jERjLf3k6niMLg,Gul Circle Stn Exit B,Singapore,5.0,1,"[""establishment"", ""point_of_interest"", ""transit_station""]",1.319072,103.659805,True
Pioneer,Gul Circle,food,hawker centre,"hawker centre in Gul Circle, Pioneer, Singapore",ChIJN-9cbJMF2jERXCwXaWxgEWE,Broadway Food Centre,"60 Gul Ln, Singapore 629437",3.7,55,"[""establishment"", ""food"", ""point_of_interest"", ""restaurant""]",1.3141599,103.6622191,True
Pioneer,Gul Circle,food,food court,"food court in Gul Circle, Pioneer, Singapore",ChIJHd9mv5EF2jERYde-2gQ6f1I,Chong Hock Eating House,"18 Gul Street 3, Singapore 629270",3.8,413,"[""cafe"", ""establishment"", ""food"", ""point_of_interest"", ""store""]",1.3171729,103.6664078,True
Pioneer,Gul Circle,food,coffee shop,"coffee shop in Gul Circle, Pioneer, Singapore",ChIJjVFUnZMF2jERaXGmSk_HSyw,Broadway Coffeeshop @ 60 Gul Lane,"60 Gul Ln, Singapore 629437",3.7,400,"[""cafe"", ""establishment"", ""food"", ""point_of_interest"", ""store""]",1.3141667,103.6622222,True
Pioneer,Gul Circle,food,coffee shop,"coffee shop in Gul Circle, Pioneer, Singapore",ChIJk89DMwAF2jER9QgtEAj8w7w,Rex Cafeteria,"7 Gul Cir, Singapore 629563",4.0,1,"[""cafe"", ""establishment"", ""food"", ""point_of_interest"", ""store""]",1.3109759,103.6752715,True
Pioneer,Gul Circle,food,restaurant,"restaurant in Gul Circle, Pioneer, Singapore",ChIJJ12oOwAF2jER1c9sOEh17uE,Kokoro Izakaya (FairPrice Hub - Joo Koon MRT),"1 Joo Koon Cir, #01-51 FairPrice Joo Koon, Singapore 629117",4.5,405,"[""establishment"", ""food"", ""point_of_interest"", ""restaurant""]",1.3250128,103.6786652,True
Pioneer,Gul Circle,food,cafe,"cafe in Gul Circle, Pioneer, Singapore",ChIJMcPrCLsb2jERepk1_M2ySu0,Doublechin Cafe,"727 Clementi West Street 2, #01-268, Singapore 120727",4.9,88,"[""cafe"", ""establishment"", ""food"", ""point_of_interest""]",1.3045967,103.7638779,True
Pioneer,Gul Circle,shopping,shopping mall,"shopping mall in Gul Circle, Pioneer, Singapore",ChIJ67mVKpcP2jERmahUvC-ZIwc,Pioneer Mall,"638 Jurong West Street 61, Singapore 640638",4.0,2580,"[""establishment"", ""point_of_interest"", ""shopping_mall""]",1.3418699,103.6973858,True
Pioneer,Gul Circle,shopping,shopping mall,"shopping mall in Gul Circle, Pioneer, Singapore",ChIJka8JVF8F2jER_POCivTcJZ4,JTC Space @ Gul,"164 Gul Cir, Singapore 629621",4.1,92,"[""establishment"", ""point_of_interest""]",1.3196371,103.6783553,True
Pioneer,Gul Circle,shopping,supermarket,"supermarket in Gul Circle, Pioneer, Singapore",ChIJyV81n4AF2jERnrHVt04CmMU,FairPrice Joo Koon,"1 Joo Koon Cir, Singapore 629117",4.3,1351,"[""establishment"", ""food"", ""grocery_or_supermarket"", ""point_of_interest"", ""store"", ""supermarket""]",1.3272037,103.6786391,True
Pioneer,Gul Circle,shopping,supermarket,"supermarket in Gul Circle, Pioneer, Singapore",ChIJyeVHch8F2jERikBVoPM1vqs,Hasini Mart Pte Ltd,"31 Gul Ave, #01-01, Singapore 629671",3.5,15,"[""establishment"", ""food"", ""grocery_or_supermarket"", ""point_of_interest"", ""store"", ""supermarket""]",1.3143229,103.6683458,True
Pioneer,Gul Circle,shopping,convenience store,"convenience store in Gul Circle, Pioneer, Singapore",ChIJO2ipoFcF2jERIGMIBwN1Dj0,Ajay International Trading Pte Ltd,"10 Gul Dr, #01-01, Singapore 629461",4.7,7,"[""establishment"", ""food"", ""grocery_or_supermarket"", ""point_of_interest"", ""store""]",1.3177988,103.6736165,True
Pioneer,Gul Circle,shopping,wet market,"wet market in Gul Circle, Pioneer, Singapore",ChIJ847ZiBAb2jERBx6e7Mn67YM,Fresh Stop (Chen Ayam),"726 Clementi West Street 2, #01-43, Singapore 120726",4.6,19,"[""establishment"", ""food"", ""point_of_interest"", ""restaurant"", ""store""]",1.3036599,103.7642506,True
Pioneer,Gul Circle,shopping,wet market,"wet market in Gul Circle, Pioneer, Singapore",ChIJ6SKfUzwQ2jERezteXcNnbAE,Quan Shui Wet Market,"156 Bukit Batok Street 11, #01-09, Singapore 650156",4.8,672,"[""establishment"", ""food"", ""point_of_interest""]",1.3482871,103.7437964,True
Pioneer,Gul Circle,recreation,gym,"gym in Gul Circle, Pioneer, Singapore",ChIJ08t6PjYP2jERi4sIp8Z1Sw0,Anytime Fitness,"638 Jurong West Street 61, #03-01 Pioneer Mall, Singapore 640638",4.8,340,"[""establishment"", ""gym"", ""health"", ""point_of_interest""]",1.3418699,103.6973858,True
Pioneer,Gul Circle,recreation,gym,"gym in Gul Circle, Pioneer, Singapore",ChIJf9MVNAAF2jER1eOX2sfdwX4,Gym Jurong,"Block 442 Jurong West Ave 1, #01-746 to #01-748, Singapore 640442",,0,"[""establishment"", ""gym"", ""health"", ""point_of_interest""]",1.3087724,103.6599924,True
Pioneer,Gul Circle,recreation,sports centre,"sports centre in Gul Circle, Pioneer, Singapore",ChIJ2cCNCFga2jER5JmIg6WzSNk,University Sports Centre,"2 Sports Dr., Singapore 117288",4.5,114,"[""establishment"", ""gym"", ""health"", ""point_of_interest""]",1.2997617,103.7754896,True
Pioneer,Gul Circle,recreation,sports centre,"sports centre in Gul Circle, Pioneer, Singapore",ChIJEwW7gpoP2jER4o0mrMTZddM,Jurong West Sport Centre,"20 Jurong West Street 93, Singapore 648965",4.3,1868,"[""establishment"", ""point_of_interest""]",1.3378059,103.6941925,True
Pioneer,Gul Circle,recreation,swimming complex,"swimming complex in Gul Circle, Pioneer, Singapore",ChIJ4Qton5oP2jERihKBVLOV04k,Jurong West Swimming Complex,"20 Jurong West Street 93, Singapore 648965",4.2,978,"[""establishment"", ""point_of_interest""]",1.337881,103.6937455,True
Pioneer,Gul Circle,recreation,swimming complex,"swimming complex in Gul Circle, Pioneer, Singapore",ChIJWaHnCyAQ2jERlnBesVA4gic,Jurong East Swimming Complex,"21 Jurong East Street 31, #01-01, Singapore 609517",4.1,2323,"[""establishment"", ""gym"", ""health"", ""point_of_interest"", ""tourist_attraction""]",1.3461702,103.7293471,True
Pioneer,Gul Circle,recreation,cinema,"cinema in Gul Circle, Pioneer, Singapore",ChIJgWtqxOwP2jERydU8CT8sako,Golden Village,"1 Jurong West Central 1, #03 - 26 26A, Singapore 648886",4.2,2528,"[""establishment"", ""movie_theater"", ""point_of_interest""]",1.3400295,103.7064166,True
Pioneer,Gul Circle,recreation,cinema,"cinema in Gul Circle, Pioneer, Singapore",ChIJFx7cQgAR2jERum7NN5FvIOk,Shaw Theatres JEM,"50 Jurong Gateway Rd, #05 04, Singapore 608549",4.0,83,"[""establishment"", ""movie_theater"", ""point_of_interest""]",1.33312,103.7432173,True
Pioneer,Gul Circle,recreation,community club,"community club in Gul Circle, Pioneer, Singapore",ChIJl3OX0d4P2jERfrhbQVC52gI,Jurong Green Community Club,"6 Jurong West Ave 1, Singapore 649520",4.1,992,"[""establishment"", ""point_of_interest""]",1.3505445,103.7252494,True
Pioneer,Gul Circle,recreation,community club,"community club in Gul Circle, Pioneer, Singapore",ChIJd4ldQJMP2jERlQdLPkzVa4A,The Frontier Community Club,"60 Jurong West Central 3, #01-01 The Frontier Community Place, Singapore 648346",4.2,496,"[""establishment"", ""point_of_interest""]",1.3402124,103.7042859,True
Pioneer,Gul Circle,recreation,playground,"playground in Gul Circle, Pioneer, Singapore",ChIJy4UHQigR2jERWNddjYkRzro,Dig Dig Land | Kid Excavator & Playground Singapore,"2 Jurong Gateway Rd, Singapore 608512",4.9,549,"[""establishment"", ""point_of_interest""]",1.3369589,103.7454898,True
Pioneer,Gul Circle,recreation,playground,"playground in Gul Circle, Pioneer, Singapore",ChIJXQaYPaQb2jER8K5AKkAIffg,Wan To Play Candyland,"Singapore, W Coast Rd, 154号, West Coast Plaza, #02-44/45 邮政编码: 127371",3.6,21,"[""establishment"", ""point_of_interest""]",1.3037063,103.7660328,True
Pioneer,Gul Circle,nature,park,"park in Gul Circle, Pioneer, Singapore",ChIJYUYvP40F2jERo8Mjh_7RhSs,Gul Circle,"7A Tuas Rd, Singapore 637288",4.4,253,"[""establishment"", ""point_of_interest"", ""subway_station"", ""transit_station""]",1.3188497,103.6603681,True
Pioneer,Gul Circle,nature,park,"park in Gul Circle, Pioneer, Singapore",ChIJaT160JYF2jERov78GB6kcQ4,Fullerton Health Medical Centre for Migrant Workers @ Gul Circle,"47 Gul Cir, Singapore 629580",4.4,421,"[""establishment"", ""health"", ""hospital"", ""point_of_interest""]",1.3143077,103.6634655,True
Pioneer,Gul Circle,nature,nature reserve,"nature reserve in Gul Circle, Pioneer, Singapore",ChIJR9wDuIwQ2jERp5g9l0m9MQ0,Rifle Range Nature Park,"Rifle Range Rd, Singapore 589322",4.7,1043,"[""establishment"", ""park"", ""point_of_interest"", ""tourist_attraction""]",1.3434752,103.7794063,True
Pioneer,Gul Circle,nature,nature reserve,"nature reserve in Gul Circle, Pioneer, Singapore",ChIJs3oprUQQ2jERp8A9mbkPZJE,Bukit Batok Nature Park,"Cnr Bukit Batok East Avenue 2, Bukit Batok East Ave 6, and, Singapore 659761",4.5,3266,"[""establishment"", ""park"", ""point_of_interest""]",1.3485421,103.7641994,True
Pioneer,Gul Circle,nature,garden,"garden in Gul Circle, Pioneer, Singapore",ChIJ3zoXMR8a2jERdBzf6ovkztc,Sundial Garden,"4 Cluny Rd Singapore 259572 Cluny Rd, Singapore 259572",4.5,41,"[""establishment"", ""point_of_interest""]",1.3095188,103.8163198,True
Pioneer,Gul Circle,nature,beach,"beach in Gul Circle, Pioneer, Singapore",ChIJQ8uk4vwa2jERqMrT6OFBMuw,West Coast Park,"W Coast Ferry Rd, Singapore 126978",4.4,7048,"[""establishment"", ""park"", ""point_of_interest"", ""tourist_attraction""]",1.2913603,103.7666534,True
Pioneer,Gul Circle,nature,waterfront,"waterfront in Gul Circle, Pioneer, Singapore",ChIJ96HBJZ8a2jERl1GsjJmk-70,Waterfront @ Faber,"48 Faber Walk, Singapore 128993",4.4,120,"[""establishment"", ""point_of_interest""]",1.3232117,103.754716,True
Pioneer,Gul Circle,nature,park connector,"park connector in Gul Circle, Pioneer, Singapore",ChIJ78hF4XIZ2jERhXl48XBJofE,Geylang Park Connector,"51 Crescent Rd, Singapore 439333",4.7,3,"[""establishment"", ""point_of_interest""]",1.3139885,103.891885,True
Pioneer,Gul Circle,nature,park connector,"park connector in Gul Circle, Pioneer, Singapore",ChIJOXwacPMP2jERxTgW0ZaOFTQ,Park Connector,"Yuan Ching Road, Singapore",5.0,2,"[""establishment"", ""point_of_interest""]",1.3282212,103.850917,True
Pioneer,Joo Koon,education,kindergarten,"kindergarten in Joo Koon, Pioneer, Singapore",ChIJ9Ue6c7cF2jERoLVIzJkHoPg,Curion English Joo Koon,"1 Joo Koon Cir, #03-21b FairPrice Joo Koon, Singapore 629117",2.0,1,"[""establishment"", ""point_of_interest""]",1.326016,103.6786052,True
Pioneer,Joo Koon,education,kindergarten,"kindergarten in Joo Koon, Pioneer, Singapore",ChIJjzdbRrfbpaoRyr0wiI8kNKs,Small Wonder Pioneer,"20 Jurong West Street 93, #01-03 Sports Centre, Singapore 648965",5.0,10,"[""establishment"", ""point_of_interest"", ""school""]",1.3383436,103.6943961,True
Pioneer,Joo Koon,education,childcare centre,"childcare centre in Joo Koon, Pioneer, Singapore",ChIJ7VLogocP2jERBqAKs9hKC6g,PlayFACTO School @ Jurong West Sport Centre,"20 Jurong West Street 93, #02-09/10 Sport Centre, Singapore 648965",5.0,22,"[""establishment"", ""point_of_interest""]",1.3381771,103.693875,True
Pioneer,Joo Koon,education,primary school,"primary school in Joo Koon, Pioneer, Singapore",ChIJNfn2jZwP2jERnKZlZ5yCUWc,Pioneer Primary School,"80 Tengah Garden Ave, Singapore 699915",,0,"[""establishment"", ""point_of_interest"", ""primary_school"", ""school""]",1.3545526,103.7322664,True
Pioneer,Joo Koon,education,primary school,"primary school in Joo Koon, Pioneer, Singapore",ChIJ_cKMGNkF2jERAjMfCBio5F8,Tien Hsia Language School 天下语文学校 (Joo Koon),"1 Joo Koon Cir, #03-21b FairPrice Joo Koon, Singapore 629117",3.0,2,"[""establishment"", ""point_of_interest""]",1.3272972,103.6784577,True
Pioneer,Joo Koon,education,secondary school,"secondary school in Joo Koon, Pioneer, Singapore",ChIJsUBgxf4P2jERpCwsWp4c_V0,Jurong Secondary School,"31 Yuan Ching Rd, Singapore 618652",,0,"[""establishment"", ""point_of_interest"", ""school"", ""secondary_school""]",1.330365,103.724282,True
Pioneer,Joo Koon,education,junior college,"junior college in Joo Koon, Pioneer, Singapore",ChIJz_-CGpUR2jERsxAVVh_vnoY,Jurong Pioneer Junior College,"21 Teck Whye Walk, Singapore 688258",3.8,86,"[""establishment"", ""point_of_interest"", ""university""]",1.3847446,103.753857,True
Pioneer,Joo Koon,education,junior college,"junior college in Joo Koon, Pioneer, Singapore",ChIJ61lTU6EQ2jERiBDECMxHYFY,National Junior College,"37 Hillcrest Rd, Singapore 288913",4.4,182,"[""establishment"", ""point_of_interest"", ""school"", ""university""]",1.330476,103.8045,True
Pioneer,Joo Koon,education,polytechnic,"polytechnic in Joo Koon, Pioneer, Singapore",ChIJWeO0jn0Q2jERQwzr3v_n0nU,Ngee Ann Polytechnic,"535 Clementi Rd, Singapore 599489",4.3,500,"[""establishment"", ""point_of_interest""]",1.3315798,103.7747134,True
Pioneer,Joo Koon,education,polytechnic,"polytechnic in Joo Koon, Pioneer, Singapore",ChIJFXzxL2Aa2jERnoWTOdJdVKk,Singapore Polytechnic,"500 Dover Rd, Singapore 139651",4.3,646,"[""establishment"", ""point_of_interest""]",1.3097757,103.7775495,True
Pioneer,Joo Koon,education,university,"university in Joo Koon, Pioneer, Singapore",ChIJY0QBmQoP2jERGYItxQAIu7g,Nanyang Technological University,"50 Nanyang Ave, Singapore 639798",4.5,1477,"[""establishment"", ""point_of_interest"", ""university""]",1.3483099,103.6831347,True
Pioneer,Joo Koon,education,tuition centre,"tuition centre in Joo Koon, Pioneer, Singapore",ChIJU2bQS4cF2jERHyJH44dRBR8,Eversafe Academy Joo Koon,"2 Joo Koon Rd, Near Jookoon MRT, Singapore 628966",4.8,3371,"[""establishment"", ""point_of_interest""]",1.3265001,103.6764701,True
Pioneer,Joo Koon,education,tuition centre,"tuition centre in Joo Koon, Pioneer, Singapore",ChIJxVpRXY0b2jERLaTEQpzXKf0,Pillora Learning,"729 Clementi West Street 2, Singapore 120729",5.0,5,"[""establishment"", ""point_of_interest""]",1.3050998,103.763368,True
Pioneer,Joo Koon,education,library,"library in Joo Koon, Pioneer, Singapore",ChIJF3XNQ5MP2jERXeUO2D_OtYY,Jurong West Library,"60 Jurong West Central 3, #01-03, Singapore 648346",4.3,269,"[""establishment"", ""library"", ""point_of_interest""]",1.3403486,103.7045246,True
Pioneer,Joo Koon,education,library,"library in Joo Koon, Pioneer, Singapore",ChIJraqq-gUQ2jERYpaqvOqNXdk,Jurong Library,"21 Jurong East Central 1, Singapore 609732",4.6,659,"[""establishment"", ""library"", ""point_of_interest""]",1.3327159,103.7395376,True
Pioneer,Joo Koon,transport,MRT station,"MRT station in Joo Koon, Pioneer, Singapore",ChIJK-VlIX4P2jERdpc51RYg9Lw,Joo Koon,Singapore,4.3,1795,"[""establishment"", ""point_of_interest"", ""subway_station"", ""transit_station""]",1.3277353,103.6783209,True
Pioneer,Joo Koon,transport,bus stop,"bus stop in Joo Koon, Pioneer, Singapore",ChIJw0m664AF2jERTLDgYit3cwY,Joo Koon Bus Interchange,"55 Benoi Rd, Singapore 629907",2.9,33,"[""establishment"", ""point_of_interest"", ""transit_station""]",1.3256481,103.6784801,True
Pioneer,Joo Koon,transport,bus stop,"bus stop in Joo Koon, Pioneer, Singapore",ChIJ840mh30P2jER0YmCq4KVb50,Joo Koon Bus Interchange,"55 Benoi Rd, Singapore 629907",4.3,78,"[""establishment"", ""point_of_interest""]",1.3269971,103.678291,True
Pioneer,Joo Koon,food,hawker centre,"hawker centre in Joo Koon, Pioneer, Singapore",ChIJ0VP4IH4P2jERo7DWjpjpSDg,Joo Koon Eating House,"90 Joo Koon Cir, Singapore 629116",3.8,179,"[""establishment"", ""food"", ""point_of_interest"", ""restaurant""]",1.3274588,103.6775709,True
Pioneer,Joo Koon,food,hawker centre,"hawker centre in Joo Koon, Pioneer, Singapore",ChIJv17b7IIF2jERWezS0SZ7vz4,Kopitiam,"1 Joo Koon Cir, #03-25 FairPrice Joo Koon, Singapore 629117",2.7,170,"[""establishment"", ""food"", ""point_of_interest""]",1.3270528,103.6786661,True
Pioneer,Joo Koon,food,coffee shop,"coffee shop in Joo Koon, Pioneer, Singapore",ChIJT5tnFgAF2jERYu52WW_viQI,Kaffe & Toast,"1 Joo Koon Cir, #02-32/33 FairPrice Joo Koon, Singapore 629117",2.2,40,"[""cafe"", ""establishment"", ""food"", ""point_of_interest"", ""store""]",1.3271791,103.6789156,True
Pioneer,Joo Koon,food,coffee shop,"coffee shop in Joo Koon, Pioneer, Singapore",ChIJYedT-4MF2jERSPTuGeFLt1g,luckin coffee - Fairprice Hub,"1 Joo Koon Cir, #01-41 FairPrice Joo Koon, Singapore 629117",3.5,32,"[""cafe"", ""establishment"", ""food"", ""point_of_interest"", ""store""]",1.326016,103.6786052,True
Pioneer,Joo Koon,food,restaurant,"restaurant in Joo Koon, Pioneer, Singapore",ChIJJ12oOwAF2jER1c9sOEh17uE,Kokoro Izakaya (FairPrice Hub - Joo Koon MRT),"1 Joo Koon Cir, #01-51 FairPrice Joo Koon, Singapore 629117",4.5,405,"[""establishment"", ""food"", ""point_of_interest"", ""restaurant""]",1.3250128,103.6786652,True
Pioneer,Joo Koon,food,restaurant,"restaurant in Joo Koon, Pioneer, Singapore",ChIJO4L-b8EF2jERfcF00jX9Ae8,Nandhana's Restaurant,"1 Joo Koon Cir, Singapore 629117",3.8,448,"[""establishment"", ""food"", ""point_of_interest"", ""restaurant""]",1.3271539,103.678449,True
Pioneer,Joo Koon,food,cafe,"cafe in Joo Koon, Pioneer, Singapore",ChIJOzIVm4AF2jERKcrCdeHuGAM,Han's,"1 Joo Koon Cir, #02-26/27/28 FairPrice Joo Koon, Singapore 629117",3.6,241,"[""bakery"", ""cafe"", ""establishment"", ""food"", ""point_of_interest"", ""restaurant"", ""store""]",1.3272086,103.6787828,True
Pioneer,Joo Koon,shopping,shopping mall,"shopping mall in Joo Koon, Pioneer, Singapore",ChIJyV81n4AF2jERnrHVt04CmMU,FairPrice Joo Koon,"1 Joo Koon Cir, Singapore 629117",4.3,1351,"[""establishment"", ""food"", ""grocery_or_supermarket"", ""point_of_interest"", ""store"", ""supermarket""]",1.3272037,103.6786391,True
Pioneer,Joo Koon,shopping,shopping mall,"shopping mall in Joo Koon, Pioneer, Singapore",ChIJ67mVKpcP2jERmahUvC-ZIwc,Pioneer Mall,"638 Jurong West Street 61, Singapore 640638",4.0,2580,"[""establishment"", ""point_of_interest"", ""shopping_mall""]",1.3418699,103.6973858,True
Pioneer,Joo Koon,shopping,convenience store,"convenience store in Joo Koon, Pioneer, Singapore",ChIJy5H3IH4P2jERa6hFBq2aTSM,7-Eleven,"91 Joo Koon Cir, #02-04/05/06 Joo Koon MRT Station, Singapore 629116",2.8,13,"[""convenience_store"", ""establishment"", ""food"", ""point_of_interest"", ""store""]",1.3275971,103.6788579,True
Pioneer,Joo Koon,shopping,convenience store,"convenience store in Joo Koon, Pioneer, Singapore",ChIJQ67ZTv4P2jERtSazyeSB1Fw,Haveen Minimart Pte Ltd,"91 Joo Koon Cir, #02-01 Joo Koon MRT Station, Singapore 629116",2.3,3,"[""convenience_store"", ""establishment"", ""food"", ""point_of_interest"", ""store""]",1.3279229,103.6789045,True
Pioneer,Joo Koon,shopping,wet market,"wet market in Joo Koon, Pioneer, Singapore",ChIJ847ZiBAb2jERBx6e7Mn67YM,Fresh Stop (Chen Ayam),"726 Clementi West Street 2, #01-43, Singapore 120726",4.6,19,"[""establishment"", ""food"", ""point_of_interest"", ""restaurant"", ""store""]",1.3036599,103.7642506,True
Pioneer,Joo Koon,recreation,gym,"gym in Joo Koon, Pioneer, Singapore",ChIJ5VSH70MP2jERvFL2-9MAz2Q,BFT Pioneer,"511 Upper Jurong Rd, Block E-02-02A D'Arena, Singapore 638366",4.9,95,"[""establishment"", ""gym"", ""health"", ""point_of_interest""]",1.329525,103.6830346,True
Pioneer,Joo Koon,recreation,gym,"gym in Joo Koon, Pioneer, Singapore",ChIJ08t6PjYP2jERi4sIp8Z1Sw0,Anytime Fitness,"638 Jurong West Street 61, #03-01 Pioneer Mall, Singapore 640638",4.8,340,"[""establishment"", ""gym"", ""health"", ""point_of_interest""]",1.3418699,103.6973858,True
Pioneer,Joo Koon,recreation,sports centre,"sports centre in Joo Koon, Pioneer, Singapore",ChIJ9y8n8rYi2jERu6OTtZgrXxw,Xuan Sports @ Joo Koon (Headquarter),"1 Joo Koon Cir, #03-21A FairPrice Joo Koon, Singapore 629117",5.0,374,"[""establishment"", ""health"", ""point_of_interest""]",1.326016,103.6786052,True
Pioneer,Joo Koon,recreation,sports centre,"sports centre in Joo Koon, Pioneer, Singapore",ChIJEwW7gpoP2jER4o0mrMTZddM,Jurong West Sport Centre,"20 Jurong West Street 93, Singapore 648965",4.3,1868,"[""establishment"", ""point_of_interest""]",1.3378059,103.6941925,True
Pioneer,Joo Koon,recreation,swimming complex,"swimming complex in Joo Koon, Pioneer, Singapore",ChIJ4Qton5oP2jERihKBVLOV04k,Jurong West Swimming Complex,"20 Jurong West Street 93, Singapore 648965",4.2,978,"[""establishment"", ""point_of_interest""]",1.337881,103.6937455,True
Pioneer,Joo Koon,recreation,swimming complex,"swimming complex in Joo Koon, Pioneer, Singapore",ChIJWaHnCyAQ2jERlnBesVA4gic,Jurong East Swimming Complex,"21 Jurong East Street 31, #01-01, Singapore 609517",4.1,2323,"[""establishment"", ""gym"", ""health"", ""point_of_interest"", ""tourist_attraction""]",1.3461702,103.7293471,True
Pioneer,Joo Koon,recreation,cinema,"cinema in Joo Koon, Pioneer, Singapore",ChIJFx7cQgAR2jERum7NN5FvIOk,Shaw Theatres JEM,"50 Jurong Gateway Rd, #05 04, Singapore 608549",4.0,83,"[""establishment"", ""movie_theater"", ""point_of_interest""]",1.33312,103.7432173,True
Pioneer,Joo Koon,recreation,cinema,"cinema in Joo Koon, Pioneer, Singapore",ChIJgWtqxOwP2jERydU8CT8sako,Golden Village,"1 Jurong West Central 1, #03 - 26 26A, Singapore 648886",4.2,2528,"[""establishment"", ""movie_theater"", ""point_of_interest""]",1.3400295,103.7064166,True
Pioneer,Joo Koon,recreation,community club,"community club in Joo Koon, Pioneer, Singapore",ChIJd4ldQJMP2jERlQdLPkzVa4A,The Frontier Community Club,"60 Jurong West Central 3, #01-01 The Frontier Community Place, Singapore 648346",4.2,496,"[""establishment"", ""point_of_interest""]",1.3402124,103.7042859,True
Pioneer,Joo Koon,recreation,community club,"community club in Joo Koon, Pioneer, Singapore",ChIJ4ydWlqMa2jERWCR933Y5D7s,Ayer Rajah Community Club,"150 Pandan Gardens, Singapore 609335",4.2,752,"[""establishment"", ""point_of_interest""]",1.3206777,103.7475995,True
Pioneer,Joo Koon,recreation,playground,"playground in Joo Koon, Pioneer, Singapore",ChIJ4WvXHfgF2jERk1O-oWFjoO0,Altitude Arena,"1 Joo Koon Cir, #03-21b FairPrice Joo Koon, Singapore 629117",3.7,6,"[""establishment"", ""point_of_interest""]",1.326016,103.6786052,True
Pioneer,Joo Koon,nature,park,"park in Joo Koon, Pioneer, Singapore",ChIJ4WvXHfgF2jERk1O-oWFjoO0,Altitude Arena,"1 Joo Koon Cir, #03-21b FairPrice Joo Koon, Singapore 629117",3.7,6,"[""establishment"", ""point_of_interest""]",1.326016,103.6786052,True
Pioneer,Joo Koon,nature,nature reserve,"nature reserve in Joo Koon, Pioneer, Singapore",ChIJR9wDuIwQ2jERp5g9l0m9MQ0,Rifle Range Nature Park,"Rifle Range Rd, Singapore 589322",4.7,1043,"[""establishment"", ""park"", ""point_of_interest"", ""tourist_attraction""]",1.3434752,103.7794063,True
Pioneer,Joo Koon,nature,nature reserve,"nature reserve in Joo Koon, Pioneer, Singapore",ChIJq_5RjPUQ2jERQZR7bzih7tw,Hindhede Nature Park,"Hindhede Dr, Singapore",4.5,970,"[""establishment"", ""park"", ""point_of_interest"", ""tourist_attraction""]",1.3491093,103.7754308,True
Pioneer,Joo Koon,nature,garden,"garden in Joo Koon, Pioneer, Singapore",ChIJA8Chy6wP2jER5gV-C5bUNKI,Lakeside Garden,"106 Yuan Ching Rd, Singapore",4.7,283,"[""establishment"", ""point_of_interest""]",1.3401032,103.7248543,True
Pioneer,Joo Koon,nature,garden,"garden in Joo Koon, Pioneer, Singapore",ChIJWQLwKP0P2jER-AOMrDbkIW8,Jurong Lake Gardens,"Yuan Ching Rd, Singapore",4.6,6461,"[""establishment"", ""park"", ""point_of_interest"", ""tourist_attraction""]",1.3348492,103.7264557,True
Pioneer,Joo Koon,nature,beach,"beach in Joo Koon, Pioneer, Singapore",ChIJK-VlIX4P2jERdpc51RYg9Lw,Joo Koon,Singapore,4.3,1795,"[""establishment"", ""point_of_interest"", ""subway_station"", ""transit_station""]",1.3277353,103.6783209,True
Pioneer,Joo Koon,nature,beach,"beach in Joo Koon, Pioneer, Singapore",ChIJQ8uk4vwa2jERqMrT6OFBMuw,West Coast Park,"W Coast Ferry Rd, Singapore 126978",4.4,7048,"[""establishment"", ""park"", ""point_of_interest"", ""tourist_attraction""]",1.2913603,103.7666534,True
Pioneer,Joo Koon,nature,waterfront,"waterfront in Joo Koon, Pioneer, Singapore",ChIJJ12oOwAF2jER1c9sOEh17uE,Kokoro Izakaya (FairPrice Hub - Joo Koon MRT),"1 Joo Koon Cir, #01-51 FairPrice Joo Koon, Singapore 629117",4.5,405,"[""establishment"", ""food"", ""point_of_interest"", ""restaurant""]",1.3250128,103.6786652,True
Pioneer,Joo Koon,nature,waterfront,"waterfront in Joo Koon, Pioneer, Singapore",ChIJyV81n4AF2jERnrHVt04CmMU,FairPrice Joo Koon,"1 Joo Koon Cir, Singapore 629117",4.3,1351,"[""establishment"", ""food"", ""grocery_or_supermarket"", ""point_of_interest"", ""store"", ""supermarket""]",1.3272037,103.6786391,True
Pioneer,Joo Koon,nature,park connector,"park connector in Joo Koon, Pioneer, Singapore",ChIJh96XTAAP2jERpzIEPWepVmE,Jurong Park Connector,"10 Boon Lay Way, Singapore 609966",3.0,2,"[""establishment"", ""point_of_interest""]",1.344735,103.727915,True
Pioneer,Joo Koon,nature,park connector,"park connector in Joo Koon, Pioneer, Singapore",ChIJ7XqBWxUP2jERmnprRbIXaOo,Park Connector,"Corporation Rd, Singapore",5.0,1,"[""establishment"", ""point_of_interest""]",1.3379034,103.7145995,True
Pioneer,Pioneer Sector,education,kindergarten,"kindergarten in Pioneer Sector, Pioneer, Singapore",ChIJNfn2jZwP2jERnKZlZ5yCUWc,Pioneer Primary School,"80 Tengah Garden Ave, Singapore 699915",,0,"[""establishment"", ""point_of_interest"", ""primary_school"", ""school""]",1.3545526,103.7322664,True
Pioneer,Pioneer Sector,education,kindergarten,"kindergarten in Pioneer Sector, Pioneer, Singapore",ChIJjzdbRrfbpaoRyr0wiI8kNKs,Small Wonder Pioneer,"20 Jurong West Street 93, #01-03 Sports Centre, Singapore 648965",5.0,10,"[""establishment"", ""point_of_interest"", ""school""]",1.3383436,103.6943961,True
Pioneer,Pioneer Sector,education,childcare centre,"childcare centre in Pioneer Sector, Pioneer, Singapore",ChIJ4_MzjhYP2jERc9wdYOuo4JU,PlayFACTO School @ Pioneer,"840 Jurong West Street 81, #01-107, Singapore 640840",5.0,20,"[""establishment"", ""point_of_interest""]",1.3441243,103.6922025,True
Pioneer,Pioneer Sector,education,primary school,"primary school in Pioneer Sector, Pioneer, Singapore",ChIJkR1ecZEP2jERJhLeZx32rPs,Jurong West Primary School,"30 Jurong West Street 61, #61, Singapore 648368",,0,"[""establishment"", ""point_of_interest"", ""primary_school"", ""school""]",1.3390605,103.6988498,True
Pioneer,Pioneer Sector,education,secondary school,"secondary school in Pioneer Sector, Pioneer, Singapore",ChIJsUBgxf4P2jERpCwsWp4c_V0,Jurong Secondary School,"31 Yuan Ching Rd, Singapore 618652",,0,"[""establishment"", ""point_of_interest"", ""school"", ""secondary_school""]",1.330365,103.724282,True
Pioneer,Pioneer Sector,education,secondary school,"secondary school in Pioneer Sector, Pioneer, Singapore",ChIJc2MrR5QP2jERndRHjWsok84,Boon Lay Secondary School,"11 Jurong West Street 65, Singapore 648354",,0,"[""establishment"", ""point_of_interest"", ""school""]",1.343319,103.7019012,True
Pioneer,Pioneer Sector,education,junior college,"junior college in Pioneer Sector, Pioneer, Singapore",ChIJz_-CGpUR2jERsxAVVh_vnoY,Jurong Pioneer Junior College,"21 Teck Whye Walk, Singapore 688258",3.8,86,"[""establishment"", ""point_of_interest"", ""university""]",1.3847446,103.753857,True
Pioneer,Pioneer Sector,education,junior college,"junior college in Pioneer Sector, Pioneer, Singapore",ChIJ61lTU6EQ2jERiBDECMxHYFY,National Junior College,"37 Hillcrest Rd, Singapore 288913",4.4,182,"[""establishment"", ""point_of_interest"", ""school"", ""university""]",1.330476,103.8045,True
Pioneer,Pioneer Sector,education,polytechnic,"polytechnic in Pioneer Sector, Pioneer, Singapore",ChIJFXzxL2Aa2jERnoWTOdJdVKk,Singapore Polytechnic,"500 Dover Rd, Singapore 139651",4.3,646,"[""establishment"", ""point_of_interest""]",1.3097757,103.7775495,True
Pioneer,Pioneer Sector,education,polytechnic,"polytechnic in Pioneer Sector, Pioneer, Singapore",ChIJWeO0jn0Q2jERQwzr3v_n0nU,Ngee Ann Polytechnic,"535 Clementi Rd, Singapore 599489",4.3,500,"[""establishment"", ""point_of_interest""]",1.3315798,103.7747134,True
Pioneer,Pioneer Sector,education,university,"university in Pioneer Sector, Pioneer, Singapore",ChIJY0QBmQoP2jERGYItxQAIu7g,Nanyang Technological University,"50 Nanyang Ave, Singapore 639798",4.5,1477,"[""establishment"", ""point_of_interest"", ""university""]",1.3483099,103.6831347,True
Pioneer,Pioneer Sector,education,university,"university in Pioneer Sector, Pioneer, Singapore",ChIJ7xGWVp8P2jERPDEUWKIgyUw,Pioneer Hall,"156 Nanyang Cres, Singapore 637125",4.3,100,"[""establishment"", ""point_of_interest""]",1.3460201,103.6889841,True
Pioneer,Pioneer Sector,education,tuition centre,"tuition centre in Pioneer Sector, Pioneer, Singapore",ChIJP68WEUkP2jERsT16cS3wTvE,League of Learners,"638 Jurong West Street 61, #02-10, Singapore 640638",4.6,10,"[""establishment"", ""point_of_interest""]",1.3418568,103.6974327,True
Pioneer,Pioneer Sector,education,tuition centre,"tuition centre in Pioneer Sector, Pioneer, Singapore",ChIJxVpRXY0b2jERLaTEQpzXKf0,Pillora Learning,"729 Clementi West Street 2, Singapore 120729",5.0,5,"[""establishment"", ""point_of_interest""]",1.3050998,103.763368,True
Pioneer,Pioneer Sector,education,library,"library in Pioneer Sector, Pioneer, Singapore",ChIJF3XNQ5MP2jERXeUO2D_OtYY,Jurong West Library,"60 Jurong West Central 3, #01-03, Singapore 648346",4.3,269,"[""establishment"", ""library"", ""point_of_interest""]",1.3403486,103.7045246,True
Pioneer,Pioneer Sector,education,library,"library in Pioneer Sector, Pioneer, Singapore",ChIJn_MoAgAP2jER5S6fcvL0zco,Book House (Community Library),"219a, Singapore",5.0,1,"[""establishment"", ""library"", ""point_of_interest""]",1.3500566,103.710466,True
Pioneer,Pioneer Sector,transport,MRT station,"MRT station in Pioneer Sector, Pioneer, Singapore",ChIJXyBuLMsP2jERcHONsd6ojww,Pioneer MRT Station (EW28),"31 Jurong West Street 63, Singapore 648310",4.4,728,"[""establishment"", ""point_of_interest""]",1.3375915,103.6973658,True
Pioneer,Pioneer Sector,transport,MRT station,"MRT station in Pioneer Sector, Pioneer, Singapore",ChIJzRnjMpAP2jERg3vUJQgsTI0,Pioneer,"31 Jurong West Street 63, Singapore 648310",4.3,300,"[""establishment"", ""point_of_interest"", ""subway_station"", ""transit_station""]",1.3376415,103.696899,True
Pioneer,Pioneer Sector,transport,bus stop,"bus stop in Pioneer Sector, Pioneer, Singapore",ChIJIfSRz5EP2jERPAdLLhxQBVM,Pioneer Stn Exit A,Singapore,3.4,9,"[""establishment"", ""point_of_interest"", ""transit_station""]",1.337417,103.697769,True
Pioneer,Pioneer Sector,transport,bus stop,"bus stop in Pioneer Sector, Pioneer, Singapore",ChIJPyR6G48P2jERR3Essz8-DTk,Pioneer Junction,Singapore,3.9,8,"[""establishment"", ""point_of_interest"", ""transit_station""]",1.333697,103.696663,True
Pioneer,Pioneer Sector,transport,bus interchange,"bus interchange in Pioneer Sector, Pioneer, Singapore",ChIJuXUly5EP2jERlwbu8taV-8A,Pioneer Stn Exit B,Singapore,2.0,4,"[""establishment"", ""point_of_interest"", ""transit_station""]",1.337773,103.697289,True
Pioneer,Pioneer Sector,food,hawker centre,"hawker centre in Pioneer Sector, Pioneer, Singapore",ChIJZYudK5EP2jERoyXvsmYRcEY,Jurong West Hawker Centre,"50 Jurong West Street 61, #61, Singapore 648202",3.7,1041,"[""establishment"", ""food"", ""point_of_interest"", ""restaurant""]",1.3412184,103.6973341,True
Pioneer,Pioneer Sector,food,hawker centre,"hawker centre in Pioneer Sector, Pioneer, Singapore",ChIJ67mVKpcP2jERmahUvC-ZIwc,Pioneer Mall,"638 Jurong West Street 61, Singapore 640638",4.0,2580,"[""establishment"", ""point_of_interest"", ""shopping_mall""]",1.3418699,103.6973858,True
Pioneer,Pioneer Sector,food,food court,"food court in Pioneer Sector, Pioneer, Singapore",ChIJyXLAg54F2jERe_oV7CwguKE,Qi Ren Vegetarian,"32 Pioneer Sector 2, Singapore 628388",4.2,219,"[""cafe"", ""establishment"", ""food"", ""point_of_interest"", ""restaurant"", ""store""]",1.3062887,103.6574539,True
Pioneer,Pioneer Sector,food,food court,"food court in Pioneer Sector, Pioneer, Singapore",ChIJt_dD68YF2jERnfx9549WJnE,Seatrium Canteen,"51 Pioneer Sector 1, Singapore 628437",3.7,130,"[""establishment"", ""food"", ""point_of_interest""]",1.302769,103.6551531,True
Pioneer,Pioneer Sector,food,coffee shop,"coffee shop in Pioneer Sector, Pioneer, Singapore",ChIJHzUx-0MF2jERYcO4LgCc0D8,Pioneer Sector 2 Coffeeshop,"32 Pioneer Sector 2, Singapore 628388",3.6,8,"[""cafe"", ""establishment"", ""food"", ""point_of_interest"", ""store""]",1.3062892,103.6574895,True
Pioneer,Pioneer Sector,food,coffee shop,"coffee shop in Pioneer Sector, Pioneer, Singapore",ChIJTemQ0VMF2jER0qeQXs3WAyM,OOTY COFFEE SHOP,"32 Pioneer Sector 2, Singapore 628388",3.0,9,"[""cafe"", ""establishment"", ""food"", ""point_of_interest"", ""store""]",1.3062232,103.6574571,True
Pioneer,Pioneer Sector,food,restaurant,"restaurant in Pioneer Sector, Pioneer, Singapore",ChIJZUUr9JsF2jERkdRVBDsH-u8,Gramathu Virunthu,"15 Pioneer Walk, #01-14 Pioneer Hub, Singapore 627753",5.0,3,"[""establishment"", ""food"", ""point_of_interest"", ""restaurant""]",1.3211968,103.6952553,True
Pioneer,Pioneer Sector,food,restaurant,"restaurant in Pioneer Sector, Pioneer, Singapore",ChIJ4_wEKwAF2jERryr7fyN9n8k,KPS Chicken Rice,"32 Pioneer Sector 2, Singapore 628388",4.0,1,"[""establishment"", ""food"", ""point_of_interest"", ""restaurant""]",1.3064169,103.6573111,True
Pioneer,Pioneer Sector,food,cafe,"cafe in Pioneer Sector, Pioneer, Singapore",ChIJhfGo7I4P2jERpn2ePqDU6Ws,Kim San Leng (Pioneer Junction),"3 Soon Lee St, #01-08 Pioneer Junction, Singapore 627606",3.9,338,"[""cafe"", ""establishment"", ""food"", ""point_of_interest"", ""store""]",1.3341329,103.6969374,True
Pioneer,Pioneer Sector,shopping,shopping mall,"shopping mall in Pioneer Sector, Pioneer, Singapore",ChIJ67mVKpcP2jERmahUvC-ZIwc,Pioneer Mall,"638 Jurong West Street 61, Singapore 640638",4.0,2580,"[""establishment"", ""point_of_interest"", ""shopping_mall""]",1.3418699,103.6973858,True
Pioneer,Pioneer Sector,shopping,shopping mall,"shopping mall in Pioneer Sector, Pioneer, Singapore",ChIJa9YM2-wP2jERmOUStQKyiS0,Jurong Point,"1 Jurong West Central 2, Singapore 648886",4.4,23245,"[""establishment"", ""food"", ""point_of_interest"", ""shopping_mall""]",1.3397443,103.7067297,True
Pioneer,Pioneer Sector,shopping,supermarket,"supermarket in Pioneer Sector, Pioneer, Singapore",ChIJO6aM0JYP2jERow6S9JoAkdY,Giant Hypermarket,"638 Jurong West Street 61, #03-01, Singapore 640638",4.0,610,"[""establishment"", ""food"", ""grocery_or_supermarket"", ""point_of_interest"", ""store"", ""supermarket""]",1.3418699,103.6973858,True
Pioneer,Pioneer Sector,shopping,supermarket,"supermarket in Pioneer Sector, Pioneer, Singapore",ChIJyV81n4AF2jERnrHVt04CmMU,FairPrice Joo Koon,"1 Joo Koon Cir, Singapore 629117",4.3,1351,"[""establishment"", ""food"", ""grocery_or_supermarket"", ""point_of_interest"", ""store"", ""supermarket""]",1.3272037,103.6786391,True
Pioneer,Pioneer Sector,shopping,convenience store,"convenience store in Pioneer Sector, Pioneer, Singapore",ChIJHzUx-0MF2jERYcO4LgCc0D8,Pioneer Sector 2 Coffeeshop,"32 Pioneer Sector 2, Singapore 628388",3.6,8,"[""cafe"", ""establishment"", ""food"", ""point_of_interest"", ""store""]",1.3062892,103.6574895,True
Pioneer,Pioneer Sector,shopping,convenience store,"convenience store in Pioneer Sector, Pioneer, Singapore",ChIJwaQxxQsP2jEREc_yO3GZM3g,7-Eleven,"31 Jurong West Street 63, #02-04 Pioneer, Singapore 648310",2.1,11,"[""convenience_store"", ""establishment"", ""food"", ""point_of_interest"", ""store""]",1.3376081,103.6969588,True
Pioneer,Pioneer Sector,shopping,wet market,"wet market in Pioneer Sector, Pioneer, Singapore",ChIJ847ZiBAb2jERBx6e7Mn67YM,Fresh Stop (Chen Ayam),"726 Clementi West Street 2, #01-43, Singapore 120726",4.6,19,"[""establishment"", ""food"", ""point_of_interest"", ""restaurant"", ""store""]",1.3036599,103.7642506,True
Pioneer,Pioneer Sector,shopping,wet market,"wet market in Pioneer Sector, Pioneer, Singapore",ChIJfY_zJ6MF2jERefg_hPaVgp8,Jurong Fishery Port,"Fishery Port Rd, Singapore 619742",4.4,104,"[""establishment"", ""food"", ""point_of_interest""]",1.3083323,103.7240679,True
Pioneer,Pioneer Sector,recreation,gym,"gym in Pioneer Sector, Pioneer, Singapore",ChIJ08t6PjYP2jERi4sIp8Z1Sw0,Anytime Fitness,"638 Jurong West Street 61, #03-01 Pioneer Mall, Singapore 640638",4.8,340,"[""establishment"", ""gym"", ""health"", ""point_of_interest""]",1.3418699,103.6973858,True
Pioneer,Pioneer Sector,recreation,gym,"gym in Pioneer Sector, Pioneer, Singapore",ChIJ5VSH70MP2jERvFL2-9MAz2Q,BFT Pioneer,"511 Upper Jurong Rd, Block E-02-02A D'Arena, Singapore 638366",4.9,95,"[""establishment"", ""gym"", ""health"", ""point_of_interest""]",1.329525,103.6830346,True
Pioneer,Pioneer Sector,recreation,sports centre,"sports centre in Pioneer Sector, Pioneer, Singapore",ChIJEwW7gpoP2jER4o0mrMTZddM,Jurong West Sport Centre,"20 Jurong West Street 93, Singapore 648965",4.3,1868,"[""establishment"", ""point_of_interest""]",1.3378059,103.6941925,True
Pioneer,Pioneer Sector,recreation,sports centre,"sports centre in Pioneer Sector, Pioneer, Singapore",ChIJYeredpAP2jERduiD1Z5dTGI,Jurong West Sport Hall,"20 Jurong West Street 93, #02-18, Singapore 648965",4.4,240,"[""establishment"", ""point_of_interest""]",1.3385286,103.6932988,True
Pioneer,Pioneer Sector,recreation,swimming complex,"swimming complex in Pioneer Sector, Pioneer, Singapore",ChIJ4Qton5oP2jERihKBVLOV04k,Jurong West Swimming Complex,"20 Jurong West Street 93, Singapore 648965",4.2,978,"[""establishment"", ""point_of_interest""]",1.337881,103.6937455,True
Pioneer,Pioneer Sector,recreation,swimming complex,"swimming complex in Pioneer Sector, Pioneer, Singapore",ChIJWaHnCyAQ2jERlnBesVA4gic,Jurong East Swimming Complex,"21 Jurong East Street 31, #01-01, Singapore 609517",4.1,2323,"[""establishment"", ""gym"", ""health"", ""point_of_interest"", ""tourist_attraction""]",1.3461702,103.7293471,True
Pioneer,Pioneer Sector,recreation,cinema,"cinema in Pioneer Sector, Pioneer, Singapore",ChIJgWtqxOwP2jERydU8CT8sako,Golden Village,"1 Jurong West Central 1, #03 - 26 26A, Singapore 648886",4.2,2528,"[""establishment"", ""movie_theater"", ""point_of_interest""]",1.3400295,103.7064166,True
Pioneer,Pioneer Sector,recreation,cinema,"cinema in Pioneer Sector, Pioneer, Singapore",ChIJFx7cQgAR2jERum7NN5FvIOk,Shaw Theatres JEM,"50 Jurong Gateway Rd, #05 04, Singapore 608549",4.0,83,"[""establishment"", ""movie_theater"", ""point_of_interest""]",1.33312,103.7432173,True
Pioneer,Pioneer Sector,recreation,community club,"community club in Pioneer Sector, Pioneer, Singapore",ChIJd4ldQJMP2jERlQdLPkzVa4A,The Frontier Community Club,"60 Jurong West Central 3, #01-01 The Frontier Community Place, Singapore 648346",4.2,496,"[""establishment"", ""point_of_interest""]",1.3402124,103.7042859,True
Pioneer,Pioneer Sector,recreation,community club,"community club in Pioneer Sector, Pioneer, Singapore",ChIJyz3Mq5IP2jERCMeqV16SXAI,Pioneer Zone 7 Residents' Network,"661D Jurong West St 64, #01-450, Singapore 644661",3.0,5,"[""establishment"", ""point_of_interest""]",1.3364834,103.7045965,True
Pioneer,Pioneer Sector,recreation,playground,"playground in Pioneer Sector, Pioneer, Singapore",ChIJTynXQQAR2jERs9_0QDzIVaM,Yooland Indoor Playground,"3 Gateway Dr, Level 3, unit #36/37 Westgate, Singapore 608532",4.6,477,"[""amusement_park"", ""establishment"", ""point_of_interest""]",1.3343784,103.7427835,True
Pioneer,Pioneer Sector,recreation,playground,"playground in Pioneer Sector, Pioneer, Singapore",ChIJ5U9td4kZ2jER7GgohbBhI4E,Wan To Play Capybara Creek,"Leisure Park Kallng #02-49/53, Stadium Walk, #397693, Singapore 397693",4.0,26,"[""establishment"", ""point_of_interest""]",1.3021918,103.876502,True
Pioneer,Pioneer Sector,nature,park,"park in Pioneer Sector, Pioneer, Singapore",ChIJqVUlbe0P2jER-8gqnsq4eNk,Jurong Central Park,"Junction off Jalan Boon Lay & Boon Lay Way, Singapore 609961",4.3,2534,"[""establishment"", ""park"", ""point_of_interest"", ""tourist_attraction""]",1.3377938,103.7078525,True
Pioneer,Pioneer Sector,nature,park,"park in Pioneer Sector, Pioneer, Singapore",ChIJ7acIxWQF2jERpiCtMaMe0nQ,Pioneer Hub,"15 Pioneer Walk, Singapore 627753",4.3,26,"[""establishment"", ""point_of_interest""]",1.3215755,103.695209,True
Pioneer,Pioneer Sector,nature,nature reserve,"nature reserve in Pioneer Sector, Pioneer, Singapore",ChIJR9wDuIwQ2jERp5g9l0m9MQ0,Rifle Range Nature Park,"Rifle Range Rd, Singapore 589322",4.7,1043,"[""establishment"", ""park"", ""point_of_interest"", ""tourist_attraction""]",1.3434752,103.7794063,True
Pioneer,Pioneer Sector,nature,nature reserve,"nature reserve in Pioneer Sector, Pioneer, Singapore",ChIJ_6g8kisX2jERaGrSixd_xbM,Windsor Nature Park,"30 Venus Dr, Singapore 573858",4.6,1760,"[""establishment"", ""park"", ""point_of_interest"", ""tourist_attraction""]",1.3566265,103.8214319,True
Pioneer,Pioneer Sector,nature,garden,"garden in Pioneer Sector, Pioneer, Singapore",ChIJW_ajrR8O2jERWGZKr2t29kY,Pioneer Landscape Pte Ltd,"80 Jln Lekar, Singapore 698951",4.2,65,"[""establishment"", ""general_contractor"", ""point_of_interest"", ""store""]",1.3863569,103.7259144,True
Pioneer,Pioneer Sector,nature,garden,"garden in Pioneer Sector, Pioneer, Singapore",ChIJWQLwKP0P2jER-AOMrDbkIW8,Jurong Lake Gardens,"Yuan Ching Rd, Singapore",4.6,6461,"[""establishment"", ""park"", ""point_of_interest"", ""tourist_attraction""]",1.3348492,103.7264557,True
Pioneer,Pioneer Sector,nature,beach,"beach in Pioneer Sector, Pioneer, Singapore",ChIJQ8uk4vwa2jERqMrT6OFBMuw,West Coast Park,"W Coast Ferry Rd, Singapore 126978",4.4,7048,"[""establishment"", ""park"", ""point_of_interest"", ""tourist_attraction""]",1.2913603,103.7666534,True
Pioneer,Pioneer Sector,nature,beach,"beach in Pioneer Sector, Pioneer, Singapore",ChIJpRlNluQa2jERt1AMrgNfuhM,Promenade Lookout Jetty,Singapore,4.3,130,"[""establishment"", ""point_of_interest""]",1.2967871,103.7606201,True
Pioneer,Pioneer Sector,nature,waterfront,"waterfront in Pioneer Sector, Pioneer, Singapore",ChIJ96HBJZ8a2jERl1GsjJmk-70,Waterfront @ Faber,"48 Faber Walk, Singapore 128993",4.4,120,"[""establishment"", ""point_of_interest""]",1.3232117,103.754716,True
Pioneer,Pioneer Sector,nature,waterfront,"waterfront in Pioneer Sector, Pioneer, Singapore",ChIJRwbl2LAF2jERKUj5Rg33EwQ,Nam Leong Co Pte Ltd,"7 Pioneer Sector Ln, Singapore 628324",4.2,14,"[""establishment"", ""general_contractor"", ""point_of_interest""]",1.2966166,103.6660529,True
Pioneer,Pioneer Sector,nature,park connector,"park connector in Pioneer Sector, Pioneer, Singapore",ChIJOXwacPMP2jERxTgW0ZaOFTQ,Park Connector,"Yuan Ching Road, Singapore",5.0,2,"[""establishment"", ""point_of_interest""]",1.3282212,103.850917,True
Pioneer,Pioneer Sector,nature,park connector,"park connector in Pioneer Sector, Pioneer, Singapore",ChIJh96XTAAP2jERpzIEPWepVmE,Jurong Park Connector,"10 Boon Lay Way, Singapore 609966",3.0,2,"[""establishment"", ""point_of_interest""]",1.344735,103.727915,True
