planning_area,subzone,poi_dimension,place_query_type,search_query,place_id,place_name,formatted_address,rating,user_ratings_total,types,lat,lng,need_reviews
Lim Chu Kang,Lim Chu Kang,education,education facilities schools childcare libraries,"education facilities schools childcare libraries near Lim Chu Kang, Lim Chu Kang, Singapore",ChIJ2739TgoP2jERlpS4Fef772Y,Library and Information Services Centre (NIE),"1 Nanyang Walk, Singapore 637616",4.6,28,"[""establishment"", ""library"", ""point_of_interest""]",1.348661,103.677635,True
Lim Chu Kang,Lim Chu Kang,education,education facilities schools childcare libraries,"education facilities schools childcare libraries near Lim Chu Kang, Lim Chu Kang, Singapore",ChIJ5-Dtl-kR2jERllI9-1NpYVY,Choa Chu Kang Library,"21 Choa Chu Kang Avenue 4 #04-01/02 and #05-06, Lot One Shopper’s Mall, Singapore 689812",4.3,280,"[""establishment"", ""library"", ""point_of_interest""]",1.384977,103.7452205,True
Lim Chu Kang,Lim Chu Kang,education,education facilities schools childcare libraries,"education facilities schools childcare libraries near Lim Chu Kang, Lim Chu Kang, Singapore",ChIJVUkk2O8R2jERbTU3jlW7AIw,Little Footprints Preschool @ Choa Chu Kang - Limbang,"533 Choa Chu Kang Street 51, #02-01 Limbang Shopping Centre, Singapore 680533",4.8,67,"[""establishment"", ""point_of_interest"", ""school""]",1.3920515,103.743666,True
Lim Chu Kang,Lim Chu Kang,education,education facilities schools childcare libraries,"education facilities schools childcare libraries near Lim Chu Kang, Lim Chu Kang, Singapore",ChIJyVJ-4sQR2jERrzSdbFHljAQ,in:genius Student Care @ Choa Chu Kang,"309 Choa Chu Kang Ave 4, #04-07, Singapore 680309",5.0,27,"[""establishment"", ""point_of_interest""]",1.3851291,103.7457328,True
Lim Chu Kang,Lim Chu Kang,education,education facilities schools childcare libraries,"education facilities schools childcare libraries near Lim Chu Kang, Lim Chu Kang, Singapore",ChIJ85BTqAIR2jER0elL_B7aOfM,Discovery Learners Student Care Center,"Block 541 Choa Chu Kang Street 52, #01-46, Singapore 680541",5.0,14,"[""establishment"", ""point_of_interest""]",1.3926538,103.7445298,True
Lim Chu Kang,Lim Chu Kang,education,education facilities schools childcare libraries,"education facilities schools childcare libraries near Lim Chu Kang, Lim Chu Kang, Singapore",ChIJmRqPF8QR2jERBjbHumdR_z4,Greenfield Montessori,"688C Choa Chu Kang Cres, Block 688C, Singapore 683688",4.8,33,"[""establishment"", ""point_of_interest""]",1.4032512,103.7507755,True
Lim Chu Kang,Lim Chu Kang,education,education facilities schools childcare libraries,"education facilities schools childcare libraries near Lim Chu Kang, Lim Chu Kang, Singapore",ChIJ39hAJcQR2jERfMo3N26ktMQ,SDM Childcare Centre @ Choa Chu Kang,"186 Choa Chu Kang Ave 1, Singapore 689464",4.9,17,"[""establishment"", ""point_of_interest"", ""school""]",1.3769847,103.7456425,True
Lim Chu Kang,Lim Chu Kang,education,education facilities schools childcare libraries,"education facilities schools childcare libraries near Lim Chu Kang, Lim Chu Kang, Singapore",ChIJp4_y7ccR2jERSt3nPw7Te_E,Little Footprints Preschool @ ITE West,"1 Choa Chu Kang Grv, Singapore 688236",4.9,44,"[""establishment"", ""point_of_interest"", ""school""]",1.3760208,103.752942,True
Lim Chu Kang,Lim Chu Kang,education,education facilities schools childcare libraries,"education facilities schools childcare libraries near Lim Chu Kang, Lim Chu Kang, Singapore",ChIJTXdxQk4b2jER4HdHnRNjvLY,HV Little Library,"2 Holland Ave, Block 2, Singapore 271002",4.9,64,"[""establishment"", ""library"", ""point_of_interest""]",1.3095115,103.7956789,True
Lim Chu Kang,Lim Chu Kang,education,education facilities schools childcare libraries,"education facilities schools childcare libraries near Lim Chu Kang, Lim Chu Kang, Singapore",ChIJkZEm_NoR2jER2JHSz_r0VHQ,Greenery Childcare Centre,"483 Choa Chu Kang Ave 5, #01-164, Singapore 680483",5.0,25,"[""establishment"", ""point_of_interest"", ""school""]",1.3758855,103.7376734,True
Lim Chu Kang,Lim Chu Kang,education,education facilities schools childcare libraries,"education facilities schools childcare libraries near Lim Chu Kang, Lim Chu Kang, Singapore",ChIJHU3P4qoR2jER9gZC9z2URlI,Fruitful Student Care and Enrichment Centre,"BLK 210 Choa Chu Kang Central, B1-162, Singapore 680210",5.0,8,"[""establishment"", ""point_of_interest""]",1.3824402,103.7481504,True
Lim Chu Kang,Lim Chu Kang,education,education facilities schools childcare libraries,"education facilities schools childcare libraries near Lim Chu Kang, Lim Chu Kang, Singapore",ChIJcaOg62wU2jERB6GKt4ELsEA,Nee Soon Central Community Children's Library,"644 Yishun Street 61, Singapore 760644",5.0,1,"[""establishment"", ""library"", ""point_of_interest""]",1.4217439,103.8373836,True
Lim Chu Kang,Lim Chu Kang,education,education facilities schools childcare libraries,"education facilities schools childcare libraries near Lim Chu Kang, Lim Chu Kang, Singapore",ChIJVVVVBbwR2jERWtlCBJtrLm8,The Orange Tree Preschool (Choa Chu Kang),"10 Choa Chu Kang Rd, Post Office, Singapore 689379",4.8,44,"[""establishment"", ""point_of_interest"", ""school""]",1.3793677,103.7591311,True
Lim Chu Kang,Lim Chu Kang,education,education facilities schools childcare libraries,"education facilities schools childcare libraries near Lim Chu Kang, Lim Chu Kang, Singapore",ChIJgSLBhIAQ2jER03pM4hD-5EY,Tay Eng Soon Library,"535A Clementi Rd, Singapore 599490 Clementi Rd, Singapore 599490",4.4,7,"[""establishment"", ""library"", ""point_of_interest""]",1.3298003,103.7757296,True
Lim Chu Kang,Lim Chu Kang,education,education facilities schools childcare libraries,"education facilities schools childcare libraries near Lim Chu Kang, Lim Chu Kang, Singapore",ChIJ8_KvfsAR2jERfQLW0Ksyn3M,Heartyland Infant Care,"35 Teck Whye Ave, #02-02 Chua Chu Kang Community Club, Singapore 688892",4.6,9,"[""establishment"", ""point_of_interest""]",1.3811877,103.7518505,True
Lim Chu Kang,Lim Chu Kang,education,education facilities schools childcare libraries,"education facilities schools childcare libraries near Lim Chu Kang, Lim Chu Kang, Singapore",ChIJh-bVYOgT2jERnSDkw1F-WjM,PlayFACTO School @ Woods Square | Student Care Woodlands,"8 Woodlands Square, Solo 2, #04-25 Woods Square, Singapore 737713",5.0,122,"[""establishment"", ""point_of_interest""]",1.4353,103.7855651,True
Lim Chu Kang,Lim Chu Kang,education,education facilities schools childcare libraries,"education facilities schools childcare libraries near Lim Chu Kang, Lim Chu Kang, Singapore",ChIJk4Q1Bg4R2jER1LEf2I2Jx_U,MindChamps PreSchool @ Temasek Club,"131 Rifle Range Rd, #03-01 Temasek Club, Singapore 588406",5.0,53,"[""establishment"", ""point_of_interest"", ""school""]",1.3465272,103.7806957,True
Lim Chu Kang,Lim Chu Kang,education,education facilities schools childcare libraries,"education facilities schools childcare libraries near Lim Chu Kang, Lim Chu Kang, Singapore",ChIJPaRwcKMZ2jERUSouCuWdZLk,SMU Li Ka Shing Library,"70 Stamford Rd, Singapore 178901",4.6,86,"[""establishment"", ""library"", ""point_of_interest""]",1.2962087,103.8501207,True
Lim Chu Kang,Lim Chu Kang,education,education facilities schools childcare libraries,"education facilities schools childcare libraries near Lim Chu Kang, Lim Chu Kang, Singapore",ChIJZQ0hDgoa2jERsTr-7x26d3M,Kong Chian Library,"Bukit Timah, Singapore",5.0,2,"[""establishment"", ""point_of_interest""]",1.3262027,103.8032561,True
Lim Chu Kang,Lim Chu Kang,education,education facilities schools childcare libraries,"education facilities schools childcare libraries near Lim Chu Kang, Lim Chu Kang, Singapore",ChIJt-9Ofd8b2jER7ZMceh6D-HE,Learning Vision National University Health System,"1 Lower Kent Ridge Rd, #07-01 One @ Kent Ridge, Singapore 119082",5.0,55,"[""establishment"", ""point_of_interest"", ""school""]",1.2934298,103.7845351,True
Lim Chu Kang,Lim Chu Kang,transport,public transport MRT LRT bus stops,"public transport MRT LRT bus stops near Lim Chu Kang, Lim Chu Kang, Singapore",ChIJF7LXY3MN2jERqy63p1Jp0jQ,Lim Chu Kang Road,Singapore,4.6,9,"[""establishment"", ""point_of_interest"", ""transit_station""]",1.444827,103.707588,True
Lim Chu Kang,Lim Chu Kang,transport,public transport MRT LRT bus stops,"public transport MRT LRT bus stops near Lim Chu Kang, Lim Chu Kang, Singapore",ChIJ_RBM95gN2jERozO6M3ilIhw,Opp Lim Chu Kang Lane 4,Singapore,4.5,2,"[""establishment"", ""point_of_interest"", ""transit_station""]",1.433182,103.707825,True
Lim Chu Kang,Lim Chu Kang,transport,public transport MRT LRT bus stops,"public transport MRT LRT bus stops near Lim Chu Kang, Lim Chu Kang, Singapore",ChIJLzMelekR2jERxRUvpv1JZy4,Lot 1/Choa Chu Kang Stn,Singapore,4.3,26,"[""establishment"", ""point_of_interest"", ""transit_station""]",1.3846152,103.7449995,True
Lim Chu Kang,Lim Chu Kang,transport,public transport MRT LRT bus stops,"public transport MRT LRT bus stops near Lim Chu Kang, Lim Chu Kang, Singapore",ChIJg9zFkjAR2jERXmWQPEs55Kg,Yew Tee MRT Station (NS5),"61 Choa Chu Kang Dr, Singapore 689715",4.5,750,"[""establishment"", ""point_of_interest""]",1.3973666,103.7474715,True
Lim Chu Kang,Lim Chu Kang,transport,public transport MRT LRT bus stops,"public transport MRT LRT bus stops near Lim Chu Kang, Lim Chu Kang, Singapore",ChIJKTGXKJYN2jERqWs0QaXDcz0,Opp Lim Chu Kang Lane 3,Singapore,3.5,2,"[""establishment"", ""point_of_interest"", ""transit_station""]",1.427619,103.70594,True
Lim Chu Kang,Lim Chu Kang,transport,public transport MRT LRT bus stops,"public transport MRT LRT bus stops near Lim Chu Kang, Lim Chu Kang, Singapore",ChIJCZRupukR2jERCglyJsNXaHE,Choa Chu Kang,Singapore 680288,4.0,201,"[""establishment"", ""point_of_interest"", ""subway_station"", ""transit_station""]",1.3847058,103.7445368,True
Lim Chu Kang,Lim Chu Kang,transport,public transport MRT LRT bus stops,"public transport MRT LRT bus stops near Lim Chu Kang, Lim Chu Kang, Singapore",ChIJvwtvkk8O2jERmPabMojKwDA,Aft Lim Chu Kang Rd,Singapore,4.0,2,"[""establishment"", ""point_of_interest"", ""transit_station""]",1.373632,103.695969,True
Lim Chu Kang,Lim Chu Kang,transport,public transport MRT LRT bus stops,"public transport MRT LRT bus stops near Lim Chu Kang, Lim Chu Kang, Singapore",ChIJXda8xtoR2jERkD1aoLDmzhI,Yew Tee,"61 Choa Chu Kang Dr, Singapore 689715",4.1,133,"[""establishment"", ""point_of_interest"", ""subway_station"", ""transit_station""]",1.3975657,103.7474517,True
Lim Chu Kang,Lim Chu Kang,transport,public transport MRT LRT bus stops,"public transport MRT LRT bus stops near Lim Chu Kang, Lim Chu Kang, Singapore",ChIJC8_040gR2jERacObPHcY5gA,Choa Chu Kang Bus Interchange,"70 Choa Chu Kang Loop, Singapore 689688",4.3,57,"[""establishment"", ""point_of_interest""]",1.3857394,103.7451729,True
Lim Chu Kang,Lim Chu Kang,transport,public transport MRT LRT bus stops,"public transport MRT LRT bus stops near Lim Chu Kang, Lim Chu Kang, Singapore",ChIJIQtrhgwW2jERClZn2MG508U,Cheng Lim,"5 Anchorvale St, Singapore 545047",4.0,20,"[""establishment"", ""point_of_interest"", ""transit_station""]",1.396058,103.893811,True
Lim Chu Kang,Lim Chu Kang,transport,public transport MRT LRT bus stops,"public transport MRT LRT bus stops near Lim Chu Kang, Lim Chu Kang, Singapore",ChIJxe0CeekR2jERTvo3i83VqUY,Choa Chu Kang Interchange,"Choa Chu Kang, Singapore",3.7,93,"[""bus_station"", ""establishment"", ""point_of_interest"", ""transit_station""]",1.3859683,103.7459786,True
Lim Chu Kang,Lim Chu Kang,transport,public transport MRT LRT bus stops,"public transport MRT LRT bus stops near Lim Chu Kang, Lim Chu Kang, Singapore",ChIJs0Q3xMMR2jERIIpUIPHgivw,South View,Singapore,4.1,16,"[""establishment"", ""point_of_interest"", ""transit_station""]",1.3803725,103.7453149,True
Lim Chu Kang,Lim Chu Kang,food,food dining hawker centres restaurants cafes,"food dining hawker centres restaurants cafes near Lim Chu Kang, Lim Chu Kang, Singapore",ChIJRwKzawsZ2jERKxpszLl54EU,Hong Lim Market & Food Centre,"531A Upper Cross St, Singapore 051531",4.3,6616,"[""establishment"", ""food"", ""point_of_interest"", ""restaurant"", ""tourist_attraction""]",1.2853948,103.8458272,True
Lim Chu Kang,Lim Chu Kang,food,food dining hawker centres restaurants cafes,"food dining hawker centres restaurants cafes near Lim Chu Kang, Lim Chu Kang, Singapore",ChIJ7SUpBGoa2jER31LgG0EuOmk,Holland Drive Market & Food Centre,"44 Holland Dr, Singapore 270044",4.1,3184,"[""establishment"", ""food"", ""point_of_interest"", ""restaurant""]",1.308167,103.7927992,True
Lim Chu Kang,Lim Chu Kang,food,food dining hawker centres restaurants cafes,"food dining hawker centres restaurants cafes near Lim Chu Kang, Lim Chu Kang, Singapore",ChIJ5Y6l4Q0Z2jERYL0KDIjT6v0,Lau Pa Sat,"18 Raffles Quay, Singapore 048582",4.4,38467,"[""establishment"", ""food"", ""point_of_interest"", ""restaurant"", ""tourist_attraction""]",1.2805121,103.8503809,True
Lim Chu Kang,Lim Chu Kang,food,food dining hawker centres restaurants cafes,"food dining hawker centres restaurants cafes near Lim Chu Kang, Lim Chu Kang, Singapore",ChIJseQsTQ0Z2jERqpBTWF0Zf84,Maxwell Food Centre,"1 Kadayanallur St, Singapore 069184",4.4,23479,"[""establishment"", ""food"", ""point_of_interest"", ""restaurant"", ""tourist_attraction""]",1.2803361,103.844767,True
Lim Chu Kang,Lim Chu Kang,food,food dining hawker centres restaurants cafes,"food dining hawker centres restaurants cafes near Lim Chu Kang, Lim Chu Kang, Singapore",ChIJdZupgcsb2jERP1Byeb2I-24,Alexandra Village Food Centre,"120 Bukit Merah Lane 1, Singapore 150120",4.2,6383,"[""establishment"", ""food"", ""point_of_interest"", ""restaurant""]",1.2863397,103.8045184,True
Lim Chu Kang,Lim Chu Kang,food,food dining hawker centres restaurants cafes,"food dining hawker centres restaurants cafes near Lim Chu Kang, Lim Chu Kang, Singapore",ChIJ3YoS3ukP2jERkcHsff2PWBo,Boon Lay Place Food Village,"221A Boon Lay Pl, Singapore 641221",4.2,5312,"[""establishment"", ""food"", ""point_of_interest"", ""restaurant""]",1.3457455,103.713105,True
Lim Chu Kang,Lim Chu Kang,food,food dining hawker centres restaurants cafes,"food dining hawker centres restaurants cafes near Lim Chu Kang, Lim Chu Kang, Singapore",ChIJkalS-tQb2jERyBBUWbQg3eg,Redhill Food Centre,"85 Redhill Ln, Singapore 150085",4.2,2651,"[""establishment"", ""food"", ""point_of_interest"", ""restaurant""]",1.287294,103.8181829,True
Lim Chu Kang,Lim Chu Kang,food,food dining hawker centres restaurants cafes,"food dining hawker centres restaurants cafes near Lim Chu Kang, Lim Chu Kang, Singapore",ChIJf3Yu7bsb2jERADDFSroHkq0,Pasir Panjang Food Centre,"121 Pasir Panjang Rd, Singapore 118543",4.0,3521,"[""establishment"", ""food"", ""point_of_interest"", ""restaurant""]",1.27598,103.7912552,True
Lim Chu Kang,Lim Chu Kang,food,food dining hawker centres restaurants cafes,"food dining hawker centres restaurants cafes near Lim Chu Kang, Lim Chu Kang, Singapore",ChIJKY77qdYb2jERgrqa1URSZIM,ABC Brickworks Market & Food Centre,"6 Jalan Bukit Merah, Singapore 150006",4.2,8448,"[""establishment"", ""food"", ""point_of_interest"", ""restaurant""]",1.2869047,103.8081551,True
Lim Chu Kang,Lim Chu Kang,food,food dining hawker centres restaurants cafes,"food dining hawker centres restaurants cafes near Lim Chu Kang, Lim Chu Kang, Singapore",ChIJ13QIcY0b2jERCBe6b9CocUE,Tanglin Halt Market,"48A Tanglin Halt Rd, Singapore 148813",4.3,212,"[""establishment"", ""food"", ""point_of_interest"", ""restaurant""]",1.3004362,103.7976761,True
Lim Chu Kang,Lim Chu Kang,food,food dining hawker centres restaurants cafes,"food dining hawker centres restaurants cafes near Lim Chu Kang, Lim Chu Kang, Singapore",ChIJv4Mk4QYa2jERlGncaOIvpW4,Adam Food Centre,"2 Adam Rd, Singapore 289876",4.2,8188,"[""establishment"", ""food"", ""point_of_interest"", ""restaurant""]",1.3240414,103.8141545,True
Lim Chu Kang,Lim Chu Kang,food,food dining hawker centres restaurants cafes,"food dining hawker centres restaurants cafes near Lim Chu Kang, Lim Chu Kang, Singapore",ChIJI-gKldYb2jERNcM2c5yLxNc,Bukit Merah Central Food Centre,"163 Bukit Merah Central, Singapore 150163",4.0,1388,"[""establishment"", ""food"", ""point_of_interest"", ""restaurant""]",1.2834536,103.8174057,True
Lim Chu Kang,Lim Chu Kang,food,food dining hawker centres restaurants cafes,"food dining hawker centres restaurants cafes near Lim Chu Kang, Lim Chu Kang, Singapore",ChIJe4wL_OsZ2jERySoDk6jlhNQ,Newton Food Centre,"500 Clemenceau Ave N, Singapore 229495",4.2,14987,"[""establishment"", ""food"", ""point_of_interest"", ""restaurant""]",1.3119888,103.8395742,True
Lim Chu Kang,Lim Chu Kang,food,food dining hawker centres restaurants cafes,"food dining hawker centres restaurants cafes near Lim Chu Kang, Lim Chu Kang, Singapore",ChIJyRcdyZMa2jERVyFlLiByOAw,Ayer Rajah Food Centre,"503 W Coast Dr, Singapore 120503",4.2,7389,"[""establishment"", ""food"", ""point_of_interest"", ""restaurant""]",1.3118695,103.7597825,True
Lim Chu Kang,Lim Chu Kang,food,food dining hawker centres restaurants cafes,"food dining hawker centres restaurants cafes near Lim Chu Kang, Lim Chu Kang, Singapore",ChIJ_c6vFoMZ2jERBWATXfBQ7Aw,Zion Riverside Food Centre,"70 Zion Rd, Singapore 247792",4.2,3990,"[""establishment"", ""food"", ""point_of_interest"", ""restaurant""]",1.2924675,103.8313302,True
Lim Chu Kang,Lim Chu Kang,food,food dining hawker centres restaurants cafes,"food dining hawker centres restaurants cafes near Lim Chu Kang, Lim Chu Kang, Singapore",ChIJjbH6rj8a2jERFSEXk8L9_wY,Commonwealth Crescent Market,"31 Commonwealth Cres, Singapore 149644",4.1,1355,"[""establishment"", ""food"", ""point_of_interest"", ""restaurant""]",1.3069482,103.800383,True
Lim Chu Kang,Lim Chu Kang,food,food dining hawker centres restaurants cafes,"food dining hawker centres restaurants cafes near Lim Chu Kang, Lim Chu Kang, Singapore",ChIJWxEUrdkR2jERM4uTxwEQ3ZY,Blk 253 Choa Chu Kang Market & Food Centre,"Block 253 Choa Chu Kang Ave 1, Singapore 680253",3.8,219,"[""establishment"", ""food"", ""point_of_interest"", ""restaurant""]",1.3766662,103.7445867,True
Lim Chu Kang,Lim Chu Kang,food,food dining hawker centres restaurants cafes,"food dining hawker centres restaurants cafes near Lim Chu Kang, Lim Chu Kang, Singapore",ChIJ72xdjXgZ2jERQkQHEiK2QJw,Havelock Road Cooked Food Centre,"22A Havelock Rd, Singapore 161022",4.0,1499,"[""establishment"", ""food"", ""point_of_interest"", ""restaurant""]",1.2877706,103.8295334,True
Lim Chu Kang,Lim Chu Kang,food,food dining hawker centres restaurants cafes,"food dining hawker centres restaurants cafes near Lim Chu Kang, Lim Chu Kang, Singapore",ChIJzyyRZWUb2jERYQW51dRsmjc,Margaret Drive Hawker Centre,"38A Margaret Dr, Singapore 142038",3.9,763,"[""establishment"", ""food"", ""point_of_interest"", ""restaurant""]",1.2974238,103.8047286,True
Lim Chu Kang,Lim Chu Kang,food,food dining hawker centres restaurants cafes,"food dining hawker centres restaurants cafes near Lim Chu Kang, Lim Chu Kang, Singapore",ChIJCyw1YzQa2jER6EoEVDP8ywU,Mei Ling Market & Food Centre,"159 Mei Chin Rd, Singapore 140159",4.0,2480,"[""establishment"", ""food"", ""point_of_interest"", ""restaurant"", ""store""]",1.2932672,103.8028827,True
Lim Chu Kang,Lim Chu Kang,shopping,shopping groceries malls supermarkets markets,"shopping groceries malls supermarkets markets near Lim Chu Kang, Lim Chu Kang, Singapore",ChIJs5CBlukR2jER-uyFhQ2NFbU,Lot One Shoppers' Mall,"21 Choa Chu Kang Ave 4, Singapore 689812",4.1,7953,"[""establishment"", ""point_of_interest"", ""shopping_mall""]",1.3851169,103.7449142,True
Lim Chu Kang,Lim Chu Kang,shopping,shopping groceries malls supermarkets markets,"shopping groceries malls supermarkets markets near Lim Chu Kang, Lim Chu Kang, Singapore",ChIJSZQvzO8R2jER3y3YPr6U1bQ,Limbang Shopping Centre,"Choa Chu Kang Street 51, #532 533, Singapore 680534",3.8,1625,"[""establishment"", ""point_of_interest"", ""shopping_mall""]",1.3922447,103.7432453,True
Lim Chu Kang,Lim Chu Kang,shopping,shopping groceries malls supermarkets markets,"shopping groceries malls supermarkets markets near Lim Chu Kang, Lim Chu Kang, Singapore",ChIJq93BHIkQ2jEReDU1CrhkeOg,FairPrice Finest Bukit Timah Plaza,"1 Jln Anak Bukit, #B1-01 & #B2-01, Bukit Timah Plaza, 1 Jalan Anak Bukit, Singapore 588996",4.4,1268,"[""establishment"", ""food"", ""grocery_or_supermarket"", ""point_of_interest"", ""store"", ""supermarket""]",1.3383817,103.7783546,True
Lim Chu Kang,Lim Chu Kang,shopping,shopping groceries malls supermarkets markets,"shopping groceries malls supermarkets markets near Lim Chu Kang, Lim Chu Kang, Singapore",ChIJL3h_-fMR2jERaA6mW3u-wNU,YewTee Point,"21 Choa Chu Kang North 6, Singapore 689578",4.1,2743,"[""establishment"", ""point_of_interest"", ""shopping_mall""]",1.39716,103.7468352,True
Lim Chu Kang,Lim Chu Kang,shopping,shopping groceries malls supermarkets markets,"shopping groceries malls supermarkets markets near Lim Chu Kang, Lim Chu Kang, Singapore",ChIJJ6SpJdwZ2jER3cMcWGFXnTc,"Little Farms Market, Tanglin Mall (Grocery store)","163 Tanglin Rd, #02-136, Singapore 247933",4.6,273,"[""cafe"", ""establishment"", ""food"", ""grocery_or_supermarket"", ""point_of_interest"", ""restaurant"", ""store""]",1.3050246,103.8235685,True
Lim Chu Kang,Lim Chu Kang,shopping,shopping groceries malls supermarkets markets,"shopping groceries malls supermarkets markets near Lim Chu Kang, Lim Chu Kang, Singapore",ChIJq8UGJo4a2jER0ypiQDLiXpg,The Clementi Mall,"3155 Commonwealth Ave W, Singapore 129588",4.1,10700,"[""establishment"", ""point_of_interest"", ""shopping_mall""]",1.314918,103.7643089,True
Lim Chu Kang,Lim Chu Kang,shopping,shopping groceries malls supermarkets markets,"shopping groceries malls supermarkets markets near Lim Chu Kang, Lim Chu Kang, Singapore",ChIJn1iEdKQb2jERjI5fTMJ7CSQ,Margaret Market,"38 Margaret Dr, Singapore 141038",4.0,222,"[""establishment"", ""point_of_interest""]",1.2977375,103.8043387,True
Lim Chu Kang,Lim Chu Kang,shopping,shopping groceries malls supermarkets markets,"shopping groceries malls supermarkets markets near Lim Chu Kang, Lim Chu Kang, Singapore",ChIJs5CBlukR2jERTIOWORf5ceI,FairPrice Lot 1 Shoppers' Mall,"21 Choa Chu Kang Avenue 4, #B1-03, Lot, one, Singapore 689812",4.0,1187,"[""establishment"", ""food"", ""grocery_or_supermarket"", ""point_of_interest"", ""store"", ""supermarket""]",1.3852086,103.7449371,True
Lim Chu Kang,Lim Chu Kang,shopping,shopping groceries malls supermarkets markets,"shopping groceries malls supermarkets markets near Lim Chu Kang, Lim Chu Kang, Singapore",ChIJK52N1cUR2jERUTiO_ETnynU,One Holland Village,"7 Holland Vlg Wy, Singapore 275748",4.4,768,"[""establishment"", ""point_of_interest"", ""shopping_mall""]",1.311462,103.7937523,True
Lim Chu Kang,Lim Chu Kang,shopping,shopping groceries malls supermarkets markets,"shopping groceries malls supermarkets markets near Lim Chu Kang, Lim Chu Kang, Singapore",ChIJn-gIK6QZ2jERdYjUlDWvNNc,CS Fresh,"252 N Bridge Rd, #B1-01, Singapore 179103",4.3,1753,"[""establishment"", ""food"", ""grocery_or_supermarket"", ""point_of_interest"", ""restaurant"", ""storage"", ""store"", ""supermarket""]",1.2938879,103.853569,True
Lim Chu Kang,Lim Chu Kang,shopping,shopping groceries malls supermarkets markets,"shopping groceries malls supermarkets markets near Lim Chu Kang, Lim Chu Kang, Singapore",ChIJcdUlky0a2jERHuQ4kJzl9vA,Dawson Place,"57 Dawson Rd, Singapore 142057",3.9,1428,"[""establishment"", ""point_of_interest"", ""shopping_mall""]",1.2926472,103.8107529,True
Lim Chu Kang,Lim Chu Kang,shopping,shopping groceries malls supermarkets markets,"shopping groceries malls supermarkets markets near Lim Chu Kang, Lim Chu Kang, Singapore",ChIJM7Kvx3QZ2jER7umUFjan98g,Fajar Shopping Centre,"445 Fajar Rd, Singapore 670445",3.8,1833,"[""establishment"", ""point_of_interest"", ""shopping_mall""]",1.3838672,103.7705214,True
Lim Chu Kang,Lim Chu Kang,shopping,shopping groceries malls supermarkets markets,"shopping groceries malls supermarkets markets near Lim Chu Kang, Lim Chu Kang, Singapore",ChIJp0JVlEIa2jER9lM6m1VP3S0,CS Fresh The Star Vista,"1 Vista Exchange Green #B1-02&35/36, The Star Vista, Singapore 138617",3.9,401,"[""establishment"", ""food"", ""grocery_or_supermarket"", ""point_of_interest"", ""storage"", ""store"", ""supermarket""]",1.3068384,103.7879216,True
Lim Chu Kang,Lim Chu Kang,shopping,shopping groceries malls supermarkets markets,"shopping groceries malls supermarkets markets near Lim Chu Kang, Lim Chu Kang, Singapore",ChIJxzbY1z4Q2jER7drH__TXbOI,West Mall,"1 Bukit Batok Central, Singapore 658713",4.1,7541,"[""establishment"", ""point_of_interest"", ""shopping_mall""]",1.3500565,103.749223,True
Lim Chu Kang,Lim Chu Kang,shopping,shopping groceries malls supermarkets markets,"shopping groceries malls supermarkets markets near Lim Chu Kang, Lim Chu Kang, Singapore",ChIJU5KbYb8R2jERt0l-XxTMFgI,Teck Whye Shopping Centre,"145 Teck Whye Ave, Singapore 680145",4.1,987,"[""establishment"", ""point_of_interest"", ""shopping_mall""]",1.3811374,103.7523181,True
Lim Chu Kang,Lim Chu Kang,shopping,shopping groceries malls supermarkets markets,"shopping groceries malls supermarkets markets near Lim Chu Kang, Lim Chu Kang, Singapore",ChIJTyWXW4EZ2jERvzrznx6-XSc,"Little Farms Market, Valley Point (Grocery store)","491 River Valley Rd, #01-20, Singapore 248371",4.5,862,"[""establishment"", ""food"", ""grocery_or_supermarket"", ""point_of_interest"", ""store""]",1.2931219,103.8269124,True
Lim Chu Kang,Lim Chu Kang,shopping,shopping groceries malls supermarkets markets,"shopping groceries malls supermarkets markets near Lim Chu Kang, Lim Chu Kang, Singapore",ChIJ91hVlEIa2jERm_cxYZ2WKow,The Star Vista,"1 Vista Exchange Grn, Singapore 138617",4.3,9041,"[""establishment"", ""point_of_interest"", ""shopping_mall""]",1.3068072,103.7883997,True
Lim Chu Kang,Lim Chu Kang,shopping,shopping groceries malls supermarkets markets,"shopping groceries malls supermarkets markets near Lim Chu Kang, Lim Chu Kang, Singapore",ChIJnV4ZVGoa2jERtOxCkkl9xvA,CS Fresh @ Holland Shopping Centre,"211 Holland Ave, #01-02,04,05 Holland Shopping Ctr, Singapore 278967",4.1,734,"[""establishment"", ""food"", ""grocery_or_supermarket"", ""point_of_interest"", ""store"", ""supermarket""]",1.3101604,103.7954036,True
Lim Chu Kang,Lim Chu Kang,shopping,shopping groceries malls supermarkets markets,"shopping groceries malls supermarkets markets near Lim Chu Kang, Lim Chu Kang, Singapore",ChIJu3mTX4MZ2jERLCptOU3zEXQ,CS Fresh Great World,"1 Kim Seng Promenade, #B1 - 139, Singapore 237994",4.2,1115,"[""establishment"", ""food"", ""grocery_or_supermarket"", ""point_of_interest"", ""store"", ""supermarket""]",1.2942052,103.8319203,True
Lim Chu Kang,Lim Chu Kang,shopping,shopping groceries malls supermarkets markets,"shopping groceries malls supermarkets markets near Lim Chu Kang, Lim Chu Kang, Singapore",ChIJl_sOMpIZ2jERxxBnQVJpECQ,CS Fresh Gold Paragon,"290 Orchard Rd, B1-21/22 Paragon, Singapore 238859",4.3,926,"[""establishment"", ""food"", ""grocery_or_supermarket"", ""point_of_interest"", ""store"", ""supermarket""]",1.3036312,103.835694,True
Lim Chu Kang,Lim Chu Kang,recreation,recreation sports gyms swimming community clubs,"recreation sports gyms swimming community clubs near Lim Chu Kang, Lim Chu Kang, Singapore",ChIJ_WX9ue0R2jER865IJyACAoc,Choa Chu Kang Sport Centre,"1 Choa Chu Kang Street 53, Singapore 689236",4.2,959,"[""establishment"", ""gym"", ""health"", ""point_of_interest"", ""stadium""]",1.3910172,103.7482599,True
Lim Chu Kang,Lim Chu Kang,recreation,recreation sports gyms swimming community clubs,"recreation sports gyms swimming community clubs near Lim Chu Kang, Lim Chu Kang, Singapore",ChIJVVVVVegR2jER_ncZsSw8hfM,Keat Hong Community Club,"2 Choa Chu Kang Loop, #01-01, Singapore 689687",4.2,1115,"[""establishment"", ""point_of_interest""]",1.3841444,103.744825,True
Lim Chu Kang,Lim Chu Kang,recreation,recreation sports gyms swimming community clubs,"recreation sports gyms swimming community clubs near Lim Chu Kang, Lim Chu Kang, Singapore",ChIJIdyPkIUR2jERwkOgru1y51Q,SAFRA Choa Chu Kang,"28 Choa Chu Kang Dr, Singapore 689964",4.4,720,"[""establishment"", ""point_of_interest""]",1.3884349,103.7471938,True
Lim Chu Kang,Lim Chu Kang,recreation,recreation sports gyms swimming community clubs,"recreation sports gyms swimming community clubs near Lim Chu Kang, Lim Chu Kang, Singapore",ChIJ_WX9ue0R2jERj69SXrt_lJU,Choa Chu Kang Swimming Complex (The Swimming Place),"1 Choa Chu Kang Street 53, Singapore 689236",4.2,79,"[""establishment"", ""health"", ""point_of_interest"", ""school""]",1.390985,103.748067,True
Lim Chu Kang,Lim Chu Kang,recreation,recreation sports gyms swimming community clubs,"recreation sports gyms swimming community clubs near Lim Chu Kang, Lim Chu Kang, Singapore",ChIJs45bbr0R2jERwByR91EdWqw,Senja-Cashew Community Club,"101 Bukit Panjang Rd, Singapore 679910",4.3,1262,"[""establishment"", ""point_of_interest""]",1.381403,103.764651,True
Lim Chu Kang,Lim Chu Kang,recreation,recreation sports gyms swimming community clubs,"recreation sports gyms swimming community clubs near Lim Chu Kang, Lim Chu Kang, Singapore",ChIJi0DYQ5UW2jERn0N6cT87w7U,Yio Chu Kang Sports And Recreation Centre,"214 Ang Mo Kio Ave 9, Singapore 569780",5.0,5,"[""establishment"", ""point_of_interest""]",1.383762,103.845894,True
Lim Chu Kang,Lim Chu Kang,recreation,recreation sports gyms swimming community clubs,"recreation sports gyms swimming community clubs near Lim Chu Kang, Lim Chu Kang, Singapore",ChIJ8yMt54sQ2jERjBRZb9swlqY,Temasek Club,"131 Rifle Range Rd, Singapore 588406",4.3,1464,"[""establishment"", ""point_of_interest""]",1.3463976,103.7805251,True
Lim Chu Kang,Lim Chu Kang,recreation,recreation sports gyms swimming community clubs,"recreation sports gyms swimming community clubs near Lim Chu Kang, Lim Chu Kang, Singapore",ChIJ2cCNCFga2jER5JmIg6WzSNk,University Sports Centre,"2 Sports Dr., Singapore 117288",4.5,114,"[""establishment"", ""gym"", ""health"", ""point_of_interest""]",1.2997617,103.7754896,True
Lim Chu Kang,Lim Chu Kang,recreation,recreation sports gyms swimming community clubs,"recreation sports gyms swimming community clubs near Lim Chu Kang, Lim Chu Kang, Singapore",ChIJV5hnA6wT2jERqD4CwNu0SpM,Woodlands Sport Centre,"2 Woodlands Street 12, Singapore 738599",4.1,2050,"[""establishment"", ""gym"", ""health"", ""point_of_interest"", ""stadium""]",1.434104,103.779798,True
Lim Chu Kang,Lim Chu Kang,recreation,recreation sports gyms swimming community clubs,"recreation sports gyms swimming community clubs near Lim Chu Kang, Lim Chu Kang, Singapore",ChIJ6QxOt-oW2jERzmxWitxvwMM,Yio Chu Kang ActiveSG Gym,"200 Ang Mo Kio Ave 9, Singapore 569770",4.1,553,"[""establishment"", ""gym"", ""health"", ""point_of_interest""]",1.3822319,103.845925,True
Lim Chu Kang,Lim Chu Kang,recreation,recreation sports gyms swimming community clubs,"recreation sports gyms swimming community clubs near Lim Chu Kang, Lim Chu Kang, Singapore",ChIJ2XCvCiAQ2jERNcw38Db6v5w,Jurong East Sport Centre,"21 Jurong East Street 31, Singapore 609517",4.2,968,"[""establishment"", ""point_of_interest""]",1.346998,103.729109,True
Lim Chu Kang,Lim Chu Kang,recreation,recreation sports gyms swimming community clubs,"recreation sports gyms swimming community clubs near Lim Chu Kang, Lim Chu Kang, Singapore",ChIJdZqloOcW2jERfOq0MTBjb20,ActiveSG Sport Park @ Teck Ghee Swimming Complex,"1771 Ang Mo Kio Ave 1, Singapore 569978",4.0,493,"[""establishment"", ""point_of_interest""]",1.3632171,103.8499216,True
Lim Chu Kang,Lim Chu Kang,recreation,recreation sports gyms swimming community clubs,"recreation sports gyms swimming community clubs near Lim Chu Kang, Lim Chu Kang, Singapore",ChIJ7UrY8HMW2jER3ouFYG5edII,Sengkang Sport Centre,"57 Anchorvale Rd, Singapore 544964",4.3,2363,"[""establishment"", ""gym"", ""health"", ""point_of_interest""]",1.3967848,103.886901,True
Lim Chu Kang,Lim Chu Kang,recreation,recreation sports gyms swimming community clubs,"recreation sports gyms swimming community clubs near Lim Chu Kang, Lim Chu Kang, Singapore",ChIJEwW7gpoP2jER4o0mrMTZddM,Jurong West Sport Centre,"20 Jurong West Street 93, Singapore 648965",4.3,1868,"[""establishment"", ""point_of_interest""]",1.3378059,103.6941925,True
Lim Chu Kang,Lim Chu Kang,recreation,recreation sports gyms swimming community clubs,"recreation sports gyms swimming community clubs near Lim Chu Kang, Lim Chu Kang, Singapore",ChIJqQr7ofER2jERH_EFPnj1qC4,Yew Tee Community Club,"20 Choa Chu Kang Street 52, #01-01 Yew Tee Community Building, Singapore 689286",4.2,778,"[""establishment"", ""point_of_interest""]",1.3948528,103.7447108,True
Lim Chu Kang,Lim Chu Kang,recreation,recreation sports gyms swimming community clubs,"recreation sports gyms swimming community clubs near Lim Chu Kang, Lim Chu Kang, Singapore",ChIJkeX4YFsa2jERDRq9DzW0FHI,ACJC Sports Complex,"25 Dover Cl E, Singapore 139745",4.1,51,"[""establishment"", ""point_of_interest""]",1.301924,103.7863617,True
Lim Chu Kang,Lim Chu Kang,recreation,recreation sports gyms swimming community clubs,"recreation sports gyms swimming community clubs near Lim Chu Kang, Lim Chu Kang, Singapore",ChIJOZIFa34Z2jERL9_IhYLjUH4,Henderson Community Club,"500 Bukit Merah Vw, Singapore 159682",4.1,352,"[""establishment"", ""point_of_interest""]",1.2858271,103.823121,True
Lim Chu Kang,Lim Chu Kang,recreation,recreation sports gyms swimming community clubs,"recreation sports gyms swimming community clubs near Lim Chu Kang, Lim Chu Kang, Singapore",ChIJ0S3wSmoa2jER2aq7I8gFiy0,Buona Vista Community Club,"36 Holland Dr, Singapore 270036",4.2,1126,"[""establishment"", ""point_of_interest""]",1.3094603,103.7926982,True
Lim Chu Kang,Lim Chu Kang,recreation,recreation sports gyms swimming community clubs,"recreation sports gyms swimming community clubs near Lim Chu Kang, Lim Chu Kang, Singapore",ChIJ17LH7yQa2jERCv057-MyTfY,SWISH Swimming,"72 Loewen Rd, #01-08, Singapore 248848",4.7,181,"[""establishment"", ""point_of_interest""]",1.3016157,103.8121813,True
Lim Chu Kang,Lim Chu Kang,recreation,recreation sports gyms swimming community clubs,"recreation sports gyms swimming community clubs near Lim Chu Kang, Lim Chu Kang, Singapore",ChIJcywD4FUW2jER6hZ-wPYnH4I,Swimfast Aquatic,"11 Blackmore Dr, Methodist Girls' School Sports Complex, Singapore 599986",4.2,30,"[""establishment"", ""point_of_interest""]",1.3316333,103.7841023,True
Lim Chu Kang,Lim Chu Kang,nature,parks gardens nature waterfront park connectors,"parks gardens nature waterfront park connectors near Lim Chu Kang, Lim Chu Kang, Singapore",ChIJi090zPwS2jERiJCqFWoP8Z4,Woodlands Waterfront Park,"Admiralty Rd W, Singapore 759956",4.5,3993,"[""establishment"", ""park"", ""point_of_interest"", ""tourist_attraction""]",1.4530529,103.7804801,True
Lim Chu Kang,Lim Chu Kang,nature,parks gardens nature waterfront park connectors,"parks gardens nature waterfront park connectors near Lim Chu Kang, Lim Chu Kang, Singapore",ChIJRzglD-wR2jERgCmyEeAecXI,Choa Chu Kang Park,"Choa Chu Kang Dr, Singapore 688845",4.3,1912,"[""establishment"", ""park"", ""point_of_interest"", ""tourist_attraction""]",1.3874864,103.7474293,True
Lim Chu Kang,Lim Chu Kang,nature,parks gardens nature waterfront park connectors,"parks gardens nature waterfront park connectors near Lim Chu Kang, Lim Chu Kang, Singapore",ChIJied_ZdIT2jERfFB2io7NbV0,Central Catchment Park Connector,"Mandai Rd, Singapore",4.5,547,"[""establishment"", ""point_of_interest""]",1.4105867,103.7783568,True
Lim Chu Kang,Lim Chu Kang,nature,parks gardens nature waterfront park connectors,"parks gardens nature waterfront park connectors near Lim Chu Kang, Lim Chu Kang, Singapore",ChIJ4QhPDSMT2jER-K6cnYYSNZw,Ulu Sembawang Park Connector,"403R Jln Ulu Sembawang, Singapore 779563",4.4,108,"[""establishment"", ""park"", ""point_of_interest""]",1.422046,103.7928186,True
Lim Chu Kang,Lim Chu Kang,nature,parks gardens nature waterfront park connectors,"parks gardens nature waterfront park connectors near Lim Chu Kang, Lim Chu Kang, Singapore",ChIJ0ZnzsXUW2jER9IrUeleR7To,Sengkang Riverside Park,"Anchorvale Street, Singapore 544834",4.4,2243,"[""establishment"", ""park"", ""point_of_interest"", ""tourist_attraction""]",1.3993143,103.8848743,True
Lim Chu Kang,Lim Chu Kang,nature,parks gardens nature waterfront park connectors,"parks gardens nature waterfront park connectors near Lim Chu Kang, Lim Chu Kang, Singapore",ChIJq_5RjPUQ2jERQZR7bzih7tw,Hindhede Nature Park,"Hindhede Dr, Singapore",4.5,970,"[""establishment"", ""park"", ""point_of_interest"", ""tourist_attraction""]",1.3491093,103.7754308,True
Lim Chu Kang,Lim Chu Kang,nature,parks gardens nature waterfront park connectors,"parks gardens nature waterfront park connectors near Lim Chu Kang, Lim Chu Kang, Singapore",ChIJxZwgg1kZ2jERfsCcuEg0JC4,Kallang Park Connector,"998 Bendemeer Rd, Singapore 339945",4.4,119,"[""establishment"", ""park"", ""point_of_interest""]",1.3221012,103.8676558,True
Lim Chu Kang,Lim Chu Kang,nature,parks gardens nature waterfront park connectors,"parks gardens nature waterfront park connectors near Lim Chu Kang, Lim Chu Kang, Singapore",ChIJY_QLO-0R2jERfZxPsXwtQuQ,Villa Verde Park,"Junction of Choa Chu Kang North 5 and, Stagmont Ring, Singapore 688704",4.3,288,"[""establishment"", ""park"", ""point_of_interest"", ""tourist_attraction""]",1.3932109,103.7521356,True
Lim Chu Kang,Lim Chu Kang,nature,parks gardens nature waterfront park connectors,"parks gardens nature waterfront park connectors near Lim Chu Kang, Lim Chu Kang, Singapore",ChIJ_6g8kisX2jERaGrSixd_xbM,Windsor Nature Park,"30 Venus Dr, Singapore 573858",4.6,1759,"[""establishment"", ""park"", ""point_of_interest"", ""tourist_attraction""]",1.3566265,103.8214319,True
Lim Chu Kang,Lim Chu Kang,nature,parks gardens nature waterfront park connectors,"parks gardens nature waterfront park connectors near Lim Chu Kang, Lim Chu Kang, Singapore",ChIJpe5vTGYV2jEReK-nqDGW0JI,Hampstead Wetlands Park,"1 Baker St, Singapore 799977",4.3,381,"[""establishment"", ""park"", ""point_of_interest""]",1.4094026,103.8693039,True
Lim Chu Kang,Lim Chu Kang,nature,parks gardens nature waterfront park connectors,"parks gardens nature waterfront park connectors near Lim Chu Kang, Lim Chu Kang, Singapore",ChIJ____rBoU2jERyE5AP5-iwrc,Lower Seletar Reservoir Park,"Yishun Ave 1, Lower Seletar Reservoir Park, Singapore 769139",4.5,2534,"[""establishment"", ""park"", ""point_of_interest"", ""tourist_attraction""]",1.4101641,103.8324319,True
Lim Chu Kang,Lim Chu Kang,nature,parks gardens nature waterfront park connectors,"parks gardens nature waterfront park connectors near Lim Chu Kang, Lim Chu Kang, Singapore",ChIJe0cEPoIS2jERs_rS2qvGOxw,Sungei Buloh Wetland Reserve,"301 Neo Tiew Cres, Singapore 718925",4.6,4695,"[""establishment"", ""park"", ""point_of_interest"", ""tourist_attraction""]",1.4464304,103.723404,True
Lim Chu Kang,Lim Chu Kang,nature,parks gardens nature waterfront park connectors,"parks gardens nature waterfront park connectors near Lim Chu Kang, Lim Chu Kang, Singapore",ChIJMxZeJ5sT2jERG3KCuLiIsjw,Woodlands Park Connector (SLE),Singapore,4.7,9,"[""establishment"", ""park"", ""point_of_interest""]",1.4254469,103.7905053,True
Lim Chu Kang,Lim Chu Kang,nature,parks gardens nature waterfront park connectors,"parks gardens nature waterfront park connectors near Lim Chu Kang, Lim Chu Kang, Singapore",ChIJn_BWwVUS2jERyHkVTD_-_vw,Marsiling Park,"Woodlands Centre Rd, Singapore 738930",4.2,1911,"[""establishment"", ""park"", ""point_of_interest"", ""tourist_attraction""]",1.4378367,103.7699507,True
Lim Chu Kang,Lim Chu Kang,nature,parks gardens nature waterfront park connectors,"parks gardens nature waterfront park connectors near Lim Chu Kang, Lim Chu Kang, Singapore",ChIJJeg_k0oY2jER3tyt8xkYb9M,Kallang Riverside Park,"Cnr Kallang Road and, Crawford St, Singapore 397732",4.5,1505,"[""establishment"", ""park"", ""point_of_interest"", ""tourist_attraction""]",1.3070353,103.8682849,True
Lim Chu Kang,Lim Chu Kang,nature,parks gardens nature waterfront park connectors,"parks gardens nature waterfront park connectors near Lim Chu Kang, Lim Chu Kang, Singapore",ChIJW08LC5oU2jER6b7cHRVBP6Q,Simpang Kiri Park Connector,"Sembawang Rd, Singapore 758495",4.4,153,"[""establishment"", ""park"", ""point_of_interest"", ""tourist_attraction""]",1.4529108,103.8324722,True
Lim Chu Kang,Lim Chu Kang,nature,parks gardens nature waterfront park connectors,"parks gardens nature waterfront park connectors near Lim Chu Kang, Lim Chu Kang, Singapore",ChIJ7WfiXu4R2jERSN3bZdGEu6Y,Limbang Park,"784 Choa Chu Kang Dr, Singapore 680784",4.2,435,"[""establishment"", ""park"", ""point_of_interest"", ""tourist_attraction""]",1.3904711,103.7446489,True
Lim Chu Kang,Lim Chu Kang,nature,parks gardens nature waterfront park connectors,"parks gardens nature waterfront park connectors near Lim Chu Kang, Lim Chu Kang, Singapore",ChIJVSYjJKIZ2jERpRFinATD52s,Fort Canning Park,Singapore,4.6,11944,"[""establishment"", ""park"", ""point_of_interest"", ""tourist_attraction""]",1.2943876,103.8458033,True
Lim Chu Kang,Lim Chu Kang,nature,parks gardens nature waterfront park connectors,"parks gardens nature waterfront park connectors near Lim Chu Kang, Lim Chu Kang, Singapore",ChIJ__8_JqUb2jERpXwPzz-poks,Pasir Panjang Park,"121 Pasir Panjang Rd, Singapore 118543",3.9,16,"[""establishment"", ""park"", ""point_of_interest""]",1.2777905,103.7861067,True
Lim Chu Kang,Lim Chu Kang,nature,parks gardens nature waterfront park connectors,"parks gardens nature waterfront park connectors near Lim Chu Kang, Lim Chu Kang, Singapore",ChIJf1E8XmEa2jERBSAZgsPdXo4,Ulu Pandan Park Connector (Dover),"Ulu Pandan Park Connector, Singapore",4.3,43,"[""establishment"", ""point_of_interest""]",1.3126465,103.7796679,True
