planning_area,subzone,poi_dimension,place_query_type,search_query,place_id,place_name,formatted_address,rating,user_ratings_total,types,lat,lng,need_reviews
Central Water Catchment,Central Water Catchment,education,education facilities schools childcare libraries,"education facilities schools childcare libraries near Central Water Catchment, Central Water Catchment, Singapore",ChIJcaOg62wU2jERB6GKt4ELsEA,Nee Soon Central Community Children's Library,"644 Yishun Street 61, Singapore 760644",5.0,1,"[""establishment"", ""library"", ""point_of_interest""]",1.4217439,103.8373836,True
Central Water Catchment,Central Water Catchment,education,education facilities schools childcare libraries,"education facilities schools childcare libraries near Central Water Catchment, Central Water Catchment, Singapore",ChIJBYGvEQAV2jER6vbbOEyIvVk,Play & Learn Community library corner,"137 Yishun Ring Rd, Singapore 760137",,0,"[""establishment"", ""library"", ""point_of_interest""]",1.4320036,103.8300215,True
Central Water Catchment,Central Water Catchment,education,education facilities schools childcare libraries,"education facilities schools childcare libraries near Central Water Catchment, Central Water Catchment, Singapore",ChIJ2739TgoP2jERlpS4Fef772Y,Library and Information Services Centre (NIE),"1 Nanyang Walk, Singapore 637616",4.6,28,"[""establishment"", ""library"", ""point_of_interest""]",1.348661,103.677635,True
Central Water Catchment,Central Water Catchment,education,education facilities schools childcare libraries,"education facilities schools childcare libraries near Central Water Catchment, Central Water Catchment, Singapore",ChIJoYeYhwga2jERj3zUHj2k3d4,Lian Wah Library,"609A Bukit Timah Rd, Singapore 269711",5.0,2,"[""establishment"", ""point_of_interest""]",1.3243861,103.8095032,True
Central Water Catchment,Central Water Catchment,education,education facilities schools childcare libraries,"education facilities schools childcare libraries near Central Water Catchment, Central Water Catchment, Singapore",ChIJtytWhSYX2jERE5pYBPyYhAA,Mulberry Learning @ Braddell,"1 Lor 2 Toa Payoh, #01-02/03/04, Singapore 319637",4.7,76,"[""establishment"", ""point_of_interest"", ""school""]",1.3402113,103.8474403,True
Central Water Catchment,Central Water Catchment,education,education facilities schools childcare libraries,"education facilities schools childcare libraries near Central Water Catchment, Central Water Catchment, Singapore",ChIJ1fYfwGAa2jERy7f1JLymou0,SP - Library & FabLab,"500 Dover Rd, Singapore 139651",4.2,34,"[""establishment"", ""library"", ""point_of_interest""]",1.3087569,103.7799417,True
Central Water Catchment,Central Water Catchment,education,education facilities schools childcare libraries,"education facilities schools childcare libraries near Central Water Catchment, Central Water Catchment, Singapore",ChIJTXdxQk4b2jER4HdHnRNjvLY,HV Little Library,"2 Holland Ave, Block 2, Singapore 271002",4.9,64,"[""establishment"", ""library"", ""point_of_interest""]",1.3095115,103.7956789,True
Central Water Catchment,Central Water Catchment,education,education facilities schools childcare libraries,"education facilities schools childcare libraries near Central Water Catchment, Central Water Catchment, Singapore",ChIJ5-Dtl-kR2jERllI9-1NpYVY,Choa Chu Kang Library,"21 Choa Chu Kang Avenue 4 #04-01/02 and #05-06, Lot One Shopper’s Mall, Singapore 689812",4.3,280,"[""establishment"", ""library"", ""point_of_interest""]",1.384977,103.7452205,True
Central Water Catchment,Central Water Catchment,education,education facilities schools childcare libraries,"education facilities schools childcare libraries near Central Water Catchment, Central Water Catchment, Singapore",ChIJq93ndYcQ2jERjHV_c00fWVM,Lien Ying Chow Library,"535 Clementi Rd, #02-01, Singapore 599489",4.5,12,"[""establishment"", ""library"", ""point_of_interest""]",1.3337072,103.7767791,True
Central Water Catchment,Central Water Catchment,education,education facilities schools childcare libraries,"education facilities schools childcare libraries near Central Water Catchment, Central Water Catchment, Singapore",ChIJ_yBIIRQX2jERvEDz9aXhFoU,Bishan Library,"5 Bishan Pl, #01-01, Singapore 579841",4.4,470,"[""establishment"", ""library"", ""point_of_interest""]",1.3498471,103.8487828,True
Central Water Catchment,Central Water Catchment,education,education facilities schools childcare libraries,"education facilities schools childcare libraries near Central Water Catchment, Central Water Catchment, Singapore",ChIJgSLBhIAQ2jER03pM4hD-5EY,Tay Eng Soon Library,"535A Clementi Rd, Singapore 599490 Clementi Rd, Singapore 599490",4.4,7,"[""establishment"", ""library"", ""point_of_interest""]",1.3298003,103.7757296,True
Central Water Catchment,Central Water Catchment,education,education facilities schools childcare libraries,"education facilities schools childcare libraries near Central Water Catchment, Central Water Catchment, Singapore",ChIJ-cuboDAa2jERf6hKqh96UC0,Queenstown Library,"53 Margaret Dr, Singapore 149297",4.6,422,"[""establishment"", ""library"", ""point_of_interest""]",1.2986449,103.8051823,True
Central Water Catchment,Central Water Catchment,education,education facilities schools childcare libraries,"education facilities schools childcare libraries near Central Water Catchment, Central Water Catchment, Singapore",ChIJKaGsJKUZ2jERxa8yhKrdPfI,National Library / Lee Kong Chian Reference Library,"100 Victoria St, Singapore 188064",4.6,1765,"[""establishment"", ""library"", ""point_of_interest""]",1.2975884,103.8543081,True
Central Water Catchment,Central Water Catchment,education,education facilities schools childcare libraries,"education facilities schools childcare libraries near Central Water Catchment, Central Water Catchment, Singapore",ChIJ77M1mP4a2jERRfwA553Qz3E,NUS Central Library,"12 Kent Ridge Cres, Singapore 119275",4.6,166,"[""establishment"", ""library"", ""point_of_interest""]",1.2965182,103.773145,True
Central Water Catchment,Central Water Catchment,education,education facilities schools childcare libraries,"education facilities schools childcare libraries near Central Water Catchment, Central Water Catchment, Singapore",ChIJt-9Ofd8b2jER7ZMceh6D-HE,Learning Vision National University Health System,"1 Lower Kent Ridge Rd, #07-01 One @ Kent Ridge, Singapore 119082",5.0,55,"[""establishment"", ""point_of_interest"", ""school""]",1.2934298,103.7845351,True
Central Water Catchment,Central Water Catchment,education,education facilities schools childcare libraries,"education facilities schools childcare libraries near Central Water Catchment, Central Water Catchment, Singapore",ChIJ____L-gW2jERhNi3iyGZ39w,Ang Mo Kio Library,"4300 Ang Mo Kio Ave 6, Singapore 569842",4.5,358,"[""establishment"", ""library"", ""point_of_interest""]",1.3748331,103.845503,True
Central Water Catchment,Central Water Catchment,education,education facilities schools childcare libraries,"education facilities schools childcare libraries near Central Water Catchment, Central Water Catchment, Singapore",ChIJJfVEO6UZ2jERq7ZasSTiEgg,Central Library,"100 Victoria St, #B1-01 National Library / Lee Kong Chian Reference Library, Singapore 188064",4.5,299,"[""establishment"", ""library"", ""point_of_interest""]",1.2977181,103.8543361,True
Central Water Catchment,Central Water Catchment,education,education facilities schools childcare libraries,"education facilities schools childcare libraries near Central Water Catchment, Central Water Catchment, Singapore",ChIJhxwQemAQ2jERIa25D_wHdIE,EtonHouse Pre-School Upper Bukit Timah,"215 Upper Bukit Timah Rd, Singapore 588184",4.8,21,"[""establishment"", ""point_of_interest"", ""school""]",1.3454541,103.7729589,True
Central Water Catchment,Central Water Catchment,education,education facilities schools childcare libraries,"education facilities schools childcare libraries near Central Water Catchment, Central Water Catchment, Singapore",ChIJL2b6iToa2jERLPjNN7hKfIE,Children's Cove Preschool,"58 Jln Penjara, Singapore 149382",4.7,103,"[""establishment"", ""point_of_interest"", ""school""]",1.2993345,103.8071035,True
Central Water Catchment,Central Water Catchment,education,education facilities schools childcare libraries,"education facilities schools childcare libraries near Central Water Catchment, Central Water Catchment, Singapore",ChIJp4_y7ccR2jERSt3nPw7Te_E,Little Footprints Preschool @ ITE West,"1 Choa Chu Kang Grv, Singapore 688236",4.9,44,"[""establishment"", ""point_of_interest"", ""school""]",1.3760208,103.752942,True
Central Water Catchment,Central Water Catchment,transport,public transport MRT LRT bus stops,"public transport MRT LRT bus stops near Central Water Catchment, Central Water Catchment, Singapore",ChIJSXJr3nEb2jER8xIUcWZhtEU,Tan Kah Kee,"SG, Bukit Timah Rd, #651, Singapore 266268",4.3,10,"[""establishment"", ""point_of_interest"", ""transit_station""]",1.325739,103.8076251,True
Central Water Catchment,Central Water Catchment,transport,public transport MRT LRT bus stops,"public transport MRT LRT bus stops near Central Water Catchment, Central Water Catchment, Singapore",ChIJt4dBe0MX2jERv_W35iW_eSA,Caldecott,Singapore,4.5,1116,"[""establishment"", ""point_of_interest"", ""subway_station"", ""transit_station""]",1.3376835,103.8395013,True
Central Water Catchment,Central Water Catchment,transport,public transport MRT LRT bus stops,"public transport MRT LRT bus stops near Central Water Catchment, Central Water Catchment, Singapore",ChIJhY0kWUca2jERcQr3RFss0Fg,Commonwealth,"375 Commonwealth Ave, Singapore 149735",4.3,464,"[""establishment"", ""point_of_interest"", ""subway_station"", ""transit_station""]",1.3023957,103.7983157,True
Central Water Catchment,Central Water Catchment,transport,public transport MRT LRT bus stops,"public transport MRT LRT bus stops near Central Water Catchment, Central Water Catchment, Singapore",ChIJLx_5BlMQ2jERt2UkMupEcTQ,Hillview Stn Exit B,Singapore,4.5,21,"[""bus_station"", ""establishment"", ""point_of_interest"", ""transit_station""]",1.3630566,103.7673821,True
Central Water Catchment,Central Water Catchment,transport,public transport MRT LRT bus stops,"public transport MRT LRT bus stops near Central Water Catchment, Central Water Catchment, Singapore",ChIJi9J7UkUa2jEREUidaQaWpMU,One-North,"Ayer Rajah Ave, Singapore 138647",4.4,316,"[""establishment"", ""point_of_interest"", ""subway_station"", ""transit_station""]",1.2998113,103.7875947,True
Central Water Catchment,Central Water Catchment,transport,public transport MRT LRT bus stops,"public transport MRT LRT bus stops near Central Water Catchment, Central Water Catchment, Singapore",ChIJazeuVI0Z2jERKCPoqpySt7Y,Bugis MRT Station (DT14),"191 Rochor Rd, Singapore 188476",4.3,128,"[""establishment"", ""point_of_interest"", ""transit_station""]",1.2993293,103.8570591,True
Central Water Catchment,Central Water Catchment,transport,public transport MRT LRT bus stops,"public transport MRT LRT bus stops near Central Water Catchment, Central Water Catchment, Singapore",ChIJh8lIEK4R2jERJD9YhuWqmYQ,Cashew MRT Station (Downtown Line),"10 Cashew Rd, Singapore 679692",3.9,35,"[""establishment"", ""point_of_interest"", ""subway_station"", ""transit_station""]",1.3701315,103.7644218,True
Central Water Catchment,Central Water Catchment,transport,public transport MRT LRT bus stops,"public transport MRT LRT bus stops near Central Water Catchment, Central Water Catchment, Singapore",ChIJ7dAREI4Z2jER0CyUuf6FKvU,Orchard Stn Exit 13,Singapore,3.9,16,"[""bus_station"", ""establishment"", ""point_of_interest"", ""transit_station""]",1.3024846,103.8324375,True
Central Water Catchment,Central Water Catchment,transport,public transport MRT LRT bus stops,"public transport MRT LRT bus stops near Central Water Catchment, Central Water Catchment, Singapore",ChIJTxgf4okQ2jERsmWa3JLQ2hQ,Beauty World Stn Exit C,Singapore,4.2,19,"[""establishment"", ""point_of_interest"", ""transit_station""]",1.340093,103.775322,True
Central Water Catchment,Central Water Catchment,transport,public transport MRT LRT bus stops,"public transport MRT LRT bus stops near Central Water Catchment, Central Water Catchment, Singapore",ChIJld0CCLYZ2jERaWiRhOmdwxs,Lavender Stn Exit B,Singapore,4.5,15,"[""bus_station"", ""establishment"", ""point_of_interest"", ""transit_station""]",1.3071782,103.8622749,True
Central Water Catchment,Central Water Catchment,transport,public transport MRT LRT bus stops,"public transport MRT LRT bus stops near Central Water Catchment, Central Water Catchment, Singapore",ChIJQaWtWKYR2jERQbv8oIg7XYo,Pending LRT Station (BP8),"9 Pending Rd, Singapore 678296",4.2,35,"[""establishment"", ""point_of_interest""]",1.3762192,103.7713251,True
Central Water Catchment,Central Water Catchment,transport,public transport MRT LRT bus stops,"public transport MRT LRT bus stops near Central Water Catchment, Central Water Catchment, Singapore",ChIJI4ftDmEa2jERtj1VWjNTNRg,Dover,"200 Commonwealth Ave W, Singapore 138677",4.4,110,"[""establishment"", ""point_of_interest"", ""subway_station"", ""transit_station""]",1.3113849,103.7786069,True
Central Water Catchment,Central Water Catchment,transport,public transport MRT LRT bus stops,"public transport MRT LRT bus stops near Central Water Catchment, Central Water Catchment, Singapore",ChIJIZy2pXQZ2jERLkykYs_kU9E,Chinatown MRT station,Singapore,4.2,122,"[""establishment"", ""point_of_interest"", ""transit_station""]",1.2847875,103.8439312,True
Central Water Catchment,Central Water Catchment,transport,public transport MRT LRT bus stops,"public transport MRT LRT bus stops near Central Water Catchment, Central Water Catchment, Singapore",ChIJp0ROMp8Q2jERKYlWsK7ARrw,Sixth Avenue,"SG, Bukit Timah Rd, 789, Singapore 269763",4.4,175,"[""establishment"", ""point_of_interest"", ""subway_station"", ""transit_station""]",1.3315665,103.7969763,True
Central Water Catchment,Central Water Catchment,transport,public transport MRT LRT bus stops,"public transport MRT LRT bus stops near Central Water Catchment, Central Water Catchment, Singapore",ChIJaQLjpDoX2jERgAsgFIOg73U,Upper Thomson,"1 Jln Keli, Singapore 577937",4.6,433,"[""establishment"", ""point_of_interest"", ""subway_station"", ""transit_station""]",1.3544,103.83292,True
Central Water Catchment,Central Water Catchment,transport,public transport MRT LRT bus stops,"public transport MRT LRT bus stops near Central Water Catchment, Central Water Catchment, Singapore",ChIJ80ix5Gga2jERdXgSC68O6Xs,Ghim Moh Ter,Singapore,4.5,11,"[""establishment"", ""point_of_interest"", ""transit_station""]",1.3110525,103.7893395,True
Central Water Catchment,Central Water Catchment,transport,public transport MRT LRT bus stops,"public transport MRT LRT bus stops near Central Water Catchment, Central Water Catchment, Singapore",ChIJLXDxn7wR2jERI6bdKcYEx2s,Bt Panjang Stn Exit A/LRT,Singapore,4.4,14,"[""establishment"", ""point_of_interest"", ""transit_station""]",1.37863,103.76219,True
Central Water Catchment,Central Water Catchment,transport,public transport MRT LRT bus stops,"public transport MRT LRT bus stops near Central Water Catchment, Central Water Catchment, Singapore",ChIJgdH0REIa2jERnNvlj82_wz8,Buona Vista Stn Exit C,Singapore,4.6,9,"[""establishment"", ""point_of_interest"", ""transit_station""]",1.3064951,103.7905453,True
Central Water Catchment,Central Water Catchment,transport,public transport MRT LRT bus stops,"public transport MRT LRT bus stops near Central Water Catchment, Central Water Catchment, Singapore",ChIJXVswINcb2jERNGuUhIt5Kg4,Bt Merah Int,Singapore,3.5,68,"[""bus_station"", ""establishment"", ""point_of_interest"", ""transit_station""]",1.282102,103.817223,True
Central Water Catchment,Central Water Catchment,transport,public transport MRT LRT bus stops,"public transport MRT LRT bus stops near Central Water Catchment, Central Water Catchment, Singapore",ChIJTz2hSAUT2jERJivA1NGC9cA,Woodlands North,Singapore,4.5,297,"[""establishment"", ""point_of_interest"", ""subway_station"", ""transit_station""]",1.44787,103.7854168,True
Central Water Catchment,Central Water Catchment,food,food dining hawker centres restaurants cafes,"food dining hawker centres restaurants cafes near Central Water Catchment, Central Water Catchment, Singapore",ChIJv4Mk4QYa2jERlGncaOIvpW4,Adam Food Centre,"2 Adam Rd, Singapore 289876",4.2,8188,"[""establishment"", ""food"", ""point_of_interest"", ""restaurant""]",1.3240414,103.8141545,True
Central Water Catchment,Central Water Catchment,food,food dining hawker centres restaurants cafes,"food dining hawker centres restaurants cafes near Central Water Catchment, Central Water Catchment, Singapore",ChIJv9MbPyIb2jERp7XARdxz0hM,Citrus Kitchen,"43 Science Park Rd, #01-09 (Top of the stairs, near Kopi & Tarts, Singapore 117408",4.9,4940,"[""establishment"", ""food"", ""point_of_interest"", ""restaurant""]",1.2881638,103.7830724,True
Central Water Catchment,Central Water Catchment,food,food dining hawker centres restaurants cafes,"food dining hawker centres restaurants cafes near Central Water Catchment, Central Water Catchment, Singapore",ChIJLyVUnQ8R2jERUApgCyTj3Pg,Senja Hawker Centre,"2 Senja Cl, Singapore 677632",4.1,1304,"[""establishment"", ""food"", ""point_of_interest"", ""restaurant""]",1.3870687,103.7607865,True
Central Water Catchment,Central Water Catchment,food,food dining hawker centres restaurants cafes,"food dining hawker centres restaurants cafes near Central Water Catchment, Central Water Catchment, Singapore",ChIJH1HG6tEW2jERGsch7FbDL5g,Sembawang Hills Food Centre,"590 Upper Thomson Rd, Singapore 574419",3.9,2392,"[""establishment"", ""food"", ""point_of_interest"", ""restaurant""]",1.3722883,103.8290075,True
Central Water Catchment,Central Water Catchment,food,food dining hawker centres restaurants cafes,"food dining hawker centres restaurants cafes near Central Water Catchment, Central Water Catchment, Singapore",ChIJVVVVJfka2jERZRl7AeJV__s,The Deck,"11 Computing Dr, Singapore 117416",4.2,800,"[""establishment"", ""food"", ""point_of_interest""]",1.2944284,103.7725623,True
Central Water Catchment,Central Water Catchment,food,food dining hawker centres restaurants cafes,"food dining hawker centres restaurants cafes near Central Water Catchment, Central Water Catchment, Singapore",ChIJ47tv3ncX2jERPhGWkNJoAQY,Gink-Go,"Kiosk Outlet at the Amenities Centre, MacRitchie Reservoir Park Near the public carpark, Singapore 570000",4.6,38,"[""establishment"", ""food"", ""meal_takeaway"", ""point_of_interest"", ""restaurant""]",1.3425132,103.8349472,True
Central Water Catchment,Central Water Catchment,food,food dining hawker centres restaurants cafes,"food dining hawker centres restaurants cafes near Central Water Catchment, Central Water Catchment, Singapore",ChIJ7SUpBGoa2jER31LgG0EuOmk,Holland Drive Market & Food Centre,"44 Holland Dr, Singapore 270044",4.1,3184,"[""establishment"", ""food"", ""point_of_interest"", ""restaurant""]",1.308167,103.7927992,True
Central Water Catchment,Central Water Catchment,food,food dining hawker centres restaurants cafes,"food dining hawker centres restaurants cafes near Central Water Catchment, Central Water Catchment, Singapore",ChIJGc8TpWsa2jERSFrowt5WsTA,Holland Village Market & Food Centre,"1 Lor Mambong, Singapore 277700",4.0,2615,"[""establishment"", ""food"", ""point_of_interest"", ""restaurant""]",1.311087,103.7949113,True
Central Water Catchment,Central Water Catchment,food,food dining hawker centres restaurants cafes,"food dining hawker centres restaurants cafes near Central Water Catchment, Central Water Catchment, Singapore",ChIJ_c6vFoMZ2jERBWATXfBQ7Aw,Zion Riverside Food Centre,"70 Zion Rd, Singapore 247792",4.2,3990,"[""establishment"", ""food"", ""point_of_interest"", ""restaurant""]",1.2924675,103.8313302,True
Central Water Catchment,Central Water Catchment,food,food dining hawker centres restaurants cafes,"food dining hawker centres restaurants cafes near Central Water Catchment, Central Water Catchment, Singapore",ChIJD-HIEdkT2jERTPBGsoeo-dg,Ah Meng Restaurant,"80 Mandai Lake Rd, Singapore Zoo at the Mandai Wildlife Reserve, Singapore 729826",4.1,1160,"[""establishment"", ""food"", ""point_of_interest"", ""restaurant""]",1.4044329,103.7935492,True
Central Water Catchment,Central Water Catchment,food,food dining hawker centres restaurants cafes,"food dining hawker centres restaurants cafes near Central Water Catchment, Central Water Catchment, Singapore",ChIJM8FdohIb2jERCH_Cya1rIfc,Warm Up Cafe @ The Star Vista,"1 Vista Exchange Grn, #02-10/11 The Star Vista, Singapore 138617",4.3,1183,"[""establishment"", ""food"", ""point_of_interest"", ""restaurant""]",1.3069738,103.7884766,True
Central Water Catchment,Central Water Catchment,food,food dining hawker centres restaurants cafes,"food dining hawker centres restaurants cafes near Central Water Catchment, Central Water Catchment, Singapore",ChIJjbH6rj8a2jERFSEXk8L9_wY,Commonwealth Crescent Market,"31 Commonwealth Cres, Singapore 149644",4.1,1355,"[""establishment"", ""food"", ""point_of_interest"", ""restaurant""]",1.3069482,103.800383,True
Central Water Catchment,Central Water Catchment,food,food dining hawker centres restaurants cafes,"food dining hawker centres restaurants cafes near Central Water Catchment, Central Water Catchment, Singapore",ChIJdZupgcsb2jERP1Byeb2I-24,Alexandra Village Food Centre,"120 Bukit Merah Lane 1, Singapore 150120",4.2,6383,"[""establishment"", ""food"", ""point_of_interest"", ""restaurant""]",1.2863397,103.8045184,True
Central Water Catchment,Central Water Catchment,food,food dining hawker centres restaurants cafes,"food dining hawker centres restaurants cafes near Central Water Catchment, Central Water Catchment, Singapore",ChIJWQ8WOgAb2jER807hEn4gYbs,Hawkerlab,"7 Science Park Dr Geneo, 7 Science Park Dr, #01-25 Singapore Science Park 1, Singapore 119316",4.0,30,"[""cafe"", ""establishment"", ""food"", ""point_of_interest"", ""store""]",1.2916281,103.7870664,True
Central Water Catchment,Central Water Catchment,food,food dining hawker centres restaurants cafes,"food dining hawker centres restaurants cafes near Central Water Catchment, Central Water Catchment, Singapore",ChIJlU-o0lAa2jERsCtOzkWINhA,Frontier Canteen,"12 Science Drive 2, Singapore 117549",4.3,1073,"[""establishment"", ""food"", ""point_of_interest""]",1.296425,103.7803638,True
Central Water Catchment,Central Water Catchment,food,food dining hawker centres restaurants cafes,"food dining hawker centres restaurants cafes near Central Water Catchment, Central Water Catchment, Singapore",ChIJ1WlZGHwZ2jERfe0_ZCZKyEA,The Brewing Ground,"406 Joo Chiat Pl, #01-24 The Yards, Singapore 428084",4.5,1031,"[""establishment"", ""food"", ""point_of_interest"", ""restaurant""]",1.3148971,103.9110412,True
Central Water Catchment,Central Water Catchment,food,food dining hawker centres restaurants cafes,"food dining hawker centres restaurants cafes near Central Water Catchment, Central Water Catchment, Singapore",ChIJW_ckeZ0X2jERjwbxr2l8UOo,Ang Mo Kio Central Market & Food Centre,"724 Ang Mo Kio Ave 6, Singapore 560724",4.2,944,"[""establishment"", ""food"", ""point_of_interest"", ""restaurant""]",1.3721841,103.8465592,True
Central Water Catchment,Central Water Catchment,food,food dining hawker centres restaurants cafes,"food dining hawker centres restaurants cafes near Central Water Catchment, Central Water Catchment, Singapore",ChIJOQISFhcY2jERcEPcJ_l2-RI,Haig Road Market & Food Centre,"14 Haig Rd, Singapore 430014",4.1,4350,"[""establishment"", ""food"", ""point_of_interest"", ""restaurant""]",1.3155435,103.895451,True
Central Water Catchment,Central Water Catchment,food,food dining hawker centres restaurants cafes,"food dining hawker centres restaurants cafes near Central Water Catchment, Central Water Catchment, Singapore",ChIJ6b8PEPga2jEROvB27FERork,Central Square Canteen,"31 Lower Kent Ridge Rd, Singapore 119078",3.9,82,"[""establishment"", ""food"", ""point_of_interest""]",1.2984347,103.7752005,True
Central Water Catchment,Central Water Catchment,food,food dining hawker centres restaurants cafes,"food dining hawker centres restaurants cafes near Central Water Catchment, Central Water Catchment, Singapore",ChIJ04DTdbQZ2jERFt4kBQi-E60,Golden Mile Food Centre,"505 Beach Rd, Singapore 199583",4.3,7464,"[""establishment"", ""food"", ""point_of_interest"", ""restaurant""]",1.3030908,103.8639299,True
Central Water Catchment,Central Water Catchment,shopping,shopping groceries malls supermarkets markets,"shopping groceries malls supermarkets markets near Central Water Catchment, Central Water Catchment, Singapore",ChIJHwZEaooQ2jERjDNjTyYRmB4,Giant Supermarket - Beauty World Centre,"144 Upper Bukit Timah Road B1, #01, Singapore 588177",3.7,368,"[""establishment"", ""food"", ""grocery_or_supermarket"", ""point_of_interest"", ""store"", ""supermarket""]",1.3422789,103.7761675,True
Central Water Catchment,Central Water Catchment,shopping,shopping groceries malls supermarkets markets,"shopping groceries malls supermarkets markets near Central Water Catchment, Central Water Catchment, Singapore",ChIJVaxrUIoZ2jER2XUwyAC7Svw,CS Fresh Gold,"163 Tanglin Rd, #B1-101, Singapore 247933",4.4,751,"[""bakery"", ""establishment"", ""food"", ""grocery_or_supermarket"", ""point_of_interest"", ""storage"", ""store"", ""supermarket""]",1.3050717,103.8239546,True
Central Water Catchment,Central Water Catchment,shopping,shopping groceries malls supermarkets markets,"shopping groceries malls supermarkets markets near Central Water Catchment, Central Water Catchment, Singapore",ChIJJ6SpJdwZ2jER3cMcWGFXnTc,"Little Farms Market, Tanglin Mall (Grocery store)","163 Tanglin Rd, #02-136, Singapore 247933",4.6,273,"[""cafe"", ""establishment"", ""food"", ""grocery_or_supermarket"", ""point_of_interest"", ""restaurant"", ""store""]",1.3050246,103.8235685,True
Central Water Catchment,Central Water Catchment,shopping,shopping groceries malls supermarkets markets,"shopping groceries malls supermarkets markets near Central Water Catchment, Central Water Catchment, Singapore",ChIJEwSPa58R2jERsbJaI3W6ac4,Sheng Siong Supermarket,"446A Fajar Rd, #01-01, Singapore 670446",4.3,402,"[""establishment"", ""food"", ""grocery_or_supermarket"", ""point_of_interest"", ""store"", ""supermarket""]",1.3839523,103.7709925,True
Central Water Catchment,Central Water Catchment,shopping,shopping groceries malls supermarkets markets,"shopping groceries malls supermarkets markets near Central Water Catchment, Central Water Catchment, Singapore",ChIJWz9BEugZ2jERMA7c5EUx0I0,CS Fresh,"101 Thomson Rd, #B1 - 52, Singapore 307591",4.1,432,"[""establishment"", ""food"", ""grocery_or_supermarket"", ""point_of_interest"", ""store"", ""supermarket""]",1.3167768,103.8436044,True
Central Water Catchment,Central Water Catchment,shopping,shopping groceries malls supermarkets markets,"shopping groceries malls supermarkets markets near Central Water Catchment, Central Water Catchment, Singapore",ChIJjaroUzoX2jERdiQfIMYwIQE,Sheng Siong Supermarket,"200, Upper Thomson Road B1-01 Thomson Imperial Court, 200 Upper Thomson Rd, Singapore 574424",4.2,462,"[""establishment"", ""food"", ""grocery_or_supermarket"", ""point_of_interest"", ""store"", ""supermarket""]",1.3515378,103.8360614,True
Central Water Catchment,Central Water Catchment,shopping,shopping groceries malls supermarkets markets,"shopping groceries malls supermarkets markets near Central Water Catchment, Central Water Catchment, Singapore",ChIJfW2Bggga2jERJfYdomPYanQ,FairPrice Finest,"587 Bukit Timah Rd, #01-01 Coronation Shopping Plaza, Singapore 269707",4.0,676,"[""establishment"", ""food"", ""grocery_or_supermarket"", ""point_of_interest"", ""store"", ""supermarket""]",1.3239058,103.8099918,True
Central Water Catchment,Central Water Catchment,shopping,shopping groceries malls supermarkets markets,"shopping groceries malls supermarkets markets near Central Water Catchment, Central Water Catchment, Singapore",ChIJfW57Gp8Z2jERKWQuK59_UW4,CS Fresh @ UE Square,"81 Clemenceau Ave, #02-18 UE Square, Singapore 239917",3.9,287,"[""establishment"", ""food"", ""grocery_or_supermarket"", ""point_of_interest"", ""store"", ""supermarket""]",1.2921204,103.8425444,True
Central Water Catchment,Central Water Catchment,shopping,shopping groceries malls supermarkets markets,"shopping groceries malls supermarkets markets near Central Water Catchment, Central Water Catchment, Singapore",ChIJ_xnxVaMR2jERK7dnPmCBqqc,FairPrice Hillion Mall,"17 Petir Rd, #B2-67, Singapore 678278",4.2,1391,"[""establishment"", ""food"", ""grocery_or_supermarket"", ""point_of_interest"", ""store"", ""supermarket""]",1.378531,103.7632107,True
Central Water Catchment,Central Water Catchment,shopping,shopping groceries malls supermarkets markets,"shopping groceries malls supermarkets markets near Central Water Catchment, Central Water Catchment, Singapore",ChIJK3ZOu1IQ2jERXBDsZ-sShE4,CS Fresh HillV2,"4 Hillview Rise, #02 - 07, Singapore 667979",4.1,231,"[""establishment"", ""food"", ""grocery_or_supermarket"", ""point_of_interest"", ""store"", ""supermarket""]",1.3637528,103.7645293,True
Central Water Catchment,Central Water Catchment,shopping,shopping groceries malls supermarkets markets,"shopping groceries malls supermarkets markets near Central Water Catchment, Central Water Catchment, Singapore",ChIJnV4ZVGoa2jERtOxCkkl9xvA,CS Fresh @ Holland Shopping Centre,"211 Holland Ave, #01-02,04,05 Holland Shopping Ctr, Singapore 278967",4.1,734,"[""establishment"", ""food"", ""grocery_or_supermarket"", ""point_of_interest"", ""store"", ""supermarket""]",1.3101604,103.7954036,True
Central Water Catchment,Central Water Catchment,shopping,shopping groceries malls supermarkets markets,"shopping groceries malls supermarkets markets near Central Water Catchment, Central Water Catchment, Singapore",ChIJp0JVlEIa2jER9lM6m1VP3S0,CS Fresh The Star Vista,"1 Vista Exchange Green #B1-02&35/36, The Star Vista, Singapore 138617",3.9,401,"[""establishment"", ""food"", ""grocery_or_supermarket"", ""point_of_interest"", ""storage"", ""store"", ""supermarket""]",1.3068384,103.7879216,True
Central Water Catchment,Central Water Catchment,shopping,shopping groceries malls supermarkets markets,"shopping groceries malls supermarkets markets near Central Water Catchment, Central Water Catchment, Singapore",ChIJq93BHIkQ2jEReDU1CrhkeOg,FairPrice Finest Bukit Timah Plaza,"1 Jln Anak Bukit, #B1-01 & #B2-01, Bukit Timah Plaza, 1 Jalan Anak Bukit, Singapore 588996",4.4,1268,"[""establishment"", ""food"", ""grocery_or_supermarket"", ""point_of_interest"", ""store"", ""supermarket""]",1.3383817,103.7783546,True
Central Water Catchment,Central Water Catchment,shopping,shopping groceries malls supermarkets markets,"shopping groceries malls supermarkets markets near Central Water Catchment, Central Water Catchment, Singapore",ChIJVcXun8gZ2jER90s2kBbgN3E,FairPrice,"180 Kitchener Road, Mall, B1-09/10 City Square, Singapore 208539",4.3,1298,"[""establishment"", ""food"", ""grocery_or_supermarket"", ""point_of_interest"", ""store"", ""supermarket""]",1.3113982,103.8565897,True
Central Water Catchment,Central Water Catchment,shopping,shopping groceries malls supermarkets markets,"shopping groceries malls supermarkets markets near Central Water Catchment, Central Water Catchment, Singapore",ChIJVYEAaEca2jERpxajHtlWFRE,Sheng Siong Supermarket,"88 Tanglin Halt Rd, #01-10 Commonwealth View, Singapore 141088",4.3,2044,"[""establishment"", ""food"", ""grocery_or_supermarket"", ""point_of_interest"", ""store"", ""supermarket""]",1.3014357,103.7983856,True
Central Water Catchment,Central Water Catchment,shopping,shopping groceries malls supermarkets markets,"shopping groceries malls supermarkets markets near Central Water Catchment, Central Water Catchment, Singapore",ChIJF8_pdQAZ2jERPP1a7tuS84s,FairPrice Xpress,"35 Selegie Rd, #01-11/12 Parklane Shopping Mall, Singapore 188307",4.1,209,"[""convenience_store"", ""establishment"", ""food"", ""grocery_or_supermarket"", ""point_of_interest"", ""store""]",1.3007791,103.8495883,True
Central Water Catchment,Central Water Catchment,shopping,shopping groceries malls supermarkets markets,"shopping groceries malls supermarkets markets near Central Water Catchment, Central Water Catchment, Singapore",ChIJs5CBlukR2jERTIOWORf5ceI,FairPrice Lot 1 Shoppers' Mall,"21 Choa Chu Kang Avenue 4, #B1-03, Lot, one, Singapore 689812",4.0,1187,"[""establishment"", ""food"", ""grocery_or_supermarket"", ""point_of_interest"", ""store"", ""supermarket""]",1.3852086,103.7449371,True
Central Water Catchment,Central Water Catchment,shopping,shopping groceries malls supermarkets markets,"shopping groceries malls supermarkets markets near Central Water Catchment, Central Water Catchment, Singapore",ChIJC_92-Gca2jERSrlTfrBrrZk,Sheng Siong Supermarket,"25 Ghim Moh Link, #01-11, Singapore 270025",4.2,620,"[""establishment"", ""food"", ""grocery_or_supermarket"", ""point_of_interest"", ""store"", ""supermarket""]",1.3080897,103.7859979,True
Central Water Catchment,Central Water Catchment,shopping,shopping groceries malls supermarkets markets,"shopping groceries malls supermarkets markets near Central Water Catchment, Central Water Catchment, Singapore",ChIJH9UDGYwb2jER0rtiFnlgKg4,CS Fresh One Holland Village,"7 Holland Vlg Wy, #01-16, Singapore 275748",2.7,36,"[""establishment"", ""food"", ""grocery_or_supermarket"", ""point_of_interest"", ""store"", ""supermarket""]",1.3114782,103.7937223,True
Central Water Catchment,Central Water Catchment,shopping,shopping groceries malls supermarkets markets,"shopping groceries malls supermarkets markets near Central Water Catchment, Central Water Catchment, Singapore",ChIJMRzkvd0W2jERb7PMt8VieN4,Sheng Siong Supermarket,"Ang Mo Kio Ave 3, #01-1753/1755, Singapore 560122",4.2,689,"[""establishment"", ""food"", ""grocery_or_supermarket"", ""point_of_interest"", ""store"", ""supermarket""]",1.3702165,103.843494,True
Central Water Catchment,Central Water Catchment,recreation,recreation sports gyms swimming community clubs,"recreation sports gyms swimming community clubs near Central Water Catchment, Central Water Catchment, Singapore",ChIJs45bbr0R2jERwByR91EdWqw,Senja-Cashew Community Club,"101 Bukit Panjang Rd, Singapore 679910",4.3,1262,"[""establishment"", ""point_of_interest""]",1.381403,103.764651,True
Central Water Catchment,Central Water Catchment,recreation,recreation sports gyms swimming community clubs,"recreation sports gyms swimming community clubs near Central Water Catchment, Central Water Catchment, Singapore",ChIJ8yMt54sQ2jERjBRZb9swlqY,Temasek Club,"131 Rifle Range Rd, Singapore 588406",4.3,1464,"[""establishment"", ""point_of_interest""]",1.3463976,103.7805251,True
Central Water Catchment,Central Water Catchment,recreation,recreation sports gyms swimming community clubs,"recreation sports gyms swimming community clubs near Central Water Catchment, Central Water Catchment, Singapore",ChIJKV8z5igY2jERTwe6UqsW0P4,F1 Recreation,"20 Sin Ming Ln, #01-57 Midview City, Singapore 573968",4.6,82,"[""establishment"", ""general_contractor"", ""point_of_interest""]",1.3580653,103.8331785,True
Central Water Catchment,Central Water Catchment,recreation,recreation sports gyms swimming community clubs,"recreation sports gyms swimming community clubs near Central Water Catchment, Central Water Catchment, Singapore",ChIJ0S3wSmoa2jER2aq7I8gFiy0,Buona Vista Community Club,"36 Holland Dr, Singapore 270036",4.2,1126,"[""establishment"", ""point_of_interest""]",1.3094603,103.7926982,True
Central Water Catchment,Central Water Catchment,recreation,recreation sports gyms swimming community clubs,"recreation sports gyms swimming community clubs near Central Water Catchment, Central Water Catchment, Singapore",ChIJia6dov4Z2jERjdeO3xGAx8U,Tanglin Community Club,"245 Whitley Rd, Singapore 297829",4.2,328,"[""establishment"", ""point_of_interest""]",1.3233488,103.8268267,True
Central Water Catchment,Central Water Catchment,recreation,recreation sports gyms swimming community clubs,"recreation sports gyms swimming community clubs near Central Water Catchment, Central Water Catchment, Singapore",ChIJ3cOxS-sQ2jERyNrQlDV0mOM,The British Club,"73 Bukit Tinggi Rd, Singapore 289761",4.5,641,"[""establishment"", ""point_of_interest""]",1.345869,103.792638,True
Central Water Catchment,Central Water Catchment,recreation,recreation sports gyms swimming community clubs,"recreation sports gyms swimming community clubs near Central Water Catchment, Central Water Catchment, Singapore",ChIJcywD4FUW2jER6hZ-wPYnH4I,Swimfast Aquatic,"11 Blackmore Dr, Methodist Girls' School Sports Complex, Singapore 599986",4.2,30,"[""establishment"", ""point_of_interest""]",1.3316333,103.7841023,True
Central Water Catchment,Central Water Catchment,recreation,recreation sports gyms swimming community clubs,"recreation sports gyms swimming community clubs near Central Water Catchment, Central Water Catchment, Singapore",ChIJ03G_xKIR2jERuE_Fzg7W0XE,Senja Cashew Swimming Complex (The Swimming Place),"101 Bukit Panjang Rd, Singapore 679910",4.1,237,"[""establishment"", ""health"", ""point_of_interest"", ""school""]",1.3821209,103.7645736,True
Central Water Catchment,Central Water Catchment,recreation,recreation sports gyms swimming community clubs,"recreation sports gyms swimming community clubs near Central Water Catchment, Central Water Catchment, Singapore",ChIJOZIFa34Z2jERL9_IhYLjUH4,Henderson Community Club,"500 Bukit Merah Vw, Singapore 159682",4.1,352,"[""establishment"", ""point_of_interest""]",1.2858271,103.823121,True
Central Water Catchment,Central Water Catchment,recreation,recreation sports gyms swimming community clubs,"recreation sports gyms swimming community clubs near Central Water Catchment, Central Water Catchment, Singapore",ChIJ____7xMX2jERWYaeX5Kpxcw,Bishan Community Club,"51 Bishan St. 13, Singapore 579799",4.2,1629,"[""establishment"", ""point_of_interest""]",1.3496277,103.8507641,True
Central Water Catchment,Central Water Catchment,recreation,recreation sports gyms swimming community clubs,"recreation sports gyms swimming community clubs near Central Water Catchment, Central Water Catchment, Singapore",ChIJS0_tsEMa2jERcvmqB8RLwYk,The Ministry of Education Sports and Recreation Club (MESRC),"21 Evans Rd, Singapore 259366",4.1,7,"[""establishment"", ""point_of_interest""]",1.3189947,103.8199101,True
Central Water Catchment,Central Water Catchment,recreation,recreation sports gyms swimming community clubs,"recreation sports gyms swimming community clubs near Central Water Catchment, Central Water Catchment, Singapore",ChIJdZqloOcW2jERfOq0MTBjb20,ActiveSG Sport Park @ Teck Ghee Swimming Complex,"1771 Ang Mo Kio Ave 1, Singapore 569978",4.0,493,"[""establishment"", ""point_of_interest""]",1.3632171,103.8499216,True
Central Water Catchment,Central Water Catchment,recreation,recreation sports gyms swimming community clubs,"recreation sports gyms swimming community clubs near Central Water Catchment, Central Water Catchment, Singapore",ChIJ_WX9ue0R2jER865IJyACAoc,Choa Chu Kang Sport Centre,"1 Choa Chu Kang Street 53, Singapore 689236",4.2,959,"[""establishment"", ""gym"", ""health"", ""point_of_interest"", ""stadium""]",1.3910172,103.7482599,True
Central Water Catchment,Central Water Catchment,recreation,recreation sports gyms swimming community clubs,"recreation sports gyms swimming community clubs near Central Water Catchment, Central Water Catchment, Singapore",ChIJqQr7ofER2jERH_EFPnj1qC4,Yew Tee Community Club,"20 Choa Chu Kang Street 52, #01-01 Yew Tee Community Building, Singapore 689286",4.2,778,"[""establishment"", ""point_of_interest""]",1.3948528,103.7447108,True
Central Water Catchment,Central Water Catchment,recreation,recreation sports gyms swimming community clubs,"recreation sports gyms swimming community clubs near Central Water Catchment, Central Water Catchment, Singapore",ChIJVVVVVegR2jER_ncZsSw8hfM,Keat Hong Community Club,"2 Choa Chu Kang Loop, #01-01, Singapore 689687",4.2,1115,"[""establishment"", ""point_of_interest""]",1.3841444,103.744825,True
Central Water Catchment,Central Water Catchment,recreation,recreation sports gyms swimming community clubs,"recreation sports gyms swimming community clubs near Central Water Catchment, Central Water Catchment, Singapore",ChIJVVJ93ocQ2jER8osZOv0lKQA,Ngee Ann Sports Complex,"535 Clementi Rd, Singapore 599489",4.4,162,"[""establishment"", ""point_of_interest""]",1.3356647,103.7767401,True
Central Water Catchment,Central Water Catchment,recreation,recreation sports gyms swimming community clubs,"recreation sports gyms swimming community clubs near Central Water Catchment, Central Water Catchment, Singapore",ChIJ6wSMeewZ2jERnRkQnVf_7-c,Cairnhill Community Club,"1 Anthony Rd, #02-06/07, Singapore 229944",4.3,387,"[""establishment"", ""point_of_interest""]",1.3103626,103.8391521,True
Central Water Catchment,Central Water Catchment,recreation,recreation sports gyms swimming community clubs,"recreation sports gyms swimming community clubs near Central Water Catchment, Central Water Catchment, Singapore",ChIJkeX4YFsa2jERDRq9DzW0FHI,ACJC Sports Complex,"25 Dover Cl E, Singapore 139745",4.1,51,"[""establishment"", ""point_of_interest""]",1.301924,103.7863617,True
Central Water Catchment,Central Water Catchment,recreation,recreation sports gyms swimming community clubs,"recreation sports gyms swimming community clubs near Central Water Catchment, Central Water Catchment, Singapore",ChIJJWt786YR2jERcIgIkdUxv_0,Bukit Panjang Community Club,"8 Pending Rd, Singapore 678295",4.1,957,"[""establishment"", ""point_of_interest""]",1.376001,103.770687,True
Central Water Catchment,Central Water Catchment,recreation,recreation sports gyms swimming community clubs,"recreation sports gyms swimming community clubs near Central Water Catchment, Central Water Catchment, Singapore",ChIJ2cCNCFga2jER5JmIg6WzSNk,University Sports Centre,"2 Sports Dr., Singapore 117288",4.5,114,"[""establishment"", ""gym"", ""health"", ""point_of_interest""]",1.2997617,103.7754896,True
Central Water Catchment,Central Water Catchment,nature,parks gardens nature waterfront park connectors,"parks gardens nature waterfront park connectors near Central Water Catchment, Central Water Catchment, Singapore",ChIJDR2Au0sX2jERt1iFDZAqk70,Central Catchment Nature Reserve,"park, Singapore 767993",4.5,190,"[""establishment"", ""park"", ""point_of_interest"", ""tourist_attraction""]",1.3569531,103.8045143,True
Central Water Catchment,Central Water Catchment,nature,parks gardens nature waterfront park connectors,"parks gardens nature waterfront park connectors near Central Water Catchment, Central Water Catchment, Singapore",ChIJied_ZdIT2jERfFB2io7NbV0,Central Catchment Park Connector,"Mandai Rd, Singapore",4.5,547,"[""establishment"", ""point_of_interest""]",1.4105867,103.7783568,True
Central Water Catchment,Central Water Catchment,nature,parks gardens nature waterfront park connectors,"parks gardens nature waterfront park connectors near Central Water Catchment, Central Water Catchment, Singapore",ChIJ4QhPDSMT2jER-K6cnYYSNZw,Ulu Sembawang Park Connector,"403R Jln Ulu Sembawang, Singapore 779563",4.4,108,"[""establishment"", ""park"", ""point_of_interest""]",1.422046,103.7928186,True
Central Water Catchment,Central Water Catchment,nature,parks gardens nature waterfront park connectors,"parks gardens nature waterfront park connectors near Central Water Catchment, Central Water Catchment, Singapore",ChIJq_5RjPUQ2jERQZR7bzih7tw,Hindhede Nature Park,"Hindhede Dr, Singapore",4.5,970,"[""establishment"", ""park"", ""point_of_interest"", ""tourist_attraction""]",1.3491093,103.7754308,True
Central Water Catchment,Central Water Catchment,nature,parks gardens nature waterfront park connectors,"parks gardens nature waterfront park connectors near Central Water Catchment, Central Water Catchment, Singapore",ChIJ_6g8kisX2jERaGrSixd_xbM,Windsor Nature Park,"30 Venus Dr, Singapore 573858",4.6,1759,"[""establishment"", ""park"", ""point_of_interest"", ""tourist_attraction""]",1.3566265,103.8214319,True
Central Water Catchment,Central Water Catchment,nature,parks gardens nature waterfront park connectors,"parks gardens nature waterfront park connectors near Central Water Catchment, Central Water Catchment, Singapore",ChIJGzodYQYR2jERBKbEaoMOfg8,Chestnut Nature Park,"Chestnut Ave, Singapore 679514",4.5,1588,"[""establishment"", ""park"", ""point_of_interest"", ""tourist_attraction""]",1.3760246,103.7810719,True
Central Water Catchment,Central Water Catchment,nature,parks gardens nature waterfront park connectors,"parks gardens nature waterfront park connectors near Central Water Catchment, Central Water Catchment, Singapore",ChIJre8p_MoW2jERJBGKw1MsdbY,Thomson Nature Park,"Upper Thomson Rd, Singapore",4.5,1150,"[""establishment"", ""park"", ""point_of_interest"", ""tourist_attraction""]",1.3833292,103.8219469,True
Central Water Catchment,Central Water Catchment,nature,parks gardens nature waterfront park connectors,"parks gardens nature waterfront park connectors near Central Water Catchment, Central Water Catchment, Singapore",ChIJv0i6HXoR2jERfNMBSV2pxWQ,Old Upper Thomson Park Connector,"Old Upper Thomson Rd, Thomson Nature Park, Singapore",4.5,4,"[""establishment"", ""point_of_interest""]",1.3909133,103.8179841,True
Central Water Catchment,Central Water Catchment,nature,parks gardens nature waterfront park connectors,"parks gardens nature waterfront park connectors near Central Water Catchment, Central Water Catchment, Singapore",ChIJ59JC2zAR2jERBRxd5jtZKL8,Upper Peirce Reservoir Park,"Along Old Upper Thomson Road, Singapore",4.6,1731,"[""establishment"", ""park"", ""point_of_interest"", ""tourist_attraction""]",1.3731053,103.8119088,True
Central Water Catchment,Central Water Catchment,nature,parks gardens nature waterfront park connectors,"parks gardens nature waterfront park connectors near Central Water Catchment, Central Water Catchment, Singapore",ChIJMxZeJ5sT2jERG3KCuLiIsjw,Woodlands Park Connector (SLE),Singapore,4.7,9,"[""establishment"", ""park"", ""point_of_interest""]",1.4254469,103.7905053,True
Central Water Catchment,Central Water Catchment,nature,parks gardens nature waterfront park connectors,"parks gardens nature waterfront park connectors near Central Water Catchment, Central Water Catchment, Singapore",ChIJH6JsiVUR2jERcH6ybOVyhbs,Springleaf Nature Park,"1230 Upper Thomson Rd, Singapore 787129",4.4,646,"[""establishment"", ""park"", ""point_of_interest""]",1.4011345,103.8185457,True
Central Water Catchment,Central Water Catchment,nature,parks gardens nature waterfront park connectors,"parks gardens nature waterfront park connectors near Central Water Catchment, Central Water Catchment, Singapore",ChIJQx3YRtIW2jERTHZ7nC044PM,Lower Peirce Reservoir Park,Singapore 573868,4.6,2090,"[""establishment"", ""park"", ""point_of_interest"", ""tourist_attraction""]",1.3720142,103.8257891,True
Central Water Catchment,Central Water Catchment,nature,parks gardens nature waterfront park connectors,"parks gardens nature waterfront park connectors near Central Water Catchment, Central Water Catchment, Singapore",ChIJi090zPwS2jERiJCqFWoP8Z4,Woodlands Waterfront Park,"Admiralty Rd W, Singapore 759956",4.5,3993,"[""establishment"", ""park"", ""point_of_interest"", ""tourist_attraction""]",1.4530529,103.7804801,True
Central Water Catchment,Central Water Catchment,nature,parks gardens nature waterfront park connectors,"parks gardens nature waterfront park connectors near Central Water Catchment, Central Water Catchment, Singapore",ChIJu-9LR74X2jERcySAF5TK9vM,MacRitchie Prunus Trail,Singapore,4.6,112,"[""establishment"", ""point_of_interest""]",1.3457732,103.8363445,True
Central Water Catchment,Central Water Catchment,nature,parks gardens nature waterfront park connectors,"parks gardens nature waterfront park connectors near Central Water Catchment, Central Water Catchment, Singapore",ChIJzzfgIHoR2jERZ7WR7zp0ix8,MacRitchie Nature Trail,"MacRitchie Natural Trail, Singapore",4.8,411,"[""establishment"", ""point_of_interest""]",1.3457745,103.8365242,True
Central Water Catchment,Central Water Catchment,nature,parks gardens nature waterfront park connectors,"parks gardens nature waterfront park connectors near Central Water Catchment, Central Water Catchment, Singapore",ChIJxZwgg1kZ2jERfsCcuEg0JC4,Kallang Park Connector,"998 Bendemeer Rd, Singapore 339945",4.4,119,"[""establishment"", ""park"", ""point_of_interest""]",1.3221012,103.8676558,True
Central Water Catchment,Central Water Catchment,nature,parks gardens nature waterfront park connectors,"parks gardens nature waterfront park connectors near Central Water Catchment, Central Water Catchment, Singapore",ChIJxe3T7SsX2jERAGu8EXnVlsU,Whampoa Park Connector,"Blk 102, Singapore",4.3,11,"[""establishment"", ""point_of_interest""]",1.3281757,103.8509331,True
Central Water Catchment,Central Water Catchment,nature,parks gardens nature waterfront park connectors,"parks gardens nature waterfront park connectors near Central Water Catchment, Central Water Catchment, Singapore",ChIJaaC07KIR2jERl3-DgSWf4aE,Pang Sua Pond,"101 Bukit Panjang Ring Road, Saujana Rd, Singapore 679910",4.5,901,"[""establishment"", ""park"", ""point_of_interest"", ""tourist_attraction""]",1.3819061,103.7655122,True
Central Water Catchment,Central Water Catchment,nature,parks gardens nature waterfront park connectors,"parks gardens nature waterfront park connectors near Central Water Catchment, Central Water Catchment, Singapore",ChIJfYJF_ysX2jERCrIp85u7o1w,Macritchie Treetop Walk Trailhead,"Central Catchment Nature Reserve, 601 Island Club Rd (Located close to Singapore Island Country Club, Venus Dr, via, Singapore",4.6,1855,"[""establishment"", ""point_of_interest"", ""tourist_attraction""]",1.3594959,103.8269665,True
Central Water Catchment,Central Water Catchment,nature,parks gardens nature waterfront park connectors,"parks gardens nature waterfront park connectors near Central Water Catchment, Central Water Catchment, Singapore",ChIJ____rBoU2jERyE5AP5-iwrc,Lower Seletar Reservoir Park,"Yishun Ave 1, Lower Seletar Reservoir Park, Singapore 769139",4.5,2534,"[""establishment"", ""park"", ""point_of_interest"", ""tourist_attraction""]",1.4101641,103.8324319,True
